timestamp,roll,pitch,yaw,thrust_body[0],thrust_body[1],thrust_body[2]
368090524,0.036922295,0.020544881,-0.0003638311,0.0,0.0,-0.001
368112851,0.03604002,0.016679656,-0.00052394555,0.0,0.0,-0.001
368130943,0.033329565,0.01625692,8.58667e-05,0.0,0.0,-0.001
368153485,0.03441058,0.01723993,-0.00011987353,0.0,0.0,-0.001
368171533,0.035404757,0.017156003,-0.0008467544,0.0,0.0,-0.001
368193809,0.036002185,0.017471999,-0.00048109185,0.0,0.0,-0.001
368212131,0.033297613,0.016598564,0.0009254549,0.0,0.0,-0.001
368229913,0.033739656,0.018059595,0.0014348458,0.0,0.0,-0.001
368252357,0.03820531,0.016404856,0.00038568382,0.0,0.0,-0.001
368274811,0.035857335,0.019012714,-0.00022135791,0.0,0.0,-0.001
368292993,0.035999607,0.019583397,-0.00044742346,0.0,0.0,-0.001
368310793,0.035486426,0.01904853,-3.3595024e-05,0.0,0.0,-0.001
368333206,0.036220342,0.017010147,-8.53492e-05,0.0,0.0,-0.001
368351237,0.03504236,0.018597867,-0.00026706082,0.0,0.0,-0.001
368369311,0.03539606,0.017452024,-0.00015672574,0.0,0.0,-0.001
368391695,0.034701202,0.01727871,0.00020343433,0.0,0.0,-0.001
368414208,0.03498356,0.01799637,0.000104370134,0.0,0.0,-0.001
368432187,0.036744066,0.017133152,0.00016420196,0.0,0.0,-0.001
368450228,0.03602067,0.018596452,0.00049488165,0.0,0.0,-0.001
368472834,0.036247656,0.018249322,-8.82238e-05,0.0,0.0,-0.001
368495367,0.036887214,0.018259944,-0.00010375749,0.0,0.0,-0.001
368513327,0.035324298,0.018817592,-3.4273457e-05,0.0,0.0,-0.001
368531042,0.036798015,0.017862797,-0.0006022833,0.0,0.0,-0.001
368553681,0.03586903,0.017009638,0.00014912915,0.0,0.0,-0.001
368571892,0.034618974,0.017026585,0.00019149498,0.0,0.0,-0.001
368589565,0.035944425,0.016090829,-3.5716326e-05,0.0,0.0,-0.001
368612081,0.035219286,0.017423352,0.0004892873,0.0,0.0,-0.001
368634554,0.036141623,0.016970262,-5.04902e-05,0.0,0.0,-0.001
368652483,0.03644676,0.01742312,0.00020173585,0.0,0.0,-0.001
368670514,0.035792056,0.017883249,0.00012632456,0.0,0.0,-0.001
368693097,0.03724533,0.017596094,-0.00011801427,0.0,0.0,-0.001
368710989,0.036334842,0.018147651,3.7453243e-05,0.0,0.0,-0.001
368733415,0.036450695,0.017207287,-0.00022652073,0.0,0.0,-0.001
368751367,0.036138754,0.016955411,-5.2837655e-05,0.0,0.0,-0.001
368774042,0.03541475,0.016875494,0.00013099628,0.0,0.0,-0.001
368791869,0.036288355,0.016548844,-5.7410445e-05,0.0,0.0,-0.001
368809840,0.036135968,0.017143732,0.0005482858,0.0,0.0,-0.001
368832344,0.036922053,0.016964957,-5.4084256e-05,0.0,0.0,-0.001
368854820,0.037137043,0.017629933,0.00022844675,0.0,0.0,-0.001
368872907,0.036894117,0.017998436,-8.708555e-05,0.0,0.0,-0.001
368890824,0.037383538,0.017527867,-0.00037263663,0.0,0.0,-0.001
368913276,0.037030444,0.017832108,4.8270504e-06,0.0,0.0,-0.001
368931281,0.036782827,0.017143067,-0.00017525672,0.0,0.0,-0.001
368953903,0.03693641,0.01699827,0.00019687827,0.0,0.0,-0.001
368971864,0.03646402,0.016881179,0.00013253262,0.0,0.0,-0.001
368994240,0.036987312,0.0164917,2.7319227e-05,0.0,0.0,-0.001
369012189,0.037150618,0.017089797,0.00027100425,0.0,0.0,-0.001
369030209,0.03729816,0.017210642,-0.00014750822,0.0,0.0,-0.001
369052768,0.03793168,0.017469224,0.000306873,0.0,0.0,-0.001
369070780,0.038290787,0.018148858,-0.0001197832,0.0,0.0,-0.001
369093180,0.03835268,0.017725298,-4.094028e-05,0.0,0.0,-0.001
369111142,0.037971087,0.018063033,0.00044874987,0.0,0.0,-0.001
369133716,0.03782722,0.017260253,-0.00024366104,0.0,0.0,-0.001
369151607,0.037896942,0.016973708,0.00025992392,0.0,0.0,-0.001
369174080,0.0374273,0.017128173,-0.00013979158,0.0,0.0,-0.001
369192212,0.037438978,0.016628714,-9.28898e-05,0.0,0.0,-0.001
369210079,0.037595898,0.01671444,0.00043110494,0.0,0.0,-0.001
369232485,0.037552275,0.017135225,-4.1642943e-05,0.0,0.0,-0.001
369255140,0.03776247,0.017225578,0.00022001083,0.0,0.0,-0.001
369273037,0.03830385,0.017276589,-8.1754624e-05,0.0,0.0,-0.001
369291013,0.037372336,0.017047387,-0.00027322496,0.0,0.0,-0.001
369313467,0.03797112,0.016789885,-2.1105428e-05,0.0,0.0,-0.001
369331552,0.03735496,0.016463406,-0.00014349834,0.0,0.0,-0.001
369349490,0.03800812,0.016285405,0.000117367716,0.0,0.0,-0.001
369372083,0.03803129,0.01660498,-9.57263e-05,0.0,0.0,-0.001
369394496,0.03846324,0.016575124,0.0001751391,0.0,0.0,-0.001
369412649,0.0384353,0.017217731,0.00024991017,0.0,0.0,-0.001
369430410,0.038026087,0.017444042,-0.00013098291,0.0,0.0,-0.001
369452910,0.038549073,0.017266063,0.00013189105,0.0,0.0,-0.001
369475514,0.03813723,0.01761103,-0.00013803254,0.0,0.0,-0.001
369488911,0.038322728,0.017331649,-0.00013033525,0.0,0.0,-0.001
369511395,0.038808316,0.01673083,8.547726e-05,0.0,0.0,-0.001
369533862,0.038164143,0.017098574,-3.87497e-05,0.0,0.0,-0.001
369551942,0.038701463,0.017192855,0.00012511818,0.0,0.0,-0.001
369569828,0.03857866,0.017794997,-5.049193e-05,0.0,0.0,-0.001
369592422,0.038708627,0.01740778,-7.5718446e-05,0.0,0.0,-0.001
369614836,0.038272746,0.017717082,1.7111961e-05,0.0,0.0,-0.001
369632848,0.0384382,0.017830461,-1.765067e-05,0.0,0.0,-0.001
369650733,0.039165992,0.017734542,0.00016175695,0.0,0.0,-0.001
369673180,0.038205843,0.017832555,-5.1133313e-05,0.0,0.0,-0.001
369691195,0.038878232,0.017786533,-0.00021599354,0.0,0.0,-0.001
369709177,0.039020758,0.017099148,0.00022216144,0.0,0.0,-0.001
369731782,0.038598623,0.017831136,-2.1704342e-05,0.0,0.0,-0.001
369754168,0.039557625,0.017510178,9.2226284e-05,0.0,0.0,-0.001
369772150,0.038251452,0.01764483,-3.1312673e-05,0.0,0.0,-0.001
369790138,0.03937362,0.017777333,-0.000116313924,0.0,0.0,-0.001
369812725,0.038631152,0.017748443,1.4277171e-05,0.0,0.0,-0.001
369835165,0.038529206,0.017639985,-5.60186e-05,0.0,0.0,-0.001
369853304,0.03942892,0.017322743,0.00015747297,0.0,0.0,-0.001
369871071,0.03852009,0.017564695,-3.5131583e-05,0.0,0.0,-0.001
369893577,0.039455622,0.017186455,5.0738738e-05,0.0,0.0,-0.001
369911560,0.03801015,0.017494898,0.00015892346,0.0,0.0,-0.001
369934084,0.038216945,0.018183596,-0.00018471916,0.0,0.0,-0.001
369952109,0.038697593,0.01731557,0.00017013476,0.0,0.0,-0.001
369974638,0.037473395,0.017651796,2.0898304e-05,0.0,0.0,-0.001
369992495,0.03924952,0.01750914,-3.5386496e-05,0.0,0.0,-0.001
370010446,0.03788738,0.017728426,0.00015968543,0.0,0.0,-0.001
370033069,0.038190812,0.018446924,-0.000112881564,0.0,0.0,-0.001
370050956,0.03802249,0.017297547,0.00016840274,0.0,0.0,-0.001
370073454,0.037420012,0.017625941,-5.7316272e-05,0.0,0.0,-0.001
370091345,0.03836368,0.017466027,-0.00012109872,0.0,0.0,-0.001
370113880,0.037472453,0.017719237,-2.3223676e-05,0.0,0.0,-0.001
370131870,0.03765465,0.017878262,-4.4213946e-05,0.0,0.0,-0.001
370154302,0.037466433,0.016920215,9.950801e-05,0.0,0.0,-0.001
370172481,0.03764643,0.01749639,-5.863469e-05,0.0,0.0,-0.001
370190514,0.0379996,0.017588608,0.00012955657,0.0,0.0,-0.001
370212804,0.038103126,0.017387202,2.923742e-05,0.0,0.0,-0.001
370230798,0.038100153,0.018019257,-8.7006396e-05,0.0,0.0,-0.001
370253401,0.038092814,0.01737693,5.4654996e-05,0.0,0.0,-0.001
370271263,0.03793229,0.017591259,-0.00024453827,0.0,0.0,-0.001
370293812,0.037634186,0.017707743,3.8644986e-05,0.0,0.0,-0.001
370311788,0.03756012,0.016733786,-0.00018996674,0.0,0.0,-0.001
370329848,0.037380308,0.017432958,-0.00019865467,0.0,0.0,-0.001
370352167,0.03691013,0.01684442,-5.468128e-05,0.0,0.0,-0.001
370374791,0.03732563,0.016941724,-5.88133e-05,0.0,0.0,-0.001
370392755,0.037243236,0.017292134,0.00022622492,0.0,0.0,-0.001
370410694,0.037645094,0.017084787,-2.9721421e-05,0.0,0.0,-0.001
370433142,0.037930127,0.017844904,0.0001938844,0.0,0.0,-0.001
370455713,0.037667774,0.017209318,3.6878223e-06,0.0,0.0,-0.001
370469159,0.03753939,0.017214326,-0.00019931175,0.0,0.0,-0.001
370491605,0.037072767,0.01719917,0.00015888053,0.0,0.0,-0.001
370514111,0.03710131,0.017097179,-0.00020666776,0.0,0.0,-0.001
370532170,0.0372722,0.017247204,0.00014426245,0.0,0.0,-0.001
370550198,0.037061956,0.016924929,0.00017006397,0.0,0.0,-0.001
370572881,0.037297443,0.01736829,2.5403706e-05,0.0,0.0,-0.001
370595062,0.037977472,0.017255532,0.00022748829,0.0,0.0,-0.001
370613159,0.038203496,0.01811139,-0.00038833727,0.0,0.0,-0.001
370630983,0.0383586,0.01871188,0.00040286602,0.0,0.0,-0.001
370653708,0.0385299,0.01814474,-8.357491e-05,0.0,0.0,-0.001
370671506,0.03812565,0.018952236,-0.00027978438,0.0,0.0,-0.001
370689489,0.03784971,0.018061068,0.00038701718,0.0,0.0,-0.001
370711896,0.037747458,0.017779795,-0.0004510152,0.0,0.0,-0.001
370734523,0.03740883,0.01827867,0.00052308646,0.0,0.0,-0.001
370752408,0.037780493,0.017438985,-0.00029179535,0.0,0.0,-0.001
370770491,0.037751,0.01818057,-4.5362347e-05,0.0,0.0,-0.001
370792867,0.038372032,0.018108435,4.298242e-05,0.0,0.0,-0.001
370815337,0.037807062,0.018435672,6.711394e-05,0.0,0.0,-0.001
370833406,0.03813643,0.01898842,0.00017477783,0.0,0.0,-0.001
370851314,0.0378779,0.018578364,-0.00030121487,0.0,0.0,-0.001
370873895,0.037519686,0.019308057,9.76498e-05,0.0,0.0,-0.001
370891830,0.038340047,0.0188419,0.0001187531,0.0,0.0,-0.001
370909903,0.03759337,0.019151382,-0.00027273287,0.0,0.0,-0.001
370932254,0.037736468,0.019288488,0.00011661611,0.0,0.0,-0.001
370954770,0.037156332,0.01898243,-0.00010735112,0.0,0.0,-0.001
370972733,0.03702132,0.019449474,0.00021551411,0.0,0.0,-0.001
370990798,0.03701932,0.01891305,2.6334756e-05,0.0,0.0,-0.001
371013240,0.036479115,0.019471126,0.00016662519,0.0,0.0,-0.001
371031273,0.036796257,0.019679487,6.848888e-05,0.0,0.0,-0.001
371053743,0.036520023,0.019574776,-2.1965026e-05,0.0,0.0,-0.001
371071875,0.036250755,0.020429825,0.00029365698,0.0,0.0,-0.001
371094307,0.03665326,0.019523842,-0.00019417131,0.0,0.0,-0.001
371112145,0.03576087,0.019803422,4.0402483e-05,0.0,0.0,-0.001
371134630,0.03564361,0.020213293,-0.00012801426,0.0,0.0,-0.001
371152647,0.035506904,0.019645838,7.8122444e-05,0.0,0.0,-0.001
371170729,0.034896556,0.02041755,0.00027072206,0.0,0.0,-0.001
371193073,0.03574374,0.019953161,-9.121082e-05,0.0,0.0,-0.001
371211117,0.035345215,0.020494059,7.150348e-05,0.0,0.0,-0.001
371233587,0.035283096,0.02126411,0.00020601702,0.0,0.0,-0.001
371251624,0.03534305,0.020731146,-0.00013065449,0.0,0.0,-0.001
371274062,0.035222933,0.020699149,9.069024e-05,0.0,0.0,-0.001
371292139,0.03508777,0.020240508,-0.00010927062,0.0,0.0,-0.001
371310073,0.034168188,0.019991111,-0.00013141791,0.0,0.0,-0.001
371332411,0.03422263,0.020071879,9.16957e-06,0.0,0.0,-0.001
371354996,0.034248933,0.019383388,-3.517432e-05,0.0,0.0,-0.001
371372979,0.034297112,0.0204628,0.000111346104,0.0,0.0,-0.001
371391055,0.03491267,0.020042405,9.434937e-05,0.0,0.0,-0.001
371413428,0.034649745,0.020385958,4.3369895e-05,0.0,0.0,-0.001
371431488,0.034439385,0.02069903,0.00014438588,0.0,0.0,-0.001
371449445,0.034118645,0.020014245,-4.995438e-05,0.0,0.0,-0.001
371471875,0.03421041,0.020523744,0.00014305761,0.0,0.0,-0.001
371494617,0.033889353,0.020123338,-8.208283e-05,0.0,0.0,-0.001
371512409,0.034105763,0.019634983,-7.374698e-05,0.0,0.0,-0.001
371530327,0.034469604,0.02027496,0.00039096756,0.0,0.0,-0.001
371552793,0.033759043,0.019836357,-0.00016836174,0.0,0.0,-0.001
371570794,0.03459244,0.02118677,0.00012301111,0.0,0.0,-0.001
371588931,0.033585623,0.021126052,0.00025727003,0.0,0.0,-0.001
371611256,0.034572218,0.020994477,-0.000444461,0.0,0.0,-0.001
371633850,0.034236714,0.020969063,0.00020227654,0.0,0.0,-0.001
371651887,0.03395711,0.02048461,-0.00032045282,0.0,0.0,-0.001
371669824,0.034507927,0.020723755,0.00017753418,0.0,0.0,-0.001
371692236,0.033578914,0.020040726,-0.00012980572,0.0,0.0,-0.001
371714887,0.033397246,0.02006558,-5.0410883e-05,0.0,0.0,-0.001
371732709,0.03370292,0.020029776,0.00028095668,0.0,0.0,-0.001
371750699,0.03340806,0.020226857,-0.00046027725,0.0,0.0,-0.001
371773119,0.033847474,0.020946227,0.00031276682,0.0,0.0,-0.001
371791261,0.033971522,0.020885123,0.00030773893,0.0,0.0,-0.001
371813705,0.03384152,0.021408051,-5.2771604e-05,0.0,0.0,-0.001
371831667,0.03425525,0.02139379,0.0007449033,0.0,0.0,-0.001
371854205,0.03425879,0.020581469,-0.0007182747,0.0,0.0,-0.001
371872431,0.034009922,0.02110474,0.00044596283,0.0,0.0,-0.001
371890022,0.03369976,0.020775642,-0.00014120607,0.0,0.0,-0.001
371912570,0.03404455,0.0214851,-8.558959e-05,0.0,0.0,-0.001
371935070,0.034176033,0.021452177,3.5464156e-05,0.0,0.0,-0.001
371952975,0.034189206,0.020645808,-0.00022113357,0.0,0.0,-0.001
371971012,0.03448714,0.021415157,0.00062633393,0.0,0.0,-0.001
371993609,0.034907755,0.021666452,-0.00026086983,0.0,0.0,-0.001
372011545,0.03444799,0.02167071,-0.00025466294,0.0,0.0,-0.001
372033910,0.034099597,0.021320755,7.2551324e-05,0.0,0.0,-0.001
372051934,0.034083065,0.020683622,-0.00032736838,0.0,0.0,-0.001
372074511,0.03315452,0.021061316,0.00034051092,0.0,0.0,-0.001
372092485,0.033819146,0.020929983,-0.0003956209,0.0,0.0,-0.001
372110440,0.033523846,0.020799179,9.5024596e-05,0.0,0.0,-0.001
372132933,0.033011172,0.021020321,6.0947787e-05,0.0,0.0,-0.001
372150970,0.03329675,0.020773407,-0.0010128597,0.0,0.0,-0.001
372173340,0.03262938,0.021537257,0.00040043893,0.0,0.0,-0.001
372191345,0.03323653,0.021518437,-0.0007764758,0.0,0.0,-0.001
372213927,0.032301288,0.021889877,0.0003854844,0.0,0.0,-0.001
372231842,0.032266308,0.021121718,-0.00011399235,0.0,0.0,-0.001
372254298,0.032179452,0.020006552,0.00011593259,0.0,0.0,-0.001
372272456,0.032287125,0.021019766,0.00033439204,0.0,0.0,-0.001
372290588,0.032768115,0.020949097,-0.0009154193,0.0,0.0,-0.001
372312898,0.03171937,0.020995852,0.0004102126,0.0,0.0,-0.001
372330727,0.032621797,0.02139739,-0.0001534486,0.0,0.0,-0.001
372353300,0.03258422,0.020606471,0.00021865625,0.0,0.0,-0.001
372371297,0.032584082,0.02162068,0.0011606258,0.0,0.0,-0.001
372393674,0.03303813,0.020205833,-0.00020960422,0.0,0.0,-0.001
372411677,0.03207356,0.021011353,0.00032185332,0.0,0.0,-0.001
372429688,0.03215807,0.020836392,-0.00021653323,0.0,0.0,-0.001
372452184,0.03190963,0.020129757,0.0001337933,0.0,0.0,-0.001
372474676,0.032572918,0.020933317,-0.00012013602,0.0,0.0,-0.001
372492659,0.033258904,0.020241868,-0.0009179496,0.0,0.0,-0.001
372510605,0.032907475,0.021183694,0.00075646216,0.0,0.0,-0.001
372533131,0.03409937,0.021390116,-0.00025779483,0.0,0.0,-0.001
372551157,0.03253224,0.020875677,0.00021927762,0.0,0.0,-0.001
372569236,0.03420022,0.021693697,0.00039744197,0.0,0.0,-0.001
372591562,0.0341117,0.020615814,-4.1297168e-05,0.0,0.0,-0.001
372614003,0.033011984,0.021458978,0.00017990501,0.0,0.0,-0.001
372632089,0.03436244,0.021528821,-0.0008004714,0.0,0.0,-0.001
372650119,0.03284592,0.020704981,0.00012538797,0.0,0.0,-0.001
372672695,0.03479941,0.021624388,-0.00011612398,0.0,0.0,-0.001
372695001,0.03454747,0.021042759,5.5464e-05,0.0,0.0,-0.001
372713003,0.033497594,0.022103464,0.00017714669,0.0,0.0,-0.001
372730961,0.034785688,0.021702874,-0.00042616203,0.0,0.0,-0.001
372753602,0.03472805,0.021160986,0.00023578221,0.0,0.0,-0.001
372771530,0.035116307,0.021831114,0.00015206225,0.0,0.0,-0.001
372789441,0.03475906,0.021095773,-0.00021355228,0.0,0.0,-0.001
372811828,0.03468712,0.021479284,6.26469e-05,0.0,0.0,-0.001
372834416,0.034620278,0.021111107,-0.00013810855,0.0,0.0,-0.001
372852439,0.035353765,0.021091113,0.00012278753,0.0,0.0,-0.001
372870346,0.035700373,0.022019919,6.475355e-05,0.0,0.0,-0.001
372892787,0.03555007,0.021639265,7.479823e-05,0.0,0.0,-0.001
372915293,0.035882436,0.022682138,0.00013810891,0.0,0.0,-0.001
372933299,0.0358183,0.022369627,-7.3932206e-05,0.0,0.0,-0.001
372951288,0.035618406,0.021757355,6.807483e-05,0.0,0.0,-0.001
372973917,0.03541635,0.022495423,-2.4824854e-05,0.0,0.0,-0.001
372991811,0.035490517,0.021631043,-0.0003966054,0.0,0.0,-0.001
373009804,0.035628423,0.021962285,6.986433e-06,0.0,0.0,-0.001
373032212,0.035244953,0.021678861,-0.00021763456,0.0,0.0,-0.001
373054730,0.035741273,0.021553457,9.1785856e-05,0.0,0.0,-0.001
373072799,0.0354533,0.022314595,0.00027924537,0.0,0.0,-0.001
373090776,0.03586694,0.021973453,-0.00016232743,0.0,0.0,-0.001
373113420,0.03577555,0.023012688,0.0001845722,0.0,0.0,-0.001
373131284,0.03551102,0.022393873,-0.00020008108,0.0,0.0,-0.001
373153711,0.036219805,0.022241184,0.00017573325,0.0,0.0,-0.001
373171753,0.03567704,0.022495104,0.0004646075,0.0,0.0,-0.001
373189653,0.035762206,0.02155224,-0.00046844347,0.0,0.0,-0.001
373212088,0.0353113,0.022036564,0.0002088756,0.0,0.0,-0.001
373234603,0.03525205,0.021491343,-0.00034786144,0.0,0.0,-0.001
373252597,0.036407467,0.021492464,0.00026967077,0.0,0.0,-0.001
373270587,0.035262447,0.02249611,0.00075156835,0.0,0.0,-0.001
373293017,0.036415104,0.021320192,-0.00013494972,0.0,0.0,-0.001
373310976,0.036312602,0.0228959,0.0009947084,0.0,0.0,-0.001
373333538,0.036449175,0.022573331,-0.00037254914,0.0,0.0,-0.001
373351640,0.036795814,0.022347284,0.00016999133,0.0,0.0,-0.001
373373958,0.036360398,0.02262224,-0.00025959063,0.0,0.0,-0.001
373392100,0.036873464,0.021505732,-0.0008546349,0.0,0.0,-0.001
373410097,0.03689371,0.022350071,0.0006693702,0.0,0.0,-0.001
373432478,0.03684517,0.022138055,-0.0004558192,0.0,0.0,-0.001
373454990,0.03673417,0.021715624,0.00043584692,0.0,0.0,-0.001
373472938,0.036857486,0.02222656,-0.00031922382,0.0,0.0,-0.001
373490983,0.037336554,0.021652568,-0.0005511349,0.0,0.0,-0.001
373513307,0.037142467,0.022472512,0.0003616674,0.0,0.0,-0.001
373531442,0.037417483,0.022222774,-0.00078108563,0.0,0.0,-0.001
373549419,0.037515856,0.022369126,0.0006671696,0.0,0.0,-0.001
373571836,0.037444666,0.022451535,-0.00032913458,0.0,0.0,-0.001
373594397,0.03666313,0.022262748,0.00022684655,0.0,0.0,-0.001
373612385,0.037194878,0.022272293,0.00054063374,0.0,0.0,-0.001
373630523,0.03689909,0.021716136,-0.0006322309,0.0,0.0,-0.001
373652761,0.03692793,0.021464555,0.00080117385,0.0,0.0,-0.001
373675326,0.03692372,0.02135576,-0.0002231085,0.0,0.0,-0.001
373688868,0.03662373,0.021380013,2.835696e-05,0.0,0.0,-0.001
373711289,0.03729421,0.021538168,0.00042997958,0.0,0.0,-0.001
373733683,0.037518427,0.021106655,-2.8611554e-05,0.0,0.0,-0.001
373751692,0.037886694,0.02121226,0.0003048899,0.0,0.0,-0.001
373769792,0.03800185,0.022101827,-0.0002431739,0.0,0.0,-0.001
373792262,0.03749884,0.021518005,5.1135303e-05,0.0,0.0,-0.001
373814646,0.03835812,0.021804098,-5.3863212e-05,0.0,0.0,-0.001
373832748,0.037471514,0.021593869,2.1612195e-05,0.0,0.0,-0.001
373850639,0.037894458,0.021542098,-0.00017756244,0.0,0.0,-0.001
373873066,0.037489563,0.021511259,0.00014556388,0.0,0.0,-0.001
373895662,0.03752594,0.021265965,-6.474352e-05,0.0,0.0,-0.001
373913592,0.03863963,0.022555841,0.00015564144,0.0,0.0,-0.001
373931585,0.037467677,0.022973105,6.668088e-05,0.0,0.0,-0.001
373954178,0.038612753,0.022612263,-0.000567084,0.0,0.0,-0.001
373972060,0.037697885,0.022603923,0.0005315069,0.0,0.0,-0.001
373989980,0.037385724,0.022242138,-0.00019555473,0.0,0.0,-0.001
374012689,0.03804696,0.022845171,0.00029268017,0.0,0.0,-0.001
374035111,0.037261076,0.022901349,-9.903445e-05,0.0,0.0,-0.001
374052926,0.037945442,0.022281144,-6.411308e-05,0.0,0.0,-0.001
374070911,0.037449248,0.022413155,0.0010223917,0.0,0.0,-0.001
374093482,0.037201677,0.022571025,-0.00028987287,0.0,0.0,-0.001
374111532,0.037556645,0.022640713,0.00034855673,0.0,0.0,-0.001
374133864,0.036695525,0.021882247,-0.0001777987,0.0,0.0,-0.001
374151884,0.037864476,0.022129174,-5.5071883e-05,0.0,0.0,-0.001
374174397,0.036516257,0.02265681,4.747345e-05,0.0,0.0,-0.001
374192328,0.037483595,0.021973036,-0.00032501534,0.0,0.0,-0.001
374210522,0.037040114,0.02250614,0.00062051206,0.0,0.0,-0.001
374232952,0.036926255,0.022623997,-0.00032080378,0.0,0.0,-0.001
374251008,0.037648294,0.022025503,-0.00071505184,0.0,0.0,-0.001
374273307,0.03636002,0.02220161,0.00090690266,0.0,0.0,-0.001
374291607,0.03648572,0.02157491,-0.00083461,0.0,0.0,-0.001
374313857,0.03623792,0.021572715,0.00044341426,0.0,0.0,-0.001
374331884,0.03644836,0.02191396,-0.00029156412,0.0,0.0,-0.001
374354313,0.037621133,0.021863986,0.0002874307,0.0,0.0,-0.001
374372241,0.03661462,0.022138104,4.3185588e-05,0.0,0.0,-0.001
374390460,0.03753526,0.021707034,-0.0011560601,0.0,0.0,-0.001
374412731,0.03727946,0.022196751,0.00050717406,0.0,0.0,-0.001
374430792,0.03814283,0.02308831,-0.0006241858,0.0,0.0,-0.001
374453251,0.03813024,0.022262974,0.00041521384,0.0,0.0,-0.001
374471171,0.037417334,0.0225654,-6.0309012e-05,0.0,0.0,-0.001
374493649,0.037971716,0.021988899,-0.00021175978,0.0,0.0,-0.001
374511665,0.037595358,0.021858487,0.0013070784,0.0,0.0,-0.001
374529994,0.13469513,-0.1321427,-0.00032997923,0.0,0.0,-0.008948996
374552107,0.11971918,-0.121581905,-0.00059375993,0.0,0.0,-0.013030384
374574727,0.11981337,-0.09580737,5.438394e-05,0.0,0.0,-0.016295029
374592622,0.12821601,-0.10498382,-0.0010503443,0.0,0.0,-0.018173065
374610629,0.06352809,-0.033630416,0.00022119866,0.0,0.0,-0.022390243
374633086,0.09791073,-0.049073327,-0.0009965898,0.0,0.0,-0.02536809
374651026,0.04746218,0.01949799,-0.00078175927,0.0,0.0,-0.029282931
374669239,0.028049845,0.0040784706,5.3639716e-05,0.0,0.0,-0.030582337
374691515,0.049467225,0.010531516,-0.00085247663,0.0,0.0,-0.03547298
374714022,0.0450958,-0.008734138,0.00089552836,0.0,0.0,-0.038698386
374732117,0.058666363,-0.013605134,-0.0003519553,0.0,0.0,-0.03977854
374749971,0.039352328,0.01438768,0.00047911407,0.0,0.0,-0.04457304
374772509,0.065201,-0.00992741,4.7469402e-05,0.0,0.0,-0.049457014
374794954,0.050003298,0.018134791,0.00042504756,0.0,0.0,-0.052697476
374813025,0.052762344,-0.001689144,0.00038364984,0.0,0.0,-0.0561602
374830902,0.05724742,0.0070512025,-0.0005435143,0.0,0.0,-0.058105182
374853661,0.055600107,-0.016702257,0.0007549419,0.0,0.0,-0.061592683
374871475,0.057101797,-0.017310273,-0.00046674296,0.0,0.0,-0.063257195
374889408,0.05132085,0.0030465866,0.0008983198,0.0,0.0,-0.06613575
374911831,0.05471047,-0.0139667345,-0.00046488427,0.0,0.0,-0.07224537
374934587,0.053600598,0.007243105,0.001334945,0.0,0.0,-0.07581266
374952357,0.0585802,0.0017938684,-0.0003795765,0.0,0.0,-0.08288942
374970334,0.053610295,0.01638199,0.0010684563,0.0,0.0,-0.085330874
374992745,0.056855664,0.012047781,-0.00059845875,0.0,0.0,-0.09437127
375015242,0.03567257,0.01615891,0.0011298598,0.0,0.0,-0.099162675
375033231,0.056075405,0.014489701,-0.0007249266,0.0,0.0,-0.10392613
375051270,0.055148836,0.0047979415,0.0012140506,0.0,0.0,-0.10439079
375073831,0.05863913,0.0055525927,-0.00047697267,0.0,0.0,-0.111195065
375091790,0.017475404,0.015049989,0.0011702366,0.0,0.0,-0.11464396
375109689,0.058265217,0.018046066,-0.00050894805,0.0,0.0,-0.11956416
375132153,0.014309015,0.007158341,0.000546531,0.0,0.0,-0.12197516
375154729,0.06491833,0.0013804978,0.00042408868,0.0,0.0,-0.1276913
375172644,0.0076682195,0.035942588,4.890573e-06,0.0,0.0,-0.13217884
375190656,0.08140348,0.00044006796,0.0007556654,0.0,0.0,-0.13942939
375213239,0.01801708,0.022560835,3.3141037e-05,0.0,0.0,-0.14448236
375231329,0.08128896,-0.021955933,0.0012265656,0.0,0.0,-0.1460976
375253705,0.08283273,-0.019363694,0.00032121514,0.0,0.0,-0.15469964
375271614,0.059431713,0.005189767,0.0001558951,0.0,0.0,-0.1563384
375294082,0.05701407,-0.008182533,0.0007500737,0.0,0.0,-0.16428435
375312166,-0.034910083,0.05862113,-0.00022320214,0.0,0.0,-0.16755682
375334555,-0.008261142,0.00991787,-1.5631147e-05,0.0,0.0,-0.17434327
375352539,0.06543064,-0.013094288,-3.8031787e-05,0.0,0.0,-0.1785589
375370628,0.03066911,-0.037506603,-0.00022922491,0.0,0.0,-0.18067153
375392976,0.010617724,-0.040745977,0.00053107296,0.0,0.0,-0.19033062
375410964,-0.026702581,0.044641614,0.0007952622,0.0,0.0,-0.19414961
375433552,-0.026420008,0.04075166,0.00067868485,0.0,0.0,-0.20200478
375451519,0.004178752,0.027326392,0.00027777132,0.0,0.0,-0.20345467
375473916,0.023214169,0.021850461,0.0003647698,0.0,0.0,-0.21507324
375492034,-0.0012307313,0.00424274,0.00018612869,0.0,0.0,-0.22165617
375509937,0.022147233,0.033175882,-2.1150685e-05,0.0,0.0,-0.22838043
375532390,0.012774852,0.012934526,-4.527818e-05,0.0,0.0,-0.23517281
375555047,-0.001185586,0.01082824,-0.00023334692,0.0,0.0,-0.24130382
375572878,-0.031220756,-0.03698848,-0.000984635,0.0,0.0,-0.24649757
375590878,-0.014059595,-0.007720835,-0.0015136537,0.0,0.0,-0.24926437
375613313,0.0067769773,0.004706981,-0.0019535688,0.0,0.0,-0.2595548
375631371,0.014731714,0.013384581,-0.0020613081,0.0,0.0,-0.2681769
375649438,-0.02515529,0.0047475128,-0.0022785289,0.0,0.0,-0.27200383
375671773,-0.03469894,0.007009026,-0.0021019885,0.0,0.0,-0.28264394
375694425,-0.0128428405,0.0134481955,-0.0015609543,0.0,0.0,-0.28727028
375712332,0.007199113,-0.01238954,-0.0011883976,0.0,0.0,-0.29395765
375730529,-0.025006752,-0.017783199,-0.0010833341,0.0,0.0,-0.30139935
375752754,-0.030124698,-0.024325993,-0.001048823,0.0,0.0,-0.3035807
375775427,-0.015206652,0.0010326327,-0.0008295186,0.0,0.0,-0.31513518
375788698,0.023302255,-0.0036309601,-0.0008302824,0.0,0.0,-0.31743267
375811166,0.04347288,-0.008751465,-0.00083545654,0.0,0.0,-0.32321438
375833712,0.02406434,0.0026056012,-0.0010578877,0.0,0.0,-0.3312603
375851689,-0.01335597,-0.017670508,-0.00133363,0.0,0.0,-0.33127916
375869872,-0.008580202,-0.044455603,-0.0014078366,0.0,0.0,-0.3348853
375892204,0.006952089,-0.010478823,-0.0012740972,0.0,0.0,-0.34944433
375914696,0.04122692,-0.007749846,-0.0012139877,0.0,0.0,-0.35855192
375932685,0.012548461,-0.0022774625,-0.0012217385,0.0,0.0,-0.36672568
375950692,0.040369287,0.022387924,-0.0011708087,0.0,0.0,-0.37545538
375973249,0.05035739,0.03630642,-0.0011443836,0.0,0.0,-0.38123226
375991093,0.04098178,0.05624315,-0.0012921374,0.0,0.0,-0.38536853
376013586,0.07020634,0.0073386533,-0.0012579422,0.0,0.0,-0.38378355
376031583,0.07045324,0.028648159,-0.0011993239,0.0,0.0,-0.38322747
376054199,0.07553669,0.048256356,-0.0009746038,0.0,0.0,-0.38679007
376071991,0.08562956,0.09304319,-0.0008641296,0.0,0.0,-0.39479902
376089946,0.04669566,0.071040735,-0.0004076297,0.0,0.0,-0.38847965
376112429,0.059678175,0.09210621,-2.6821083e-06,0.0,0.0,-0.38880992
376134914,0.084018536,0.09085771,0.00043278476,0.0,0.0,-0.3838452
376152976,0.11609773,0.06836169,0.0008420072,0.0,0.0,-0.37380165
376170902,0.05881924,0.040442836,0.0015379968,0.0,0.0,-0.36107308
376193450,0.1167653,0.078239135,0.0018312231,0.0,0.0,-0.3575631
376211451,0.084822804,0.066247605,0.002545042,0.0,0.0,-0.3463176
376233910,0.097707115,0.07588736,0.0032773446,0.0,0.0,-0.34571496
376251844,0.089514114,0.048512053,0.0042385766,0.0,0.0,-0.33113515
376274346,0.050133627,0.05520088,0.0050395583,0.0,0.0,-0.32413772
376292329,0.06918687,0.049678404,0.0062144855,0.0,0.0,-0.31659386
376310477,0.0522374,0.07101454,0.0072477623,0.0,0.0,-0.31280994
376332851,0.08008748,0.05539093,0.008076891,0.0,0.0,-0.31258392
376350854,0.019677304,0.07498284,0.008559121,0.0,0.0,-0.3101126
376373297,0.030727431,0.0538313,0.009320397,0.0,0.0,-0.3102887
376391278,-0.025606047,0.06056296,0.010021878,0.0,0.0,-0.31253296
376413795,-0.023323443,0.030439336,0.0110787265,0.0,0.0,-0.3078717
376431822,-0.04296523,0.038531177,0.011509829,0.0,0.0,-0.3102861
376454195,-0.039814837,0.016771184,0.012458119,0.0,0.0,-0.31145576
376472368,-0.016306117,0.039396495,0.012847271,0.0,0.0,-0.31817526
376490223,-0.0130617125,0.01878715,0.013466735,0.0,0.0,-0.31588775
376512658,0.012048507,0.036446325,0.014025215,0.0,0.0,-0.3282066
376530721,-0.005256493,-0.017325576,0.01472392,0.0,0.0,-0.32003027
376553250,0.027672162,-0.019555232,0.015168784,0.0,0.0,-0.32372057
376571149,0.03438475,-0.021922596,0.015825937,0.0,0.0,-0.32490963
376593681,0.02839625,-0.041537598,0.016000267,0.0,0.0,-0.3149558
376611567,0.007728341,0.0011795192,0.016119229,0.0,0.0,-0.3189152
376629619,0.0072124815,-0.004636007,0.015541634,0.0,0.0,-0.31484073
376652141,0.053799707,-0.050218362,0.015692469,0.0,0.0,-0.30950072
376674568,0.056225777,-0.048289727,0.015737835,0.0,0.0,-0.31076887
376692560,0.024280036,0.019234968,0.015455357,0.0,0.0,-0.31129485
376710529,0.03386912,0.009393022,0.015517594,0.0,0.0,-0.3071672
376732985,-0.02134116,0.031565335,0.015503569,0.0,0.0,-0.31067878
376755551,-0.029438756,0.04195048,0.01551187,0.0,0.0,-0.3112198
376769080,0.031796195,-0.013832563,0.015521854,0.0,0.0,-0.3133815
376791417,0.0737533,0.015720434,0.015298373,0.0,0.0,-0.31447512
376814031,0.09148581,0.032941815,0.015380294,0.0,0.0,-0.3179854
376831992,0.037809283,0.031950336,0.0158943,0.0,0.0,-0.31615847
376849928,0.056365844,0.030927347,0.01609257,0.0,0.0,-0.32258275
376872474,0.066701174,0.03021457,0.016188879,0.0,0.0,-0.3257028
376894909,0.047412936,0.050410807,0.01606299,0.0,0.0,-0.3261308
376912872,0.04924999,0.05041452,0.01588682,0.0,0.0,-0.32556167
376930907,0.045190558,0.05865239,0.01566854,0.0,0.0,-0.32445878
376953486,0.067493044,0.031507947,0.015593068,0.0,0.0,-0.33003342
376975831,0.056407057,0.05587163,0.015215946,0.0,0.0,-0.32941473
376993844,0.025765993,0.05340327,0.015242386,0.0,0.0,-0.32184368
377011802,0.10495824,0.012414658,0.015203116,0.0,0.0,-0.32663596
377034455,0.08647312,-0.0063203266,0.015165665,0.0,0.0,-0.32121176
377052266,0.09907796,0.008072729,0.0146336155,0.0,0.0,-0.3175064
377070236,0.040316638,0.025315043,0.014106858,0.0,0.0,-0.31545848
377092707,0.07888154,0.011968878,0.013969179,0.0,0.0,-0.30868903
377115202,0.057875544,0.014295838,0.013755284,0.0,0.0,-0.30486414
377133267,0.032292113,-0.00034565324,0.013652738,0.0,0.0,-0.30646566
377151174,0.034110963,0.011904118,0.01358508,0.0,0.0,-0.3049388
377173727,0.012457382,0.022890644,0.013243107,0.0,0.0,-0.30514184
377191784,0.01304143,0.025250498,0.013205243,0.0,0.0,-0.3051264
377214126,0.014961745,0.03752385,0.013035101,0.0,0.0,-0.30988932
377232127,-0.007157608,0.045033216,0.012472598,0.0,0.0,-0.31242535
377254699,-0.016010173,0.07141651,0.012155655,0.0,0.0,-0.31508124
377272605,-0.05909007,0.04328563,0.012331943,0.0,0.0,-0.31112197
377290726,0.024919942,0.041123018,0.0121820355,0.0,0.0,-0.3196322
377313176,-0.043300338,0.020664323,0.012280844,0.0,0.0,-0.31615192
377331099,0.014085979,0.042662516,0.011960944,0.0,0.0,-0.32373556
377353586,-0.013182681,0.03836699,0.011798297,0.0,0.0,-0.32430416
377371609,-0.09005056,0.006711347,0.012281047,0.0,0.0,-0.31617802
377394038,-0.030270329,0.034184285,0.01187951,0.0,0.0,-0.3276759
377412195,-0.032292034,0.022295736,0.012207255,0.0,0.0,-0.32392806
377434527,-0.016507527,0.017823024,0.011898401,0.0,0.0,-0.32558182
377452629,-0.010301654,-0.023722086,0.011674548,0.0,0.0,-0.3242194
377470503,0.014620991,0.017718943,0.010900197,0.0,0.0,-0.33043483
377492931,0.022740124,-0.020627294,0.010823784,0.0,0.0,-0.32723752
377510916,0.019872611,0.00119227,0.009918494,0.0,0.0,-0.33165398
377533452,0.007943397,0.010544485,0.009497683,0.0,0.0,-0.32935005
377551371,0.0323953,-0.015284218,0.009260785,0.0,0.0,-0.3244244
377573868,-0.010341002,0.021254726,0.008489362,0.0,0.0,-0.32786638
377591904,-0.02314913,0.027236734,0.008429379,0.0,0.0,-0.32670307
377609903,0.05168918,-0.017827434,0.008410358,0.0,0.0,-0.32769278
377632369,0.015984392,0.009618639,0.0077686757,0.0,0.0,-0.3263164
377654877,-0.004147038,0.006208901,0.007257344,0.0,0.0,-0.32487047
377672922,-0.039599407,-0.002520682,0.007110511,0.0,0.0,-0.3245988
377690833,-0.044823594,-0.03414186,0.0071046134,0.0,0.0,-0.32344255
377713294,0.016689414,0.0061853547,0.0066724354,0.0,0.0,-0.3261533
377731341,-0.024480933,-0.018124873,0.0067360266,0.0,0.0,-0.323513
377749327,-0.021902533,0.03879736,0.006133391,0.0,0.0,-0.3265926
377771747,-0.0423783,-0.013587107,0.00626686,0.0,0.0,-0.32533824
377794339,-0.033893105,-0.018736474,0.0062409667,0.0,0.0,-0.32343343
377812355,-0.0037743123,0.0090254545,0.0057748924,0.0,0.0,-0.3267465
377830472,-0.030777557,0.029193431,0.0055064675,0.0,0.0,-0.32807156
377852700,-0.04272114,0.010687691,0.0055837077,0.0,0.0,-0.3364022
377875272,-0.05578161,-0.004992921,0.005730353,0.0,0.0,-0.3474153
377893298,-0.08157379,-0.0022242684,0.005463757,0.0,0.0,-0.35738197
377911305,-0.020084355,-0.034644805,0.005677554,0.0,0.0,-0.35696867
377933777,-0.08331277,-0.009111606,0.005167551,0.0,0.0,-0.36314064
377951675,-0.030086355,-0.01771121,0.005122529,0.0,0.0,-0.36973822
377969671,-0.033796858,-0.04655093,0.004958408,0.0,0.0,-0.37025762
377992287,-0.021370774,-0.036854893,0.004718191,0.0,0.0,-0.36297542
378014589,-0.039979704,-0.033904195,0.0044816458,0.0,0.0,-0.3461125
378032533,-0.02282966,-0.038945626,0.004349988,0.0,0.0,-0.33168706
378050603,-0.030594366,-0.0033649663,0.0041633276,0.0,0.0,-0.3276741
378073117,-0.02469876,-0.021973679,0.0044444823,0.0,0.0,-0.3108335
378095478,-0.011571729,-0.010767929,0.004911364,0.0,0.0,-0.3068733
378113526,4.558974e-05,0.0069430866,0.0048156613,0.0,0.0,-0.3126072
378131477,-0.01973565,0.0020950243,0.0052700494,0.0,0.0,-0.32424313
378153976,-0.0027948911,0.0132395625,0.005791264,0.0,0.0,-0.31827122
378171945,0.009208284,0.009505479,0.006462331,0.0,0.0,-0.31318906
378189937,0.017265346,0.0016011451,0.0070909252,0.0,0.0,-0.32090357
378212549,0.026018556,0.01784774,0.0075851143,0.0,0.0,-0.3341551
378234909,0.0064017195,0.026393382,0.00802938,0.0,0.0,-0.3441223
378253119,-0.014386344,0.0176524,0.008564769,0.0,0.0,-0.3508433
378270838,-0.07742102,0.016233128,0.008855998,0.0,0.0,-0.34524226
378293497,-0.042645324,0.026362881,0.009332504,0.0,0.0,-0.34299535
378311450,-0.07340468,-0.00838862,0.009480527,0.0,0.0,-0.32829595
378333804,-0.041275095,-0.0022406853,0.009993448,0.0,0.0,-0.32150453
378351760,-0.062218275,-0.028258204,0.010053071,0.0,0.0,-0.31267232
378374454,-0.0482625,-0.022173554,0.010770808,0.0,0.0,-0.311443
378392268,-0.03547245,-0.020704785,0.0109843295,0.0,0.0,-0.3137248
378410234,-0.03906259,0.019885136,0.0113776615,0.0,0.0,-0.3169763
378432785,-0.013571074,0.0070832334,0.011829188,0.0,0.0,-0.3165112
378450864,0.0045359596,-0.001122154,0.012316344,0.0,0.0,-0.3129195
378473194,-0.020203348,0.038140304,0.012786583,0.0,0.0,-0.31902632
378491220,0.0327771,-0.011823965,0.013107685,0.0,0.0,-0.31509194
378513805,-0.010493594,0.05150064,0.013672784,0.0,0.0,-0.31843257
378531670,0.049114592,0.04391653,0.013986457,0.0,0.0,-0.3213021
378554166,0.044975266,0.03840319,0.014418235,0.0,0.0,-0.32035396
378572175,0.056227326,0.030809253,0.014772262,0.0,0.0,-0.3214745
378635145,-0.013241153,0.031392664,0.016938925,0.0,0.0,-0.3232797
378653271,-0.040865317,-0.020656314,0.016890252,0.0,0.0,-0.3242059
378671165,-0.014471958,0.060795456,0.017373271,0.0,0.0,-0.32727045
378693699,-0.010383551,0.0011295641,0.017609378,0.0,0.0,-0.3321155
378711603,-0.023291375,0.010559987,0.017932566,0.0,0.0,-0.32896033
378729610,-0.036566317,0.028979266,0.018386792,0.0,0.0,-0.3316427
378752018,-0.06546762,0.044211354,0.018663054,0.0,0.0,-0.3327586
378774608,-0.060198117,0.027580893,0.018754689,0.0,0.0,-0.32918656
378792540,-0.05747089,0.04645424,0.019297855,0.0,0.0,-0.3255526
378810463,0.016159067,-0.0044140187,0.019083206,0.0,0.0,-0.32594395
378832944,-0.020026539,0.031120514,0.019466467,0.0,0.0,-0.32361114
378855561,-0.020872902,0.030918024,0.019725207,0.0,0.0,-0.32335034
378868978,-0.036926787,-0.017423859,0.019648504,0.0,0.0,-0.32278115
378891438,-0.005782318,0.021271523,0.020243563,0.0,0.0,-0.3236203
378913989,0.00088339474,0.029066082,0.020719878,0.0,0.0,-0.32215133
378932064,-0.020080794,-0.008796467,0.021054465,0.0,0.0,-0.3219678
378949899,0.007074081,0.00049855065,0.02155746,0.0,0.0,-0.32451126
378972301,0.006273515,-0.017469313,0.021944582,0.0,0.0,-0.32314232
378994953,0.03157439,-0.021451019,0.022492353,0.0,0.0,-0.3225239
379012829,0.039205298,-0.010173643,-0.020194529,0.0,0.0,-0.32459387
379030909,-0.0033073826,0.025532559,0.023532555,0.0,0.0,-0.32534736
379053356,-0.010522836,0.018510515,0.025029572,0.0,0.0,-0.33067018
379071433,0.024034042,0.00047532684,0.026059393,0.0,0.0,-0.3271765
379089326,0.014122026,-0.010286147,0.026810337,0.0,0.0,-0.32896042
379111777,0.009936119,-0.001420676,0.027546339,0.0,0.0,-0.32801163
379134305,0.01861319,0.011868842,0.028249461,0.0,0.0,-0.32565302
379152370,-0.0042602913,0.015791787,0.028354164,0.0,0.0,-0.32596818
379170211,-0.032773,0.013721464,0.028083216,0.0,0.0,-0.32646555
379192707,0.001488885,0.016801197,0.027575744,0.0,0.0,-0.3222717
379215324,-0.0076881223,0.02605451,0.027102934,0.0,0.0,-0.32196194
379233167,-0.05004157,0.004983209,0.026147185,0.0,0.0,-0.32004225
379251129,0.008382277,0.030413188,0.02539922,0.0,0.0,-0.3218908
379273745,-0.043107085,-0.011000525,0.02402618,0.0,0.0,-0.32642272
379291703,-0.018581744,0.044810668,0.023227837,0.0,0.0,-0.3298196
379314087,0.008408827,0.032698315,0.021626376,0.0,0.0,-0.34802118
379332238,-0.0135553125,0.060774315,0.020476341,0.0,0.0,-0.36274874
379354604,-0.0122260265,0.05561734,0.018509345,0.0,0.0,-0.36993796
379372629,-0.017712511,0.052609146,0.016987333,0.0,0.0,-0.36596465
379390549,0.030531287,0.0036483975,0.015481186,0.0,0.0,-0.35737336
379413131,-0.029915724,0.050176572,0.01376811,0.0,0.0,-0.34272814
379431126,0.0062805903,-0.023539688,0.011903239,0.0,0.0,-0.3423653
379453496,-0.033627763,0.045750845,0.010537016,0.0,0.0,-0.3189412
379471561,-0.011952171,0.0036844853,0.008922052,0.0,0.0,-0.31800905
379493982,-0.007447997,0.067458525,0.007917852,0.0,0.0,-0.30487645
379511951,-0.004276508,0.06563252,0.007078089,0.0,0.0,-0.30598685
379534445,-0.011763601,0.08424489,0.006378188,0.0,0.0,-0.30838028
379552574,-0.03391586,0.055962846,0.006000089,0.0,0.0,-0.30939758
379570467,-0.04720856,0.038077697,0.005789867,0.0,0.0,-0.30735934
379592860,-0.034209125,0.0007465434,0.005395617,0.0,0.0,-0.3085466
379610985,-0.024042852,0.080976896,0.005743285,0.0,0.0,-0.31292805
379633428,0.0022944775,0.027349923,0.005200675,0.0,0.0,-0.31307697
379651347,-0.051603515,0.042163737,0.005339816,0.0,0.0,-0.3111208
379674102,-0.016609136,0.011231149,0.0053004734,0.0,0.0,-0.3178183
379691933,-0.051410265,0.021397622,0.0053950073,0.0,0.0,-0.31401926
379709959,0.02453972,-0.003912104,0.0056208326,0.0,0.0,-0.31857845
379732282,-0.026021486,0.014601197,0.0061579715,0.0,0.0,-0.31483746
379754837,-0.02165493,-0.0021049182,0.006354589,0.0,0.0,-0.31775454
379772879,0.016851531,-0.039088696,0.0061407117,0.0,0.0,-0.32124558
379790851,0.0053086574,0.016010677,0.006758745,0.0,0.0,-0.3250831
379813241,0.015152847,-0.021642845,0.0069189062,0.0,0.0,-0.3250869
379831183,-0.011959092,-0.0036750853,0.0075284303,0.0,0.0,-0.3259582
379849266,-0.007297606,-0.013020565,0.007968055,0.0,0.0,-0.3252143
379871681,-0.033654474,-0.0021490469,0.008345407,0.0,0.0,-0.3269611
379894126,-0.017224956,-0.01157495,0.0087441765,0.0,0.0,-0.32477233
379912251,-0.032759957,-0.045398884,0.008833924,0.0,0.0,-0.32358816
379930290,-0.01123335,-0.031128375,0.009063081,0.0,0.0,-0.3258576
379952624,0.02583636,-0.01370585,0.00956568,0.0,0.0,-0.3269304
379975248,0.024621736,-0.018949782,0.009868354,0.0,0.0,-0.3282937
379993137,0.0054908553,-0.028632045,0.010098496,0.0,0.0,-0.3260065
380011219,-0.010522792,-0.034336776,0.01030338,0.0,0.0,-0.32559687
380033717,-0.03301161,-0.07121876,0.01013298,0.0,0.0,-0.32260254
380051780,0.007991673,-0.0025000814,0.010874145,0.0,0.0,-0.3273147
380069539,-0.0036349415,-0.0154259475,0.010833257,0.0,0.0,-0.32811457
380092045,-0.004620427,-0.023482697,0.010917961,0.0,0.0,-0.32932135
380114602,-0.02393375,-0.0027912676,0.011000892,0.0,0.0,-0.32501334
380132562,-0.033524685,-0.005376669,0.01112267,0.0,0.0,-0.32520103
380150679,-0.0024353443,-0.034211352,0.011017872,0.0,0.0,-0.32251474
380172952,-0.039026473,-0.008395756,0.011126306,0.0,0.0,-0.32447094
380191033,0.01635676,-0.05624909,0.010659534,0.0,0.0,-0.326811
380213590,0.0015496333,-0.016080823,0.01055182,0.0,0.0,-0.38307577
380231444,0.026749767,-0.03873477,0.009979183,0.0,0.0,-0.3850453
380254030,0.020355254,0.008166455,0.00975025,0.0,0.0,-0.3781492
380271888,0.04627116,0.00382969,0.009028345,0.0,0.0,-0.37505606
380289875,-0.0053923046,-0.022474164,0.008210771,0.0,0.0,-0.37237325
380312371,0.042755555,0.016977808,0.00754527,0.0,0.0,-0.3660667
380334936,0.051501006,0.02737528,0.006807907,0.0,0.0,-0.36051372
380352822,0.028097443,0.02576634,0.00611341,0.0,0.0,-0.3558637
380370893,0.041843306,-0.004261842,0.005255921,0.0,0.0,-0.3550294
380393352,0.0011084349,0.014774878,0.004769548,0.0,0.0,-0.34646487
380411390,-0.016691096,-0.0034002622,0.0041714236,0.0,0.0,-0.34172976
380434052,-0.03482749,0.026451433,0.0041635316,0.0,0.0,-0.34347135
380451827,0.012483644,0.021355689,0.0036263987,0.0,0.0,-0.3468632
380474266,-0.024934793,0.018086698,0.003486,0.0,0.0,-0.34095627
380492289,-0.0024859156,-0.00011592469,0.0030764572,0.0,0.0,-0.33869264
380510210,-0.004297423,0.030697761,0.0029606295,0.0,0.0,-0.34440857
380532792,-0.0030570133,0.010726516,0.002707834,0.0,0.0,-0.34689626
380550800,-0.023782967,0.03290105,0.0028428487,0.0,0.0,-0.34997693
380573157,-0.008514122,0.01157986,0.0025335248,0.0,0.0,-0.35259286
380591309,0.011944705,0.0024724223,0.002390116,0.0,0.0,-0.34862012
380613779,-0.020640913,0.038480684,0.0024178093,0.0,0.0,-0.33843693
380631669,0.011382198,0.03373633,0.0024047922,0.0,0.0,-0.33051422
380654298,-0.02008623,0.044515196,0.002408489,0.0,0.0,-0.3232927
380672142,0.008587856,0.051292,0.0025619967,0.0,0.0,-0.31543893
380690207,0.06820811,0.024772037,0.0025096436,0.0,0.0,-0.31196076
380712572,0.029679231,0.045486297,0.0028440945,0.0,0.0,-0.3022598
380735101,0.026630117,0.058032267,0.0034175946,0.0,0.0,-0.30549455
380753062,0.05657678,0.072439134,0.004101836,0.0,0.0,-0.31048062
380771130,0.026054792,0.04304135,0.004520673,0.0,0.0,-0.30952698
380793511,0.015452478,0.029011626,0.0052508195,0.0,0.0,-0.32018042
380811740,0.02647846,0.047981728,0.005931369,0.0,0.0,-0.32378802
380829556,0.036182903,0.04795895,0.0062656873,0.0,0.0,-0.3375685
380852174,0.081279375,0.031003444,0.0065336647,0.0,0.0,-0.34705392
380874532,0.07446513,0.041037023,0.0067258854,0.0,0.0,-0.35599008
380892506,0.04333649,0.0344094,0.0068985624,0.0,0.0,-0.35460895
380910518,0.019672412,0.033661716,0.0070354943,0.0,0.0,-0.34580642
380933097,0.009975127,0.021257935,0.0070268326,0.0,0.0,-0.33992726
380955474,0.023737798,0.017469885,0.0069013475,0.0,0.0,-0.33301562
380968988,0.051520474,-0.0025331927,0.007202385,0.0,0.0,-0.32988355
380991364,0.04422045,-0.0015057396,0.0073377355,0.0,0.0,-0.32410055
381013892,0.03629195,-0.011279432,0.0075066364,0.0,0.0,-0.32226172
381031957,-0.016871158,-0.002455339,0.007502034,0.0,0.0,-0.3220989
381049843,-0.024675827,-0.00528334,0.007690497,0.0,0.0,-0.3215506
381072277,-0.012163259,-0.0439939,0.0078398045,0.0,0.0,-0.31973514
381094972,0.003928617,-0.040047605,0.008201671,0.0,0.0,-0.31857976
381112803,-0.050077096,-0.018132318,0.008300517,0.0,0.0,-0.31630063
381130772,-0.046729054,-0.003802634,0.008589136,0.0,0.0,-0.31838378
381153413,-0.033786368,0.0037306566,0.008836692,0.0,0.0,-0.32042047
381171349,-0.007571053,-0.0011932496,0.009007203,0.0,0.0,-0.32040024
381189314,-0.0052698385,0.0034029742,0.009224823,0.0,0.0,-0.31753242
381211706,-0.008492666,0.014796352,0.0094514415,0.0,0.0,-0.31270775
381234231,-0.012166006,-0.0010468161,0.009699254,0.0,0.0,-0.30937782
381252217,0.019655807,-0.034416277,0.010140329,0.0,0.0,-0.30059615
381270320,0.036996815,-0.037308324,0.01023526,0.0,0.0,-0.29752702
381292791,0.037543222,-0.012700708,0.010244834,0.0,0.0,-0.28708988
381315194,0.03298655,-0.001229129,0.010289754,0.0,0.0,-0.28512338
381333159,0.049676552,-0.020563928,0.010225226,0.0,0.0,-0.27955815
381351281,-0.01978371,0.005934136,0.010159983,0.0,0.0,-0.27327573
381373764,0.017394062,0.022113,0.010371549,0.0,0.0,-0.26611602
381391665,0.014374253,0.027242497,0.010840467,0.0,0.0,-0.27198282
381414176,-0.007680094,0.0043927752,0.0111071905,0.0,0.0,-0.2774619
381432046,0.014582373,0.025926072,0.011062937,0.0,0.0,-0.285354
381454587,-0.003908599,0.028699351,0.011287073,0.0,0.0,-0.29330748
381472664,-0.029866988,0.019329464,0.01159304,0.0,0.0,-0.29977706
381490523,-0.0019506129,0.02083586,0.011867956,0.0,0.0,-0.30708864
381513058,0.01347374,0.006076316,0.011915448,0.0,0.0,-0.3152539
381531004,-0.051525366,0.009731736,0.0118937865,0.0,0.0,-0.3127782
381553542,0.026781306,-0.0064387554,0.011705281,0.0,0.0,-0.32557818
381571483,-0.0039008977,-0.028626624,0.011742996,0.0,0.0,-0.3215143
381593946,-0.019303882,-0.017607167,0.011261896,0.0,0.0,-0.3334319
381611876,-0.0065941745,-0.062057562,0.010619206,0.0,0.0,-0.33072045
381634406,-0.002859852,-0.086658195,0.009605732,0.0,0.0,-0.3311039
381652441,0.020971382,-0.07247434,0.008630748,0.0,0.0,-0.33320597
381670535,-0.017615156,-0.043214504,0.0074686958,0.0,0.0,-0.32960075
381692937,-0.0053937933,-0.06714464,0.006523262,0.0,0.0,-0.32923067
381711051,0.025355786,-0.05990125,0.0056171273,0.0,0.0,-0.32872754
381733410,-0.030969769,-0.045451578,0.00463935,0.0,0.0,-0.3268486
381751369,0.05661903,-0.06528177,0.004438625,0.0,0.0,-0.3268711
381773862,-0.029060312,-0.03282289,0.0035913142,0.0,0.0,-0.3256121
381792017,0.020106189,-0.07218333,0.0034264394,0.0,0.0,-0.32637623
381809808,0.028300168,-0.050548904,0.0029331013,0.0,0.0,-0.324925
381832260,-0.02450972,-0.056574803,0.0021008058,0.0,0.0,-0.32175288
381854891,0.014281674,0.0015372781,0.0014568993,0.0,0.0,-0.32097504
381872841,-0.031793,-0.05946922,0.0012110376,0.0,0.0,-0.31854573
381890781,-0.029367708,-0.047947057,0.0010092875,0.0,0.0,-0.31856036
381913261,-0.03481061,-0.03193454,0.00048627425,0.0,0.0,-0.31628358
381931162,-0.0116908215,-0.014946376,9.2920054e-05,0.0,0.0,-0.31926686
381949313,-0.0132534085,-0.013953889,-0.00033809026,0.0,0.0,-0.31961328
381971647,0.021337815,-0.025638392,-0.00072269473,0.0,0.0,-0.3179897
381994154,0.024568327,-0.025061117,-0.0013167064,0.0,0.0,-0.31777576
382012259,-0.037314013,-0.0245772,-0.0015721414,0.0,0.0,-0.31326094
382030201,-0.03297838,-0.013508292,-0.001956176,0.0,0.0,-0.31248164
382052661,-0.032080844,0.024995768,-0.0023556347,0.0,0.0,-0.31496587
382075170,-0.021213008,0.022162465,-0.0028082528,0.0,0.0,-0.31520978
382093093,-0.004445863,0.009129719,-0.0031553241,0.0,0.0,-0.31414363
382111085,0.015182402,0.00050032476,-0.0037378725,0.0,0.0,-0.315328
382133610,0.021904156,0.0059606438,-0.0042873644,0.0,0.0,-0.31624782
382151619,-0.009358245,0.0050161784,-0.004833707,0.0,0.0,-0.31504607
382169539,-0.00021492681,0.013017453,-0.005114471,0.0,0.0,-0.31493556
382192007,0.013374697,0.019746752,-0.0055225897,0.0,0.0,-0.31677926
382214544,-0.018218657,0.04889239,-0.0058622127,0.0,0.0,-0.31815764
382232532,0.011894816,0.026507005,-0.0059591094,0.0,0.0,-0.32296452
382250493,0.024212666,0.00962771,-0.006111159,0.0,0.0,-0.3274477
382273128,0.056765594,0.0058329515,-0.006424529,0.0,0.0,-0.33283225
382295417,0.04474783,-0.007317601,-0.0066603175,0.0,0.0,-0.3425309
382313396,0.04114696,-0.021937398,-0.0069537805,0.0,0.0,-0.34385094
382331519,-0.026722465,0.02290206,-0.00749793,0.0,0.0,-0.33691838
382354034,0.0040535172,-0.029242108,-0.007825229,0.0,0.0,-0.33196267
382371866,-0.016507568,-0.024831979,-0.007989316,0.0,0.0,-0.32308152
382389843,0.023465171,0.007974444,-0.008201885,0.0,0.0,-0.32047936
382412338,-0.0018381922,0.009302879,-0.00818059,0.0,0.0,-0.31695923
382434826,0.0030614168,0.00323769,-0.008042816,0.0,0.0,-0.32307163
382452872,0.009796041,0.018526912,-0.007979829,0.0,0.0,-0.32839
382470846,0.009362987,0.023252226,-0.008036916,0.0,0.0,-0.33380648
382493327,-0.0043107932,-0.025359312,-0.0077967155,0.0,0.0,-0.33726117
382511424,-0.00019079898,-0.011637448,-0.0074530747,0.0,0.0,-0.34428522
382533764,-0.0219579,0.023566552,-0.0073846392,0.0,0.0,-0.34943107
382551726,0.0343337,0.018189449,-0.007369267,0.0,0.0,-0.35298768
382574280,-0.00019898328,-0.019521821,-0.007430784,0.0,0.0,-0.36026034
382592186,0.020841168,-0.021336071,-0.007560753,0.0,0.0,-0.37029436
382610226,0.015681086,0.015890712,-0.007855996,0.0,0.0,-0.37665424
382632753,0.059353102,-0.0037710185,-0.008043512,0.0,0.0,-0.38184455
382650857,0.016384868,0.035021584,-0.008226746,0.0,0.0,-0.38497436
382673201,0.052089058,0.0046933494,-0.008300065,0.0,0.0,-0.37747985
382691185,0.006144896,0.02783594,-0.008303171,0.0,0.0,-0.3735215
382713659,0.033918407,0.012909237,-0.008257823,0.0,0.0,-0.37649146
382731752,0.02212267,0.021407919,-0.008502517,0.0,0.0,-0.36886156
382754118,0.025710948,0.01974937,-0.008335376,0.0,0.0,-0.3647539
382772162,0.0058262204,0.01848221,-0.008481712,0.0,0.0,-0.35690546
382790071,0.021652453,0.058833025,-0.008414026,0.0,0.0,-0.35282594
382812543,-0.023279987,0.00987827,-0.0080895955,0.0,0.0,-0.3436935
382835098,-0.017562155,-0.004826467,-0.007677498,0.0,0.0,-0.3385175
382853049,-0.042063765,0.002182508,-0.007166701,0.0,0.0,-0.33126473
382870962,0.01695914,0.044214785,-0.006773086,0.0,0.0,-0.33377922
382893483,-0.056296095,-0.009410863,-0.005927543,0.0,0.0,-0.3206894
382911570,-0.011849558,0.022888359,-0.005450424,0.0,0.0,-0.320764
382929561,-0.02192396,0.035049193,-0.00475222,0.0,0.0,-0.32008266
382952029,-0.039651077,0.029037284,-0.003998857,0.0,0.0,-0.32638836
382974488,-0.02470095,0.017768936,-0.0033895508,0.0,0.0,-0.32775182
382992499,-0.034875017,0.033085346,-0.0032644197,0.0,0.0,-0.3209148
383010677,-0.007838308,-0.022397414,-0.0024052036,0.0,0.0,-0.3245807
383032906,-0.03101049,0.022489278,-0.0018760911,0.0,0.0,-0.33062112
383055453,-0.031275522,-0.0071815443,-0.0014361542,0.0,0.0,-0.33455032
383068979,0.014588401,-0.0111064995,-0.0013485992,0.0,0.0,-0.33542883
383091590,-0.005084167,0.0007163641,-0.0008952195,0.0,0.0,-0.33480176
383113917,0.06495882,-0.010186925,-0.00060758775,0.0,0.0,-0.32614443
383131922,-0.008360667,-0.014075301,-0.0006226149,0.0,0.0,-0.32462892
383149819,0.014433247,-0.012607323,-0.00024384577,0.0,0.0,-0.32204777
383172522,0.01028819,-0.026426628,8.597708e-05,0.0,0.0,-0.3238306
383194919,0.015824338,-0.013119078,0.00040051318,0.0,0.0,-0.32480332
383212788,0.030019032,-0.011790287,0.0005946114,0.0,0.0,-0.3251135
383230843,0.046793822,0.0026643416,0.0010410591,0.0,0.0,-0.32595024
383253349,0.05161593,0.018544301,0.0013949301,0.0,0.0,-0.3271526
383271268,-0.01269447,-0.0035235458,0.0015925617,0.0,0.0,-0.32419842
383289227,-0.030160006,0.003097635,0.0018878251,0.0,0.0,-0.32484418
383311719,0.009123976,0.016293397,0.0023870585,0.0,0.0,-0.32843637
383334264,-0.029911557,0.0016729151,0.002774347,0.0,0.0,-0.32675445
383352160,-0.04280189,-0.02174259,0.0028682246,0.0,0.0,-0.32713902
383370196,-0.0010910309,0.015304015,0.0027262268,0.0,0.0,-0.3303401
383392704,0.0017182082,-0.0048640925,0.0028291892,0.0,0.0,-0.3304308
383410752,-0.020981673,-0.00083564455,0.0027689445,0.0,0.0,-0.32712105
383433120,-0.006718782,0.012044111,0.0027644467,0.0,0.0,-0.33072704
383451203,-0.01568994,0.0022750844,0.0025580633,0.0,0.0,-0.3266279
383473626,-0.039449442,0.017740395,0.002311076,0.0,0.0,-0.3293133
383491654,0.034932747,-0.019738493,0.0024009845,0.0,0.0,-0.32879928
383514043,-0.03127226,0.020036703,0.0021427122,0.0,0.0,-0.32701883
383532165,0.025785089,0.01984403,0.0022154388,0.0,0.0,-0.3273869
383554488,0.0020238676,0.025883188,0.0020330884,0.0,0.0,-0.3279878
383572540,0.047502507,0.022886753,0.0018385071,0.0,0.0,-0.33019382
383590537,-0.02454771,0.030823573,0.0018168488,0.0,0.0,-0.32846949
383613302,-0.0048198365,0.007672125,0.0018406155,0.0,0.0,-0.32939276
383630975,-0.0027269884,0.011303698,0.0019681766,0.0,0.0,-0.32975635
383653478,0.015209097,0.0030986005,0.0021642419,0.0,0.0,-0.33040163
383671460,0.019529922,0.03173049,0.0021143653,0.0,0.0,-0.33228505
383693916,0.034322444,0.011609731,0.002132292,0.0,0.0,-0.33058998
383711894,0.05448337,0.01503342,0.0021607976,0.0,0.0,-0.33217105
383734387,0.0642968,0.02042126,0.0021307974,0.0,0.0,-0.3328707
383752423,0.017380727,0.005158057,0.0023376264,0.0,0.0,-0.33279625
383770593,0.040407117,-0.008616891,0.0023911446,0.0,0.0,-0.33032808
383792798,-0.009830949,0.013236741,0.0023884133,0.0,0.0,-0.3319387
383810878,0.037470218,0.023072924,0.00243148,0.0,0.0,-0.33602595
383833395,-0.008814785,-0.0037970887,0.002288037,0.0,0.0,-0.33264342
383851291,0.012184279,0.016064873,0.0019791576,0.0,0.0,-0.33598855
383873814,0.013504831,-0.00272954,0.00184048,0.0,0.0,-0.33422434
383891980,-0.0020841893,-0.008165746,0.0015997951,0.0,0.0,-0.32664776
383909878,-0.030973403,0.026479421,0.0011212731,0.0,0.0,-0.32288963
383932276,-0.016155615,-0.008555942,0.0011994765,0.0,0.0,-0.32248455
383954789,-0.03672938,-0.015752997,0.0011418315,0.0,0.0,-0.30812398
383972773,-0.06763625,0.015755119,0.0011950593,0.0,0.0,-0.29873973
383990895,0.03545907,-0.016409526,0.0012840109,0.0,0.0,-0.3012974
384013346,-0.01994449,0.018923746,0.0013956062,0.0,0.0,-0.30059844
384031178,-0.040473066,-0.0321484,0.0016179124,0.0,0.0,-0.3000995
384049275,-0.035670675,-0.043237388,0.0018594668,0.0,0.0,-0.30856994
384071818,-0.047967594,-0.029542977,0.0021416408,0.0,0.0,-0.31144723
384094139,-0.010103635,-0.0064810705,0.0023709065,0.0,0.0,-0.3247824
384112203,-0.037765823,-0.052929927,0.0025654782,0.0,0.0,-0.33097345
384130112,-0.0069500767,0.0055533913,0.002279537,0.0,0.0,-0.34105605
384152572,-0.00048077168,-0.039676096,0.0020022932,0.0,0.0,-0.3485377
384175036,0.0030988571,-0.039564174,0.001493217,0.0,0.0,-0.34640118
384193174,-0.006188611,-0.02748315,0.0009252033,0.0,0.0,-0.34310523
384211104,-0.009408453,-0.029130775,0.00032947934,0.0,0.0,-0.3395671
384233554,-0.06289241,-0.0067738947,-0.00045449624,0.0,0.0,-0.33042136
384251628,0.014757546,-0.03898193,-0.0006984906,0.0,0.0,-0.3283572
384269657,0.0012159491,-0.03592514,-0.001149105,0.0,0.0,-0.31427476
384291965,-0.040828705,-0.021242572,-0.0017932768,0.0,0.0,-0.3037418
384314536,-0.06577472,-0.021980109,-0.0022514535,0.0,0.0,-0.29809627
384332458,-0.014252732,-0.028763989,-0.002783061,0.0,0.0,-0.2881256
384350512,-0.03819567,-0.034736883,-0.0029889627,0.0,0.0,-0.2843857
384373008,-0.01164232,-0.016065598,-0.0031545463,0.0,0.0,-0.29042283
384395419,-0.014434107,-0.0113029415,-0.0033945073,0.0,0.0,-0.29641435
384413537,-0.04985743,-0.018806634,-0.0033021702,0.0,0.0,-0.29981437
384431437,-0.026471512,0.010239236,-0.003118848,0.0,0.0,-0.3074055
384453893,-0.010415342,-0.0015383001,-0.003110223,0.0,0.0,-0.31042987
384471961,-0.018179897,0.008811459,-0.0031447639,0.0,0.0,-0.3173078
384489845,-0.041250225,0.0072774696,-0.0033816558,0.0,0.0,-0.32114494
384512398,-0.034068394,-0.0026257199,-0.0032659494,0.0,0.0,-0.32980546
384534824,-0.0256526,-0.006613552,-0.003287814,0.0,0.0,-0.33230802
384552796,-0.035605937,-0.0036659688,-0.0033499026,0.0,0.0,-0.32668158
384570805,0.007710891,0.0277057,-0.003689467,0.0,0.0,-0.33857444
384593301,0.0041724667,0.014564262,-0.0040689725,0.0,0.0,-0.34062263
384611291,-0.026987487,-0.0026543979,-0.0043784985,0.0,0.0,-0.33742422
384633744,-0.01742931,0.031230457,-0.004642627,0.0,0.0,-0.35147384
384651711,-0.023459716,0.009210688,-0.005144228,0.0,0.0,-0.34214857
384669798,-0.027843611,-0.039198354,-0.0052324315,0.0,0.0,-0.33715215
384692200,-0.043365344,0.0134479515,-0.0057980632,0.0,0.0,-0.32953858
384710263,-0.016890408,-0.054906182,-0.0063730874,0.0,0.0,-0.3298405
384732714,-0.019228809,-0.028987315,-0.006749431,0.0,0.0,-0.33069497
384750873,-0.0068526343,-0.04880426,-0.0071103377,0.0,0.0,-0.32876873
384773394,-0.01025701,-0.04889663,-0.007576175,0.0,0.0,-0.32755527
384791116,-0.041447658,-0.029389404,-0.007984787,0.0,0.0,-0.32723242
384813649,0.01744256,-0.040778343,-0.008274945,0.0,0.0,-0.32682243
384831614,-0.020887636,-0.02515588,-0.0085872,0.0,0.0,-0.32702267
384854069,-0.0031243493,-0.02823119,-0.008831061,0.0,0.0,-0.32313514
384872169,-0.03616355,-0.006894775,-0.008791511,0.0,0.0,-0.31428015
384890320,-0.002337218,0.008680796,-0.008436946,0.0,0.0,-0.30909073
384912549,-0.03212874,0.016568448,-0.008361984,0.0,0.0,-0.31358236
384935404,-0.022628352,0.01066654,-0.008349352,0.0,0.0,-0.3176947
384953022,-0.012659352,0.014682924,-0.008383368,0.0,0.0,-0.32475588
384971060,-0.019187868,-0.0006742459,-0.0086110495,0.0,0.0,-0.32638493
384993462,0.021632362,0.028849423,-0.008532588,0.0,0.0,-0.32013842
385011496,-0.0040300963,0.001238754,-0.008779567,0.0,0.0,-0.3172755
385029533,0.011136493,0.00017960343,-0.008437654,0.0,0.0,-0.32382518
385051931,-0.031180983,-0.016818453,-0.008462424,0.0,0.0,-0.31869867
385074450,-0.024595967,-0.0070931613,-0.00848178,0.0,0.0,-0.31503463
385092508,0.019741345,0.008619816,-0.008330937,0.0,0.0,-0.32525855
385110446,0.013853343,-0.005913852,-0.008303305,0.0,0.0,-0.3264737
385132897,0.052556477,0.005294553,-0.008179696,0.0,0.0,-0.33153775
385155483,0.047696702,-0.0043578716,-0.008175154,0.0,0.0,-0.32609513
385168887,-0.006962723,-0.0010318444,-0.008061511,0.0,0.0,-0.31632626
385191632,-0.028906584,-0.020906962,-0.008203734,0.0,0.0,-0.30923718
385213865,-0.017214825,-0.022040645,-0.008125189,0.0,0.0,-0.3036207
385231855,0.0053165946,-0.024144977,-0.008293608,0.0,0.0,-0.29619414
385249944,0.04520262,-0.009015264,-0.00825834,0.0,0.0,-0.295218
385272227,0.046448465,0.013091155,-0.008068647,0.0,0.0,-0.28541368
385294818,0.045179717,0.0057401387,-0.008215263,0.0,0.0,-0.2816642
385312881,0.026172448,-0.0002465078,-0.008356304,0.0,0.0,-0.28275186
385330752,0.034312278,-0.0049958867,-0.007912711,0.0,0.0,-0.28579774
385353329,0.038226757,-0.003529323,-0.0079553155,0.0,0.0,-0.2904777
385375795,0.045040034,-0.041166663,-0.0080863405,0.0,0.0,-0.29802704
385389201,0.0064894687,0.012286086,-0.00818602,0.0,0.0,-0.304713
385411655,0.011333547,0.016720561,-0.008153935,0.0,0.0,-0.3091576
385434199,-0.004385352,-0.0021189833,-0.008174241,0.0,0.0,-0.31403434
385452190,-0.032065753,-0.0004532611,-0.008046498,0.0,0.0,-0.30665207
385470207,0.059106786,-0.04051055,-0.007949726,0.0,0.0,-0.30351272
385492650,0.034286182,-0.028287988,-0.0081499815,0.0,0.0,-0.29481703
385515101,0.026387483,-0.024958454,-0.008273231,0.0,0.0,-0.28901234
385533095,0.037717387,-0.018968292,-0.008157227,0.0,0.0,-0.28892586
385551042,-0.03531084,-0.011609892,-0.008322909,0.0,0.0,-0.2923772
385573592,-0.013333658,-0.039302483,-0.008183156,0.0,0.0,-0.29296133
385591574,-0.003212395,0.006245796,-0.0077498863,0.0,0.0,-0.28523108
385614016,0.03571653,0.0036487635,-0.007462135,0.0,0.0,-0.2818263
385632159,0.020194093,0.0036870162,-0.007489202,0.0,0.0,-0.2859877
385654460,0.0057960143,0.018451601,-0.007291263,0.0,0.0,-0.29278865
385672541,-0.021111436,0.013681519,-0.0070688315,0.0,0.0,-0.29688317
385690713,-0.010675766,0.00026019494,-0.0066438233,0.0,0.0,-0.29865217
385713100,-0.0051151565,0.03622054,-0.006264373,0.0,0.0,-0.3036104
385731014,0.0034465736,0.018941004,-0.006109931,0.0,0.0,-0.31370088
385753530,-0.0016008852,0.005578906,-0.005880129,0.0,0.0,-0.32164252
385771702,-0.049366053,0.02364712,-0.0056132395,0.0,0.0,-0.324844
385793898,-0.046457753,-0.009577976,-0.005583039,0.0,0.0,-0.32789856
385811877,-0.03586989,-0.025504211,-0.0054198625,0.0,0.0,-0.33534136
385834481,-0.040134076,-0.03713443,-0.005701839,0.0,0.0,-0.34115803
385852423,0.002162606,-0.01828093,-0.005812628,0.0,0.0,-0.34835884
385870363,-0.000665341,-0.010299482,-0.0060644913,0.0,0.0,-0.33953786
385892786,0.005414241,-0.041425273,-0.0064322357,0.0,0.0,-0.33361232
385910917,-0.009522697,-0.055975974,-0.006649507,0.0,0.0,-0.32950264
385933297,0.008771511,-0.017321277,-0.0065674083,0.0,0.0,-0.33237985
385951477,0.0064865765,-0.054239895,-0.00685086,0.0,0.0,-0.32888153
385973904,-0.006984412,-0.0077586393,-0.006820931,0.0,0.0,-0.32954183
385991841,-0.009759934,-0.0025808143,-0.00641241,0.0,0.0,-0.3273787
386009790,0.008204986,-0.049059566,-0.006732609,0.0,0.0,-0.3268107
386032199,0.014799012,-0.0023526961,-0.0067516565,0.0,0.0,-0.32567194
386054804,0.010079918,0.0025341227,-0.006853922,0.0,0.0,-0.32375723
386072736,0.025259688,-0.018071484,-0.007109468,0.0,0.0,-0.3240332
386090916,-0.057234395,0.02177403,-0.006993789,0.0,0.0,-0.32302207
386113141,0.0062508374,-0.019629378,-0.0071656685,0.0,0.0,-0.32358918
