timestamp,accel_device_id_primary,accel_device_ids[0],accel_device_ids[1],accel_device_ids[2],accel_device_ids[3],accel_inconsistency_m_s_s[0],accel_inconsistency_m_s_s[1],accel_inconsistency_m_s_s[2],accel_inconsistency_m_s_s[3],gyro_device_id_primary,gyro_device_ids[0],gyro_device_ids[1],gyro_device_ids[2],gyro_device_ids[3],gyro_inconsistency_rad_s[0],gyro_inconsistency_rad_s[1],gyro_inconsistency_rad_s[2],gyro_inconsistency_rad_s[3],accel_healthy[0],accel_healthy[1],accel_healthy[2],accel_healthy[3],gyro_healthy[0],gyro_healthy[1],gyro_healthy[2],gyro_healthy[3]
368270175,2162698,2162698,1114122,0,0,0.16980436,0.16980445,0.0,0.0,2162698,2162698,2228234,0,0,0.003610917,0.003610917,0.0,0.0,1,1,0,0,1,1,0,0
368472607,2162698,2162698,1114122,0,0,0.12294157,0.12294157,0.0,0.0,2162698,2162698,2228234,0,0,0.00041854515,0.0004185452,0.0,0.0,1,1,0,0,1,1,0,0
368670414,2162698,2162698,1114122,0,0,0.09903285,0.09903286,0.0,0.0,2162698,2162698,2228234,0,0,0.0018647059,0.0018647059,0.0,0.0,1,1,0,0,1,1,0,0
368872751,2162698,2162698,1114122,0,0,0.09733413,0.09733424,0.0,0.0,2162698,2162698,2228234,0,0,0.0011519187,0.0011519184,0.0,0.0,1,1,0,0,1,1,0,0
369070700,2162698,2162698,1114122,0,0,0.09693565,0.09693553,0.0,0.0,2162698,2162698,2228234,0,0,0.0016751653,0.0016751653,0.0,0.0,1,1,0,0,1,1,0,0
369268425,2162698,2162698,1114122,0,0,0.07769755,0.077697605,0.0,0.0,2162698,2162698,2228234,0,0,0.0027005915,0.002700591,0.0,0.0,1,1,0,0,1,1,0,0
369475329,2162698,2162698,1114122,0,0,0.099022575,0.09902258,0.0,0.0,2162698,2162698,2228234,0,0,0.0014374879,0.0014374875,0.0,0.0,1,1,0,0,1,1,0,0
369673101,2162698,2162698,1114122,0,0,0.1147935,0.114793494,0.0,0.0,2162698,2162698,2228234,0,0,0.0020748782,0.0020748782,0.0,0.0,1,1,0,0,1,1,0,0
369870988,2162698,2162698,1114122,0,0,0.06991187,0.069912,0.0,0.0,2162698,2162698,2228234,0,0,0.0022422401,0.0022422401,0.0,0.0,1,1,0,0,1,1,0,0
370073290,2162698,2162698,1114122,0,0,0.06760032,0.06760031,0.0,0.0,2162698,2162698,2228234,0,0,0.0023103957,0.0023103957,0.0,0.0,1,1,0,0,1,1,0,0
370271183,2162698,2162698,1114122,0,0,0.06278728,0.062787265,0.0,0.0,2162698,2162698,2228234,0,0,0.0011952159,0.0011952162,0.0,0.0,1,1,0,0,1,1,0,0
370469070,2162698,2162698,1114122,0,0,0.1189015,0.118901476,0.0,0.0,2162698,2162698,2228234,0,0,0.0018134583,0.0018134584,0.0,0.0,1,1,0,0,1,1,0,0
370671429,2162698,2162698,1114122,0,0,0.0663707,0.06637075,0.0,0.0,2162698,2162698,2228234,0,0,0.001473202,0.001473202,0.0,0.0,1,1,0,0,1,1,0,0
370873817,2162698,2162698,1114122,0,0,0.12200002,0.122,0.0,0.0,2162698,2162698,2228234,0,0,0.0026838984,0.0026838984,0.0,0.0,1,1,0,0,1,1,0,0
371071744,2162698,2162698,1114122,0,0,0.0700006,0.07000061,0.0,0.0,2162698,2162698,2228234,0,0,0.0026111153,0.0026111153,0.0,0.0,1,1,0,0,1,1,0,0
371273987,2162698,2162698,1114122,0,0,0.0727801,0.07278017,0.0,0.0,2162698,2162698,2228234,0,0,0.0025230828,0.0025230828,0.0,0.0,1,1,0,0,1,1,0,0
371471797,2162698,2162698,1114122,0,0,0.05836685,0.05836688,0.0,0.0,2162698,2162698,2228234,0,0,0.0012529592,0.0012529592,0.0,0.0,1,1,0,0,1,1,0,0
371669742,2162698,2162698,1114122,0,0,0.08727362,0.08727356,0.0,0.0,2162698,2162698,2228234,0,0,0.003525933,0.003525933,0.0,0.0,1,1,0,0,1,1,0,0
371872340,2162698,2162698,1114122,0,0,0.08745804,0.08745798,0.0,0.0,2162698,2162698,2228234,0,0,0.0037503063,0.0037503063,0.0,0.0,1,1,0,0,1,1,0,0
372069862,2162698,2162698,1114122,0,0,0.15023765,0.15023768,0.0,0.0,2162698,2162698,2228234,0,0,0.0044693863,0.0044693863,0.0,0.0,1,1,0,0,1,1,0,0
372272370,2162698,2162698,1114122,0,0,0.106935434,0.10693517,0.0,0.0,2162698,2162698,2228234,0,0,0.0030060858,0.0030060853,0.0,0.0,1,1,0,0,1,1,0,0
372474540,2162698,2162698,1114122,0,0,0.06680767,0.06680768,0.0,0.0,2162698,2162698,2228234,0,0,0.0015132008,0.001513201,0.0,0.0,1,1,0,0,1,1,0,0
372672567,2162698,2162698,1114122,0,0,0.07033536,0.07033547,0.0,0.0,2162698,2162698,2228234,0,0,0.0024444475,0.0024444473,0.0,0.0,1,1,0,0,1,1,0,0
372870266,2162698,2162698,1114122,0,0,0.08249685,0.082496755,0.0,0.0,2162698,2162698,2228234,0,0,0.0028217754,0.002821775,0.0,0.0,1,1,0,0,1,1,0,0
373072718,2162698,2162698,1114122,0,0,0.09240517,0.09240532,0.0,0.0,2162698,2162698,2228234,0,0,0.0023169583,0.0023169583,0.0,0.0,1,1,0,0,1,1,0,0
373270508,2162698,2162698,1114122,0,0,0.07880567,0.07880567,0.0,0.0,2162698,2162698,2228234,0,0,0.0020882308,0.002088231,0.0,0.0,1,1,0,0,1,1,0,0
373468318,2162698,2162698,1114122,0,0,0.12391792,0.123917826,0.0,0.0,2162698,2162698,2228234,0,0,0.0043865126,0.004386513,0.0,0.0,1,1,0,0,1,1,0,0
373675225,2162698,2162698,1114122,0,0,0.13527955,0.1352795,0.0,0.0,2162698,2162698,2228234,0,0,0.00040583176,0.00040583176,0.0,0.0,1,1,0,0,1,1,0,0
373872987,2162698,2162698,1114122,0,0,0.11448838,0.11448831,0.0,0.0,2162698,2162698,2228234,0,0,0.0020443618,0.0020443618,0.0,0.0,1,1,0,0,1,1,0,0
374070831,2162698,2162698,1114122,0,0,0.13879436,0.13879439,0.0,0.0,2162698,2162698,2228234,0,0,0.003484081,0.0034840805,0.0,0.0,1,1,0,0,1,1,0,0
374273228,2162698,2162698,1114122,0,0,0.104132995,0.10413287,0.0,0.0,2162698,2162698,2228234,0,0,0.0039071124,0.003907113,0.0,0.0,1,1,0,0,1,1,0,0
374471094,2162698,2162698,1114122,0,0,0.11460495,0.11460495,0.0,0.0,2162698,2162698,2228234,0,0,0.0022030782,0.002203078,0.0,0.0,1,1,0,0,1,1,0,0
374669057,2162698,2162698,1114122,0,0,0.093428366,0.093428314,0.0,0.0,2162698,2162698,2228234,0,0,0.0031401052,0.0031401052,0.0,0.0,1,1,0,0,1,1,0,0
374871395,2162698,2162698,1114122,0,0,0.18920337,0.18920335,0.0,0.0,2162698,2162698,2228234,0,0,0.0031038604,0.003103861,0.0,0.0,1,1,0,0,1,1,0,0
375073661,2162698,2162698,1114122,0,0,0.065543585,0.06554365,0.0,0.0,2162698,2162698,2228234,0,0,0.0043713613,0.0043713613,0.0,0.0,1,1,0,0,1,1,0,0
375271537,2162698,2162698,1114122,0,0,0.092145756,0.09214574,0.0,0.0,2162698,2162698,2228234,0,0,0.0019440616,0.0019440614,0.0,0.0,1,1,0,0,1,1,0,0
375473839,2162698,2162698,1114122,0,0,0.07315233,0.07315234,0.0,0.0,2162698,2162698,2228234,0,0,0.0011026247,0.001102625,0.0,0.0,1,1,0,0,1,1,0,0
375671693,2162698,2162698,1114122,0,0,0.087614715,0.08761473,0.0,0.0,2162698,2162698,2228234,0,0,0.0032953073,0.003295307,0.0,0.0,1,1,0,0,1,1,0,0
375869689,2162698,2162698,1114122,0,0,0.12693192,0.12693185,0.0,0.0,2162698,2162698,2228234,0,0,0.002062545,0.002062545,0.0,0.0,1,1,0,0,1,1,0,0
376071913,2162698,2162698,1114122,0,0,0.21854961,0.21854967,0.0,0.0,2162698,2162698,2228234,0,0,0.0026792297,0.0026792297,0.0,0.0,1,1,0,0,1,1,0,0
376269760,2162698,2162698,1114122,0,0,0.029981054,0.029981054,0.0,0.0,2162698,2162698,2228234,0,0,0.0038625763,0.0038625768,0.0,0.0,1,1,0,0,1,1,0,0
376472215,2162698,2162698,1114122,0,0,0.24125029,0.24125025,0.0,0.0,2162698,2162698,2228234,0,0,0.00434959,0.0043495893,0.0,0.0,1,1,0,0,1,1,0,0
376674443,2162698,2162698,1114122,0,0,0.11882402,0.118824005,0.0,0.0,2162698,2162698,2228234,0,0,0.004710874,0.004710875,0.0,0.0,1,1,0,0,1,1,0,0
376872279,2162698,2162698,1114122,0,0,0.20645952,0.20645961,0.0,0.0,2162698,2162698,2228234,0,0,0.0023855977,0.0023855981,0.0,0.0,1,1,0,0,1,1,0,0
377070155,2162698,2162698,1114122,0,0,0.22631808,0.22631796,0.0,0.0,2162698,2162698,2228234,0,0,0.003244463,0.0032444627,0.0,0.0,1,1,0,0,1,1,0,0
377272528,2162698,2162698,1114122,0,0,0.18074737,0.18074742,0.0,0.0,2162698,2162698,2228234,0,0,0.00363681,0.0036368093,0.0,0.0,1,1,0,0,1,1,0,0
377470412,2162698,2162698,1114122,0,0,0.3305183,0.3305185,0.0,0.0,2162698,2162698,2228234,0,0,0.003399165,0.0033991658,0.0,0.0,1,1,0,0,1,1,0,0
377668190,2162698,2162698,1114122,0,0,0.10726848,0.10726844,0.0,0.0,2162698,2162698,2228234,0,0,0.0026797315,0.002679732,0.0,0.0,1,1,0,0,1,1,0,0
377870581,2162698,2162698,1114122,0,0,0.0595443,0.059544392,0.0,0.0,2162698,2162698,2228234,0,0,0.002477476,0.002477476,0.0,0.0,1,1,0,0,1,1,0,0
378072988,2162698,2162698,1114122,0,0,0.09198636,0.09198636,0.0,0.0,2162698,2162698,2228234,0,0,0.0044201976,0.0044201976,0.0,0.0,1,1,0,0,1,1,0,0
378270757,2162698,2162698,1114122,0,0,0.11602429,0.11602429,0.0,0.0,2162698,2162698,2228234,0,0,0.0048541417,0.004854141,0.0,0.0,1,1,0,0,1,1,0,0
378473116,2162698,2162698,1114122,0,0,0.1480951,0.14809527,0.0,0.0,2162698,2162698,2228234,0,0,0.008216768,0.0082167685,0.0,0.0,1,1,0,0,1,1,0,0
378671085,2162698,2162698,1114122,0,0,0.2500486,0.25004864,0.0,0.0,2162698,2162698,2228234,0,0,0.0030952254,0.0030952252,0.0,0.0,1,1,0,0,1,1,0,0
378868900,2162698,2162698,1114122,0,0,0.07606378,0.07606378,0.0,0.0,2162698,2162698,2228234,0,0,0.0040989253,0.0040989257,0.0,0.0,1,1,0,0,1,1,0,0
379071344,2162698,2162698,1114122,0,0,0.0749692,0.07496909,0.0,0.0,2162698,2162698,2228234,0,0,0.0024193437,0.002419344,0.0,0.0,1,1,0,0,1,1,0,0
379269090,2162698,2162698,1114122,0,0,0.06759572,0.06759565,0.0,0.0,2162698,2162698,2228234,0,0,0.0035416617,0.003541662,0.0,0.0,1,1,0,0,1,1,0,0
379471399,2162698,2162698,1114122,0,0,0.050496098,0.05049609,0.0,0.0,2162698,2162698,2228234,0,0,0.0039694235,0.003969424,0.0,0.0,1,1,0,0,1,1,0,0
379673889,2162698,2162698,1114122,0,0,0.25497794,0.25497812,0.0,0.0,2162698,2162698,2228234,0,0,0.00506079,0.0050607896,0.0,0.0,1,1,0,0,1,1,0,0
379871604,2162698,2162698,1114122,0,0,0.14482741,0.14482759,0.0,0.0,2162698,2162698,2228234,0,0,0.0034601083,0.0034601085,0.0,0.0,1,1,0,0,1,1,0,0
380069459,2162698,2162698,1114122,0,0,0.060565516,0.060565498,0.0,0.0,2162698,2162698,2228234,0,0,0.004362868,0.0043628695,0.0,0.0,1,1,0,0,1,1,0,0
380271810,2162698,2162698,1114122,0,0,0.10026938,0.100269355,0.0,0.0,2162698,2162698,2228234,0,0,0.0018978082,0.0018978073,0.0,0.0,1,1,0,0,1,1,0,0
380469682,2162698,2162698,1114122,0,0,0.13586392,0.13586394,0.0,0.0,2162698,2162698,2228234,0,0,0.0032123176,0.0032123178,0.0,0.0,1,1,0,0,1,1,0,0
380672018,2162698,2162698,1114122,0,0,0.061965097,0.061965086,0.0,0.0,2162698,2162698,2228234,0,0,0.0037875432,0.003787543,0.0,0.0,1,1,0,0,1,1,0,0
380874407,2162698,2162698,1114122,0,0,0.122561865,0.12256183,0.0,0.0,2162698,2162698,2228234,0,0,0.0027061196,0.0027061196,0.0,0.0,1,1,0,0,1,1,0,0
381072198,2162698,2162698,1114122,0,0,0.21664058,0.21664058,0.0,0.0,2162698,2162698,2228234,0,0,0.0032086775,0.0032086775,0.0,0.0,1,1,0,0,1,1,0,0
381270243,2162698,2162698,1114122,0,0,0.08086949,0.080869585,0.0,0.0,2162698,2162698,2228234,0,0,0.0029306023,0.0029306025,0.0,0.0,1,1,0,0,1,1,0,0
381472516,2162698,2162698,1114122,0,0,0.17337221,0.17337213,0.0,0.0,2162698,2162698,2228234,0,0,0.0029193028,0.0029193026,0.0,0.0,1,1,0,0,1,1,0,0
381670358,2162698,2162698,1114122,0,0,0.120348014,0.120348126,0.0,0.0,2162698,2162698,2228234,0,0,0.0064125494,0.0064125485,0.0,0.0,1,1,0,0,1,1,0,0
381868112,2162698,2162698,1114122,0,0,0.16056472,0.16056472,0.0,0.0,2162698,2162698,2228234,0,0,0.0011813543,0.0011813542,0.0,0.0,1,1,0,0,1,1,0,0
382070649,2162698,2162698,1114122,0,0,0.17418496,0.17418496,0.0,0.0,2162698,2162698,2228234,0,0,0.0015382713,0.0015382711,0.0,0.0,1,1,0,0,1,1,0,0
382273026,2162698,2162698,1114122,0,0,0.07963947,0.07963951,0.0,0.0,2162698,2162698,2228234,0,0,0.003337213,0.003337213,0.0,0.0,1,1,0,0,1,1,0,0
382470768,2162698,2162698,1114122,0,0,0.065594785,0.06559477,0.0,0.0,2162698,2162698,2228234,0,0,0.0025265168,0.0025265168,0.0,0.0,1,1,0,0,1,1,0,0
382673053,2162698,2162698,1114122,0,0,0.17483097,0.17483103,0.0,0.0,2162698,2162698,2228234,0,0,0.0044966997,0.0044967,0.0,0.0,1,1,0,0,1,1,0,0
382870882,2162698,2162698,1114122,0,0,0.22424774,0.22424783,0.0,0.0,2162698,2162698,2228234,0,0,0.0032702556,0.0032702554,0.0,0.0,1,1,0,0,1,1,0,0
383068830,2162698,2162698,1114122,0,0,0.26628006,0.26628,0.0,0.0,2162698,2162698,2228234,0,0,0.004127217,0.0041272175,0.0,0.0,1,1,0,0,1,1,0,0
383271192,2162698,2162698,1114122,0,0,0.059323095,0.05932306,0.0,0.0,2162698,2162698,2228234,0,0,0.002691294,0.002691294,0.0,0.0,1,1,0,0,1,1,0,0
383468978,2162698,2162698,1114122,0,0,0.0439348,0.043934826,0.0,0.0,2162698,2162698,2228234,0,0,0.0023397626,0.0023397622,0.0,0.0,1,1,0,0,1,1,0,0
383671371,2162698,2162698,1114122,0,0,0.123862065,0.123862036,0.0,0.0,2162698,2162698,2228234,0,0,0.0030687824,0.0030687829,0.0,0.0,1,1,0,0,1,1,0,0
383873662,2162698,2162698,1114122,0,0,0.1031293,0.1031293,0.0,0.0,2162698,2162698,2228234,0,0,0.0037696706,0.003769671,0.0,0.0,1,1,0,0,1,1,0,0
384071725,2162698,2162698,1114122,0,0,0.25174615,0.25174618,0.0,0.0,2162698,2162698,2228234,0,0,0.0026398178,0.0026398178,0.0,0.0,1,1,0,0,1,1,0,0
384269517,2162698,2162698,1114122,0,0,0.13703893,0.137039,0.0,0.0,2162698,2162698,2228234,0,0,0.003655946,0.0036559463,0.0,0.0,1,1,0,0,1,1,0,0
384471880,2162698,2162698,1114122,0,0,0.1391226,0.13912266,0.0,0.0,2162698,2162698,2228234,0,0,0.0016104928,0.0016104928,0.0,0.0,1,1,0,0,1,1,0,0
384669716,2162698,2162698,1114122,0,0,0.14424475,0.14424466,0.0,0.0,2162698,2162698,2228234,0,0,0.0034485355,0.0034485355,0.0,0.0,1,1,0,0,1,1,0,0
384872091,2162698,2162698,1114122,0,0,0.09883454,0.09883451,0.0,0.0,2162698,2162698,2228234,0,0,0.0014812531,0.001481253,0.0,0.0,1,1,0,0,1,1,0,0
385074364,2162698,2162698,1114122,0,0,0.09044396,0.09044408,0.0,0.0,2162698,2162698,2228234,0,0,0.0013875731,0.0013875731,0.0,0.0,1,1,0,0,1,1,0,0
385272150,2162698,2162698,1114122,0,0,0.31555015,0.3155502,0.0,0.0,2162698,2162698,2228234,0,0,0.0070429337,0.0070429337,0.0,0.0,1,1,0,0,1,1,0,0
385470116,2162698,2162698,1114122,0,0,0.025938964,0.025938902,0.0,0.0,2162698,2162698,2228234,0,0,0.0037007,0.0037006997,0.0,0.0,1,1,0,0,1,1,0,0
385672460,2162698,2162698,1114122,0,0,0.15738669,0.15738668,0.0,0.0,2162698,2162698,2228234,0,0,0.0010581359,0.0010581362,0.0,0.0,1,1,0,0,1,1,0,0
385870281,2162698,2162698,1114122,0,0,0.1400586,0.14005867,0.0,0.0,2162698,2162698,2228234,0,0,0.0018361028,0.0018361029,0.0,0.0,1,1,0,0,1,1,0,0
386068338,2162698,2162698,1114122,0,0,0.11708876,0.11708876,0.0,0.0,2162698,2162698,2228234,0,0,0.003345128,0.003345127,0.0,0.0,1,1,0,0,1,1,0,0
386270490,2162698,2162698,1114122,0,0,0.10857401,0.10857406,0.0,0.0,2162698,2162698,2228234,0,0,0.002605276,0.0026052764,0.0,0.0,1,1,0,0,1,1,0,0
386472830,2162698,2162698,1114122,0,0,0.16956213,0.16956209,0.0,0.0,2162698,2162698,2228234,0,0,0.0036526779,0.003652678,0.0,0.0,1,1,0,0,1,1,0,0
386670813,2162698,2162698,1114122,0,0,0.117557265,0.11755717,0.0,0.0,2162698,2162698,2228234,0,0,0.0029568342,0.0029568342,0.0,0.0,1,1,0,0,1,1,0,0
386873016,2162698,2162698,1114122,0,0,0.07104358,0.07104359,0.0,0.0,2162698,2162698,2228234,0,0,0.0035654956,0.003565496,0.0,0.0,1,1,0,0,1,1,0,0
387070870,2162698,2162698,1114122,0,0,0.083554275,0.083554365,0.0,0.0,2162698,2162698,2228234,0,0,0.0022817208,0.0022817208,0.0,0.0,1,1,0,0,1,1,0,0
387268805,2162698,2162698,1114122,0,0,0.13820669,0.13820677,0.0,0.0,2162698,2162698,2228234,0,0,0.0043718023,0.004371803,0.0,0.0,1,1,0,0,1,1,0,0
387471173,2162698,2162698,1114122,0,0,0.1463563,0.1463563,0.0,0.0,2162698,2162698,2228234,0,0,0.0020721336,0.0020721334,0.0,0.0,1,1,0,0,1,1,0,0
387668961,2162698,2162698,1114122,0,0,0.11848363,0.11848366,0.0,0.0,2162698,2162698,2228234,0,0,0.0039040234,0.0039040232,0.0,0.0,1,1,0,0,1,1,0,0
387871333,2162698,2162698,1114122,0,0,0.3093264,0.30932635,0.0,0.0,2162698,2162698,2228234,0,0,0.0034477771,0.003447777,0.0,0.0,1,1,0,0,1,1,0,0
388073673,2162698,2162698,1114122,0,0,0.2731511,0.27315077,0.0,0.0,2162698,2162698,2228234,0,0,0.0025493558,0.0025493556,0.0,0.0,1,1,0,0,1,1,0,0
388271619,2162698,2162698,1114122,0,0,0.12875617,0.12875621,0.0,0.0,2162698,2162698,2228234,0,0,0.0011141135,0.0011141137,0.0,0.0,1,1,0,0,1,1,0,0
388469358,2162698,2162698,1114122,0,0,0.090051144,0.09005116,0.0,0.0,2162698,2162698,2228234,0,0,0.003908313,0.0039083133,0.0,0.0,1,1,0,0,1,1,0,0
388671740,2162698,2162698,1114122,0,0,0.11508268,0.115082785,0.0,0.0,2162698,2162698,2228234,0,0,0.002750898,0.0027508982,0.0,0.0,1,1,0,0,1,1,0,0
388869730,2162698,2162698,1114122,0,0,0.17617308,0.17617327,0.0,0.0,2162698,2162698,2228234,0,0,0.004962536,0.004962535,0.0,0.0,1,1,0,0,1,1,0,0
389071987,2162698,2162698,1114122,0,0,0.16053192,0.16053198,0.0,0.0,2162698,2162698,2228234,0,0,0.0033446809,0.0033446809,0.0,0.0,1,1,0,0,1,1,0,0
389274343,2162698,2162698,1114122,0,0,0.17271097,0.17271098,0.0,0.0,2162698,2162698,2228234,0,0,0.0022165922,0.002216593,0.0,0.0,1,1,0,0,1,1,0,0
389472137,2162698,2162698,1114122,0,0,0.14228578,0.1422858,0.0,0.0,2162698,2162698,2228234,0,0,0.0025975206,0.0025975208,0.0,0.0,1,1,0,0,1,1,0,0
389670065,2162698,2162698,1114122,0,0,0.12229382,0.122293904,0.0,0.0,2162698,2162698,2228234,0,0,0.0036569822,0.003656982,0.0,0.0,1,1,0,0,1,1,0,0
389872324,2162698,2162698,1114122,0,0,0.09378756,0.09378757,0.0,0.0,2162698,2162698,2228234,0,0,0.0040046005,0.004004601,0.0,0.0,1,1,0,0,1,1,0,0
390070279,2162698,2162698,1114122,0,0,0.034657992,0.034658033,0.0,0.0,2162698,2162698,2228234,0,0,0.003561984,0.003561984,0.0,0.0,1,1,0,0,1,1,0,0
390268065,2162698,2162698,1114122,0,0,0.1294523,0.12945221,0.0,0.0,2162698,2162698,2228234,0,0,0.0034547485,0.0034547485,0.0,0.0,1,1,0,0,1,1,0,0
390470494,2162698,2162698,1114122,0,0,0.16801478,0.16801466,0.0,0.0,2162698,2162698,2228234,0,0,0.004211326,0.0042113257,0.0,0.0,1,1,0,0,1,1,0,0
390673015,2162698,2162698,1114122,0,0,0.05984265,0.059842616,0.0,0.0,2162698,2162698,2228234,0,0,0.0021337944,0.002133797,0.0,0.0,1,1,0,0,1,1,0,0
390870717,2162698,2162698,1114122,0,0,0.035847466,0.035847493,0.0,0.0,2162698,2162698,2228234,0,0,0.004603038,0.004603038,0.0,0.0,1,1,0,0,1,1,0,0
391073045,2162698,2162698,1114122,0,0,0.173087,0.17308702,0.0,0.0,2162698,2162698,2228234,0,0,0.0016716566,0.0016716566,0.0,0.0,1,1,0,0,1,1,0,0
391270847,2162698,2162698,1114122,0,0,0.10771927,0.107719354,0.0,0.0,2162698,2162698,2228234,0,0,0.0012186229,0.0012186229,0.0,0.0,1,1,0,0,1,1,0,0
391468740,2162698,2162698,1114122,0,0,0.17645071,0.17645058,0.0,0.0,2162698,2162698,2228234,0,0,0.0019794216,0.001979422,0.0,0.0,1,1,0,0,1,1,0,0
391671177,2162698,2162698,1114122,0,0,0.1382657,0.13826571,0.0,0.0,2162698,2162698,2228234,0,0,0.0031096712,0.0031096714,0.0,0.0,1,1,0,0,1,1,0,0
391869025,2162698,2162698,1114122,0,0,0.31236157,0.31236163,0.0,0.0,2162698,2162698,2228234,0,0,0.00440547,0.004405469,0.0,0.0,1,1,0,0,1,1,0,0
392071459,2162698,2162698,1114122,0,0,0.22413355,0.22413346,0.0,0.0,2162698,2162698,2228234,0,0,0.0069884122,0.0069884122,0.0,0.0,1,1,0,0,1,1,0,0
392273614,2162698,2162698,1114122,0,0,0.1368738,0.13687366,0.0,0.0,2162698,2162698,2228234,0,0,0.0022129037,0.0022129037,0.0,0.0,1,1,0,0,1,1,0,0
392471776,2162698,2162698,1114122,0,0,0.19469981,0.19469978,0.0,0.0,2162698,2162698,2228234,0,0,0.0043737176,0.004373717,0.0,0.0,1,1,0,0,1,1,0,0
392669393,2162698,2162698,1114122,0,0,0.09507667,0.09507674,0.0,0.0,2162698,2162698,2228234,0,0,0.003557062,0.0035570622,0.0,0.0,1,1,0,0,1,1,0,0
392871749,2162698,2162698,1114122,0,0,0.13383077,0.13383083,0.0,0.0,2162698,2162698,2228234,0,0,0.0057818918,0.0057818918,0.0,0.0,1,1,0,0,1,1,0,0
393069609,2162698,2162698,1114122,0,0,0.24392143,0.24392143,0.0,0.0,2162698,2162698,2228234,0,0,0.00492549,0.0049254904,0.0,0.0,1,1,0,0,1,1,0,0
393272039,2162698,2162698,1114122,0,0,0.07223601,0.0722361,0.0,0.0,2162698,2162698,2228234,0,0,0.0046579,0.0046578995,0.0,0.0,1,1,0,0,1,1,0,0
393474368,2162698,2162698,1114122,0,0,0.2067948,0.20679481,0.0,0.0,2162698,2162698,2228234,0,0,0.0044004917,0.0044004912,0.0,0.0,1,1,0,0,1,1,0,0
393672132,2162698,2162698,1114122,0,0,0.2467175,0.24671747,0.0,0.0,2162698,2162698,2228234,0,0,0.0030778674,0.0030778674,0.0,0.0,1,1,0,0,1,1,0,0
393870086,2162698,2162698,1114122,0,0,0.23110983,0.23110974,0.0,0.0,2162698,2162698,2228234,0,0,0.002943695,0.002943695,0.0,0.0,1,1,0,0,1,1,0,0
394072349,2162698,2162698,1114122,0,0,0.1519382,0.15193819,0.0,0.0,2162698,2162698,2228234,0,0,0.0031324471,0.003132448,0.0,0.0,1,1,0,0,1,1,0,0
394270330,2162698,2162698,1114122,0,0,0.13328476,0.13328482,0.0,0.0,2162698,2162698,2228234,0,0,0.0024040248,0.0024040253,0.0,0.0,1,1,0,0,1,1,0,0
394468122,2162698,2162698,1114122,0,0,0.19584236,0.19584243,0.0,0.0,2162698,2162698,2228234,0,0,0.002971343,0.002971343,0.0,0.0,1,1,0,0,1,1,0,0
394670570,2162698,2162698,1114122,0,0,0.31032068,0.31032065,0.0,0.0,2162698,2162698,2228234,0,0,0.0045930156,0.004593015,0.0,0.0,1,1,0,0,1,1,0,0
394872937,2162698,2162698,1114122,0,0,0.33052573,0.3305257,0.0,0.0,2162698,2162698,2228234,0,0,0.0061446135,0.0061446135,0.0,0.0,1,1,0,0,1,1,0,0
395070854,2162698,2162698,1114122,0,0,0.24616423,0.24616422,0.0,0.0,2162698,2162698,2228234,0,0,0.0045570973,0.004557097,0.0,0.0,1,1,0,0,1,1,0,0
395273022,2162698,2162698,1114122,0,0,0.2094776,0.20947756,0.0,0.0,2162698,2162698,2228234,0,0,0.0017332487,0.0017332488,0.0,0.0,1,1,0,0,1,1,0,0
395470868,2162698,2162698,1114122,0,0,0.16335145,0.16335155,0.0,0.0,2162698,2162698,2228234,0,0,0.00373169,0.0037316896,0.0,0.0,1,1,0,0,1,1,0,0
395668831,2162698,2162698,1114122,0,0,0.15271111,0.15271114,0.0,0.0,2162698,2162698,2228234,0,0,0.0035275784,0.0035275784,0.0,0.0,1,1,0,0,1,1,0,0
395871136,2162698,2162698,1114122,0,0,0.07878348,0.0787835,0.0,0.0,2162698,2162698,2228234,0,0,0.003981547,0.003981547,0.0,0.0,1,1,0,0,1,1,0,0
396069039,2162698,2162698,1114122,0,0,0.11886647,0.11886649,0.0,0.0,2162698,2162698,2228234,0,0,0.0034365766,0.0034365766,0.0,0.0,1,1,0,0,1,1,0,0
396271423,2162698,2162698,1114122,0,0,0.12689312,0.12689297,0.0,0.0,2162698,2162698,2228234,0,0,0.0026150038,0.0026150034,0.0,0.0,1,1,0,0,1,1,0,0
396473778,2162698,2162698,1114122,0,0,0.2850974,0.28509736,0.0,0.0,2162698,2162698,2228234,0,0,0.0030163608,0.003016361,0.0,0.0,1,1,0,0,1,1,0,0
396671547,2162698,2162698,1114122,0,0,0.045994956,0.045994975,0.0,0.0,2162698,2162698,2228234,0,0,0.0022132571,0.0022132571,0.0,0.0,1,1,0,0,1,1,0,0
396869353,2162698,2162698,1114122,0,0,0.39023444,0.39023444,0.0,0.0,2162698,2162698,2228234,0,0,0.00663563,0.006635631,0.0,0.0,1,1,0,0,1,1,0,0
397071880,2162698,2162698,1114122,0,0,0.3220373,0.32203722,0.0,0.0,2162698,2162698,2228234,0,0,0.0027550205,0.0027550205,0.0,0.0,1,1,0,0,1,1,0,0
397269667,2162698,2162698,1114122,0,0,0.24420147,0.24420148,0.0,0.0,2162698,2162698,2228234,0,0,0.0038612639,0.003861264,0.0,0.0,1,1,0,0,1,1,0,0
397472010,2162698,2162698,1114122,0,0,0.21108434,0.21108434,0.0,0.0,2162698,2162698,2228234,0,0,0.002717171,0.0027171709,0.0,0.0,1,1,0,0,1,1,0,0
397674319,2162698,2162698,1114122,0,0,0.23757042,0.23757039,0.0,0.0,2162698,2162698,2228234,0,0,0.004358225,0.004358225,0.0,0.0,1,1,0,0,1,1,0,0
397872267,2162698,2162698,1114122,0,0,0.31328624,0.31328633,0.0,0.0,2162698,2162698,2228234,0,0,0.003474182,0.003474182,0.0,0.0,1,1,0,0,1,1,0,0
398070089,2162698,2162698,1114122,0,0,0.2002341,0.20023417,0.0,0.0,2162698,2162698,2228234,0,0,0.0038601502,0.0038601507,0.0,0.0,1,1,0,0,1,1,0,0
398272715,2162698,2162698,1114122,0,0,0.25248122,0.25248134,0.0,0.0,2162698,2162698,2228234,0,0,0.0036212273,0.003621227,0.0,0.0,1,1,0,0,1,1,0,0
398470345,2162698,2162698,1114122,0,0,0.07670777,0.07670777,0.0,0.0,2162698,2162698,2228234,0,0,0.0052504004,0.0052504004,0.0,0.0,1,1,0,0,1,1,0,0
398668106,2162698,2162698,1114122,0,0,0.04921195,0.04921192,0.0,0.0,2162698,2162698,2228234,0,0,0.0056379363,0.0056379368,0.0,0.0,1,1,0,0,1,1,0,0
398870514,2162698,2162698,1114122,0,0,0.05558771,0.055587705,0.0,0.0,2162698,2162698,2228234,0,0,0.0034086574,0.0034086572,0.0,0.0,1,1,0,0,1,1,0,0
399072956,2162698,2162698,1114122,0,0,0.29688478,0.29688472,0.0,0.0,2162698,2162698,2228234,0,0,0.0048970217,0.004897022,0.0,0.0,1,1,0,0,1,1,0,0
399270760,2162698,2162698,1114122,0,0,0.021845715,0.021845743,0.0,0.0,2162698,2162698,2228234,0,0,0.0074373907,0.0074373907,0.0,0.0,1,1,0,0,1,1,0,0
399473161,2162698,2162698,1114122,0,0,0.1377315,0.1377315,0.0,0.0,2162698,2162698,2228234,0,0,0.0023181615,0.0023181622,0.0,0.0,1,1,0,0,1,1,0,0
399670909,2162698,2162698,1114122,0,0,0.17438349,0.17438337,0.0,0.0,2162698,2162698,2228234,0,0,0.0042499686,0.004249969,0.0,0.0,1,1,0,0,1,1,0,0
399868784,2162698,2162698,1114122,0,0,0.04057767,0.04057766,0.0,0.0,2162698,2162698,2228234,0,0,0.0028386163,0.0028386163,0.0,0.0,1,1,0,0,1,1,0,0
400071167,2162698,2162698,1114122,0,0,0.19501169,0.19501172,0.0,0.0,2162698,2162698,2228234,0,0,0.0028073792,0.0028073792,0.0,0.0,1,1,0,0,1,1,0,0
400269014,2162698,2162698,1114122,0,0,0.03619025,0.036190283,0.0,0.0,2162698,2162698,2228234,0,0,0.0062670247,0.0062670247,0.0,0.0,1,1,0,0,1,1,0,0
400471570,2162698,2162698,1114122,0,0,0.1936899,0.19368987,0.0,0.0,2162698,2162698,2228234,0,0,0.002292866,0.002292866,0.0,0.0,1,1,0,0,1,1,0,0
400673831,2162698,2162698,1114122,0,0,0.17076063,0.17076063,0.0,0.0,2162698,2162698,2228234,0,0,0.0025481842,0.0025481842,0.0,0.0,1,1,0,0,1,1,0,0
400871705,2162698,2162698,1114122,0,0,0.07184774,0.07184762,0.0,0.0,2162698,2162698,2228234,0,0,0.002948343,0.0029483438,0.0,0.0,1,1,0,0,1,1,0,0
401069482,2162698,2162698,1114122,0,0,0.39796984,0.39796972,0.0,0.0,2162698,2162698,2228234,0,0,0.00509123,0.0050912304,0.0,0.0,1,1,0,0,1,1,0,0
401271831,2162698,2162698,1114122,0,0,0.11956037,0.11956028,0.0,0.0,2162698,2162698,2228234,0,0,0.0017066626,0.0017066628,0.0,0.0,1,1,0,0,1,1,0,0
401469767,2162698,2162698,1114122,0,0,0.050580606,0.050580617,0.0,0.0,2162698,2162698,2228234,0,0,0.005068842,0.005068842,0.0,0.0,1,1,0,0,1,1,0,0
401672410,2162698,2162698,1114122,0,0,0.06817745,0.068177365,0.0,0.0,2162698,2162698,2228234,0,0,0.0048969616,0.004896961,0.0,0.0,1,1,0,0,1,1,0,0
401874403,2162698,2162698,1114122,0,0,0.10551865,0.10551867,0.0,0.0,2162698,2162698,2228234,0,0,0.0020782254,0.0020782254,0.0,0.0,1,1,0,0,1,1,0,0
402072265,2162698,2162698,1114122,0,0,0.14640296,0.14640297,0.0,0.0,2162698,2162698,2228234,0,0,0.0023752584,0.0023752588,0.0,0.0,1,1,0,0,1,1,0,0
402270199,2162698,2162698,1114122,0,0,0.11709351,0.117093556,0.0,0.0,2162698,2162698,2228234,0,0,0.0028729911,0.0028729911,0.0,0.0,1,1,0,0,1,1,0,0
402472579,2162698,2162698,1114122,0,0,0.09730219,0.097302176,0.0,0.0,2162698,2162698,2228234,0,0,0.0016397756,0.0016397756,0.0,0.0,1,1,0,0,1,1,0,0
402670329,2162698,2162698,1114122,0,0,0.084696054,0.08469598,0.0,0.0,2162698,2162698,2228234,0,0,0.002542944,0.0025429444,0.0,0.0,1,1,0,0,1,1,0,0
402868165,2162698,2162698,1114122,0,0,0.18311891,0.18311888,0.0,0.0,2162698,2162698,2228234,0,0,0.00425322,0.00425322,0.0,0.0,1,1,0,0,1,1,0,0
403070580,2162698,2162698,1114122,0,0,0.13632034,0.13632032,0.0,0.0,2162698,2162698,2228234,0,0,0.0019164513,0.0019164514,0.0,0.0,1,1,0,0,1,1,0,0
403272903,2162698,2162698,1114122,0,0,0.11296561,0.11296558,0.0,0.0,2162698,2162698,2228234,0,0,0.0028246623,0.0028246618,0.0,0.0,1,1,0,0,1,1,0,0
403470774,2162698,2162698,1114122,0,0,0.10998192,0.109981924,0.0,0.0,2162698,2162698,2228234,0,0,0.0022163207,0.002216321,0.0,0.0,1,1,0,0,1,1,0,0
403673193,2162698,2162698,1114122,0,0,0.18688433,0.18688422,0.0,0.0,2162698,2162698,2228234,0,0,0.004220562,0.0042205625,0.0,0.0,1,1,0,0,1,1,0,0
403871059,2162698,2162698,1114122,0,0,0.051653165,0.051653102,0.0,0.0,2162698,2162698,2228234,0,0,0.0019819567,0.001981957,0.0,0.0,1,1,0,0,1,1,0,0
404068858,2162698,2162698,1114122,0,0,0.18194509,0.18194506,0.0,0.0,2162698,2162698,2228234,0,0,0.004087119,0.0040871194,0.0,0.0,1,1,0,0,1,1,0,0
404271508,2162698,2162698,1114122,0,0,0.10356955,0.10356949,0.0,0.0,2162698,2162698,2228234,0,0,0.0028994745,0.0028994752,0.0,0.0,1,1,0,0,1,1,0,0
404473539,2162698,2162698,1114122,0,0,0.23430248,0.23430236,0.0,0.0,2162698,2162698,2228234,0,0,0.0036190588,0.003619059,0.0,0.0,1,1,0,0,1,1,0,0
404671481,2162698,2162698,1114122,0,0,0.08307595,0.08307595,0.0,0.0,2162698,2162698,2228234,0,0,0.003167174,0.0031671738,0.0,0.0,1,1,0,0,1,1,0,0
404873808,2162698,2162698,1114122,0,0,0.116844125,0.11684415,0.0,0.0,2162698,2162698,2228234,0,0,0.0028662772,0.0028662772,0.0,0.0,1,1,0,0,1,1,0,0
405071664,2162698,2162698,1114122,0,0,0.18482147,0.18482147,0.0,0.0,2162698,2162698,2228234,0,0,0.0033416892,0.003341689,0.0,0.0,1,1,0,0,1,1,0,0
405269769,2162698,2162698,1114122,0,0,0.2427854,0.24278523,0.0,0.0,2162698,2162698,2228234,0,0,0.0037798174,0.0037798185,0.0,0.0,1,1,0,0,1,1,0,0
405471920,2162698,2162698,1114122,0,0,0.04182889,0.04182889,0.0,0.0,2162698,2162698,2228234,0,0,0.0035967622,0.0035967617,0.0,0.0,1,1,0,0,1,1,0,0
405669863,2162698,2162698,1114122,0,0,0.09830774,0.09830773,0.0,0.0,2162698,2162698,2228234,0,0,0.0049149776,0.0049149776,0.0,0.0,1,1,0,0,1,1,0,0
405872070,2162698,2162698,1114122,0,0,0.12629142,0.12629136,0.0,0.0,2162698,2162698,2228234,0,0,0.0029576323,0.0029576318,0.0,0.0,1,1,0,0,1,1,0,0
406069962,2162698,2162698,1114122,0,0,0.17448756,0.17448764,0.0,0.0,2162698,2162698,2228234,0,0,0.0033095095,0.0033095095,0.0,0.0,1,1,0,0,1,1,0,0
406272463,2162698,2162698,1114122,0,0,0.11358678,0.11358682,0.0,0.0,2162698,2162698,2228234,0,0,0.0055033816,0.0055033816,0.0,0.0,1,1,0,0,1,1,0,0
406470213,2162698,2162698,1114122,0,0,0.18599278,0.18599282,0.0,0.0,2162698,2162698,2228234,0,0,0.004419013,0.004419013,0.0,0.0,1,1,0,0,1,1,0,0
406672591,2162698,2162698,1114122,0,0,0.26275367,0.26275367,0.0,0.0,2162698,2162698,2228234,0,0,0.0034826829,0.0034826826,0.0,0.0,1,1,0,0,1,1,0,0
406870456,2162698,2162698,1114122,0,0,0.10326462,0.10326469,0.0,0.0,2162698,2162698,2228234,0,0,0.004298169,0.0042981696,0.0,0.0,1,1,0,0,1,1,0,0
407068270,2162698,2162698,1114122,0,0,0.3896748,0.3896748,0.0,0.0,2162698,2162698,2228234,0,0,0.0028517423,0.0028517412,0.0,0.0,1,1,0,0,1,1,0,0
407270684,2162698,2162698,1114122,0,0,0.106004566,0.10600444,0.0,0.0,2162698,2162698,2228234,0,0,0.005817203,0.005817203,0.0,0.0,1,1,0,0,1,1,0,0
407473038,2162698,2162698,1114122,0,0,0.18249956,0.18249974,0.0,0.0,2162698,2162698,2228234,0,0,0.002125187,0.002125187,0.0,0.0,1,1,0,0,1,1,0,0
407670823,2162698,2162698,1114122,0,0,0.22606808,0.22606802,0.0,0.0,2162698,2162698,2228234,0,0,0.0040662377,0.004066237,0.0,0.0,1,1,0,0,1,1,0,0
407873211,2162698,2162698,1114122,0,0,0.17715327,0.17715316,0.0,0.0,2162698,2162698,2228234,0,0,0.0039409543,0.0039409553,0.0,0.0,1,1,0,0,1,1,0,0
408071122,2162698,2162698,1114122,0,0,0.15796374,0.15796371,0.0,0.0,2162698,2162698,2228234,0,0,0.0038587952,0.0038587952,0.0,0.0,1,1,0,0,1,1,0,0
408269020,2162698,2162698,1114122,0,0,0.15215448,0.15215458,0.0,0.0,2162698,2162698,2228234,0,0,0.0029542348,0.002954235,0.0,0.0,1,1,0,0,1,1,0,0
408471350,2162698,2162698,1114122,0,0,0.12189457,0.121894486,0.0,0.0,2162698,2162698,2228234,0,0,0.0038932757,0.003893276,0.0,0.0,1,1,0,0,1,1,0,0
408673843,2162698,2162698,1114122,0,0,0.14671305,0.14671303,0.0,0.0,2162698,2162698,2228234,0,0,0.004249762,0.0042497623,0.0,0.0,1,1,0,0,1,1,0,0
408871736,2162698,2162698,1114122,0,0,0.15824893,0.15824893,0.0,0.0,2162698,2162698,2228234,0,0,0.0042153667,0.004215366,0.0,0.0,1,1,0,0,1,1,0,0
409073911,2162698,2162698,1114122,0,0,0.20528921,0.20528921,0.0,0.0,2162698,2162698,2228234,0,0,0.0041487385,0.0041487385,0.0,0.0,1,1,0,0,1,1,0,0
409271748,2162698,2162698,1114122,0,0,0.13604857,0.13604869,0.0,0.0,2162698,2162698,2228234,0,0,0.002826774,0.002826774,0.0,0.0,1,1,0,0,1,1,0,0
409469672,2162698,2162698,1114122,0,0,0.060365558,0.060365565,0.0,0.0,2162698,2162698,2228234,0,0,0.0055417907,0.005541791,0.0,0.0,1,1,0,0,1,1,0,0
409671977,2162698,2162698,1114122,0,0,0.19932795,0.1993279,0.0,0.0,2162698,2162698,2228234,0,0,0.0013492119,0.0013492118,0.0,0.0,1,1,0,0,1,1,0,0
409869885,2162698,2162698,1114122,0,0,0.1425654,0.14256547,0.0,0.0,2162698,2162698,2228234,0,0,0.0051732534,0.0051732534,0.0,0.0,1,1,0,0,1,1,0,0
410072216,2162698,2162698,1114122,0,0,0.2892528,0.28925273,0.0,0.0,2162698,2162698,2228234,0,0,0.005038439,0.005038439,0.0,0.0,1,1,0,0,1,1,0,0
410274690,2162698,2162698,1114122,0,0,0.13641714,0.13641712,0.0,0.0,2162698,2162698,2228234,0,0,0.0043053306,0.0043053306,0.0,0.0,1,1,0,0,1,1,0,0
410472456,2162698,2162698,1114122,0,0,0.092286915,0.09228692,0.0,0.0,2162698,2162698,2228234,0,0,0.0037908705,0.0037908703,0.0,0.0,1,1,0,0,1,1,0,0
410670290,2162698,2162698,1114122,0,0,0.056870673,0.05687066,0.0,0.0,2162698,2162698,2228234,0,0,0.0028012067,0.002801207,0.0,0.0,1,1,0,0,1,1,0,0
411070554,2162698,2162698,1114122,0,0,0.15061915,0.15061921,0.0,0.0,2162698,2162698,2228234,0,0,0.002510039,0.0025100391,0.0,0.0,1,1,0,0,1,1,0,0
411268449,2162698,2162698,1114122,0,0,0.4128757,0.4128758,0.0,0.0,2162698,2162698,2228234,0,0,0.0031929293,0.0031929298,0.0,0.0,1,1,0,0,1,1,0,0
411470812,2162698,2162698,1114122,0,0,0.30691046,0.30691043,0.0,0.0,2162698,2162698,2228234,0,0,0.0023637335,0.0023637337,0.0,0.0,1,1,0,0,1,1,0,0
411673136,2162698,2162698,1114122,0,0,0.08474815,0.08474809,0.0,0.0,2162698,2162698,2228234,0,0,0.0031345694,0.0031345692,0.0,0.0,1,1,0,0,1,1,0,0
411870984,2162698,2162698,1114122,0,0,0.083516635,0.0835166,0.0,0.0,2162698,2162698,2228234,0,0,0.0017897477,0.0017897476,0.0,0.0,1,1,0,0,1,1,0,0
412073327,2162698,2162698,1114122,0,0,0.13074818,0.13074826,0.0,0.0,2162698,2162698,2228234,0,0,0.004097881,0.0040978813,0.0,0.0,1,1,0,0,1,1,0,0
412271259,2162698,2162698,1114122,0,0,0.25921023,0.25921008,0.0,0.0,2162698,2162698,2228234,0,0,0.0028263833,0.0028263838,0.0,0.0,1,1,0,0,1,1,0,0
412469050,2162698,2162698,1114122,0,0,0.15797113,0.15797102,0.0,0.0,2162698,2162698,2228234,0,0,0.0030040336,0.003004034,0.0,0.0,1,1,0,0,1,1,0,0
412671410,2162698,2162698,1114122,0,0,0.13336238,0.13336223,0.0,0.0,2162698,2162698,2228234,0,0,0.0021358111,0.0021358114,0.0,0.0,1,1,0,0,1,1,0,0
412873783,2162698,2162698,1114122,0,0,0.10248557,0.10248538,0.0,0.0,2162698,2162698,2228234,0,0,0.0032119846,0.0032119844,0.0,0.0,1,1,0,0,1,1,0,0
413071808,2162698,2162698,1114122,0,0,0.10583911,0.10583921,0.0,0.0,2162698,2162698,2228234,0,0,0.0038691515,0.0038691522,0.0,0.0,1,1,0,0,1,1,0,0
413274063,2162698,2162698,1114122,0,0,0.18188675,0.18188669,0.0,0.0,2162698,2162698,2228234,0,0,0.003885233,0.0038852326,0.0,0.0,1,1,0,0,1,1,0,0
413471858,2162698,2162698,1114122,0,0,0.12401407,0.124013945,0.0,0.0,2162698,2162698,2228234,0,0,0.0029651227,0.0029651225,0.0,0.0,1,1,0,0,1,1,0,0
413669751,2162698,2162698,1114122,0,0,0.034529366,0.03452931,0.0,0.0,2162698,2162698,2228234,0,0,0.0040715532,0.0040715532,0.0,0.0,1,1,0,0,1,1,0,0
413872050,2162698,2162698,1114122,0,0,0.09795549,0.09795544,0.0,0.0,2162698,2162698,2228234,0,0,0.0033095179,0.0033095176,0.0,0.0,1,1,0,0,1,1,0,0
414070065,2162698,2162698,1114122,0,0,0.13303055,0.1330306,0.0,0.0,2162698,2162698,2228234,0,0,0.0042779604,0.0042779604,0.0,0.0,1,1,0,0,1,1,0,0
414272406,2162698,2162698,1114122,0,0,0.0958661,0.09586607,0.0,0.0,2162698,2162698,2228234,0,0,0.0024920518,0.002492052,0.0,0.0,1,1,0,0,1,1,0,0
414470262,2162698,2162698,1114122,0,0,0.14274362,0.14274357,0.0,0.0,2162698,2162698,2228234,0,0,0.0019053856,0.0019053856,0.0,0.0,1,1,0,0,1,1,0,0
414672612,2162698,2162698,1114122,0,0,0.10541103,0.1054111,0.0,0.0,2162698,2162698,2228234,0,0,0.003800683,0.0038006837,0.0,0.0,1,1,0,0,1,1,0,0
414870487,2162698,2162698,1114122,0,0,0.117586076,0.11758612,0.0,0.0,2162698,2162698,2228234,0,0,0.0050690584,0.005069059,0.0,0.0,1,1,0,0,1,1,0,0
415072758,2162698,2162698,1114122,0,0,0.11949891,0.119498886,0.0,0.0,2162698,2162698,2228234,0,0,0.004501037,0.004501037,0.0,0.0,1,1,0,0,1,1,0,0
415270620,2162698,2162698,1114122,0,0,0.06191698,0.06191701,0.0,0.0,2162698,2162698,2228234,0,0,0.003292102,0.0032921014,0.0,0.0,1,1,0,0,1,1,0,0
415468583,2162698,2162698,1114122,0,0,0.06654636,0.06654629,0.0,0.0,2162698,2162698,2228234,0,0,0.0037418366,0.0037418366,0.0,0.0,1,1,0,0,1,1,0,0
415670813,2162698,2162698,1114122,0,0,0.16436823,0.16436824,0.0,0.0,2162698,2162698,2228234,0,0,0.004915068,0.004915068,0.0,0.0,1,1,0,0,1,1,0,0
415873223,2162698,2162698,1114122,0,0,0.13577369,0.1357737,0.0,0.0,2162698,2162698,2228234,0,0,0.0032095916,0.0032095916,0.0,0.0,1,1,0,0,1,1,0,0
416071145,2162698,2162698,1114122,0,0,0.075239465,0.07523943,0.0,0.0,2162698,2162698,2228234,0,0,0.0019126103,0.0019126105,0.0,0.0,1,1,0,0,1,1,0,0
416273477,2162698,2162698,1114122,0,0,0.4534669,0.45346695,0.0,0.0,2162698,2162698,2228234,0,0,0.0037220328,0.003722033,0.0,0.0,1,1,0,0,1,1,0,0
416471296,2162698,2162698,1114122,0,0,0.14734691,0.14734687,0.0,0.0,2162698,2162698,2228234,0,0,0.0026062916,0.0026062916,0.0,0.0,1,1,0,0,1,1,0,0
416669160,2162698,2162698,1114122,0,0,0.20147851,0.2014785,0.0,0.0,2162698,2162698,2228234,0,0,0.0047810636,0.004781064,0.0,0.0,1,1,0,0,1,1,0,0
416871531,2162698,2162698,1114122,0,0,0.19468732,0.19468729,0.0,0.0,2162698,2162698,2228234,0,0,0.002320215,0.0023202153,0.0,0.0,1,1,0,0,1,1,0,0
417073938,2162698,2162698,1114122,0,0,0.10357509,0.103575155,0.0,0.0,2162698,2162698,2228234,0,0,0.005423949,0.005423949,0.0,0.0,1,1,0,0,1,1,0,0
417271955,2162698,2162698,1114122,0,0,0.11240213,0.11240211,0.0,0.0,2162698,2162698,2228234,0,0,0.0017471552,0.0017471554,0.0,0.0,1,1,0,0,1,1,0,0
417474117,2162698,2162698,1114122,0,0,0.22019161,0.22019175,0.0,0.0,2162698,2162698,2228234,0,0,0.0017619723,0.0017619724,0.0,0.0,1,1,0,0,1,1,0,0
417672077,2162698,2162698,1114122,0,0,0.11032759,0.11032765,0.0,0.0,2162698,2162698,2228234,0,0,0.0029965024,0.0029965017,0.0,0.0,1,1,0,0,1,1,0,0
417869885,2162698,2162698,1114122,0,0,0.2944016,0.29440165,0.0,0.0,2162698,2162698,2228234,0,0,0.004375694,0.004375694,0.0,0.0,1,1,0,0,1,1,0,0
418072177,2162698,2162698,1114122,0,0,0.116684176,0.1166842,0.0,0.0,2162698,2162698,2228234,0,0,0.0023658962,0.0023658962,0.0,0.0,1,1,0,0,1,1,0,0
418270155,2162698,2162698,1114122,0,0,0.21299198,0.21299197,0.0,0.0,2162698,2162698,2228234,0,0,0.0053046476,0.005304648,0.0,0.0,1,1,0,0,1,1,0,0
418472445,2162698,2162698,1114122,0,0,0.14861053,0.14861053,0.0,0.0,2162698,2162698,2228234,0,0,0.0017698647,0.0017698649,0.0,0.0,1,1,0,0,1,1,0,0
418670287,2162698,2162698,1114122,0,0,0.27730685,0.27730685,0.0,0.0,2162698,2162698,2228234,0,0,0.0026254407,0.0026254412,0.0,0.0,1,1,0,0,1,1,0,0
418872669,2162698,2162698,1114122,0,0,0.32344383,0.32344377,0.0,0.0,2162698,2162698,2228234,0,0,0.00245483,0.0024548303,0.0,0.0,1,1,0,0,1,1,0,0
419070589,2162698,2162698,1114122,0,0,0.0774056,0.07740559,0.0,0.0,2162698,2162698,2228234,0,0,0.0031849686,0.0031849686,0.0,0.0,1,1,0,0,1,1,0,0
419273027,2162698,2162698,1114122,0,0,0.14570743,0.14570743,0.0,0.0,2162698,2162698,2228234,0,0,0.0029660817,0.0029660822,0.0,0.0,1,1,0,0,1,1,0,0
419470749,2162698,2162698,1114122,0,0,0.85840374,0.8584039,0.0,0.0,2162698,2162698,2228234,0,0,0.019401364,0.01940137,0.0,0.0,1,1,0,0,1,1,0,0
419668611,2162698,2162698,1114122,0,0,0.08459567,0.084595844,0.0,0.0,2162698,2162698,2228234,0,0,0.010734869,0.010734866,0.0,0.0,1,1,0,0,1,1,0,0
419875651,2162698,2162698,1114122,0,0,0.09532143,0.09532145,0.0,0.0,2162698,2162698,2228234,0,0,0.014228526,0.014228516,0.0,0.0,1,1,0,0,1,1,0,0
420073307,2162698,2162698,1114122,0,0,0.20679882,0.20679885,0.0,0.0,2162698,2162698,2228234,0,0,0.009107647,0.009107646,0.0,0.0,1,1,0,0,1,1,0,0
420271332,2162698,2162698,1114122,0,0,0.06207791,0.062078107,0.0,0.0,2162698,2162698,2228234,0,0,0.0013829892,0.001382991,0.0,0.0,1,1,0,0,1,1,0,0
420473692,2162698,2162698,1114122,0,0,0.09161813,0.09161813,0.0,0.0,2162698,2162698,2228234,0,0,0.0017330301,0.0017330302,0.0,0.0,1,1,0,0,1,1,0,0
420671494,2162698,2162698,1114122,0,0,0.11977065,0.11977068,0.0,0.0,2162698,2162698,2228234,0,0,0.0032992302,0.0032992302,0.0,0.0,1,1,0,0,1,1,0,0
420869297,2162698,2162698,1114122,0,0,0.07682065,0.07682068,0.0,0.0,2162698,2162698,2228234,0,0,0.0021907364,0.0021907364,0.0,0.0,1,1,0,0,1,1,0,0
421071786,2162698,2162698,1114122,0,0,0.114162095,0.11416215,0.0,0.0,2162698,2162698,2228234,0,0,0.002098689,0.002098689,0.0,0.0,1,1,0,0,1,1,0,0
421274020,2162698,2162698,1114122,0,0,0.10780376,0.10780382,0.0,0.0,2162698,2162698,2228234,0,0,0.0023368578,0.0023368576,0.0,0.0,1,1,0,0,1,1,0,0
421472012,2162698,2162698,1114122,0,0,0.086104885,0.08610492,0.0,0.0,2162698,2162698,2228234,0,0,0.0032349105,0.003234911,0.0,0.0,1,1,0,0,1,1,0,0
421674265,2162698,2162698,1114122,0,0,0.08004564,0.0800456,0.0,0.0,2162698,2162698,2228234,0,0,0.0020379128,0.0020379133,0.0,0.0,1,1,0,0,1,1,0,0
421872087,2162698,2162698,1114122,0,0,0.090068765,0.090068795,0.0,0.0,2162698,2162698,2228234,0,0,0.001304147,0.001304147,0.0,0.0,1,1,0,0,1,1,0,0
422070084,2162698,2162698,1114122,0,0,0.086103715,0.086103745,0.0,0.0,2162698,2162698,2228234,0,0,0.0027522559,0.0027522556,0.0,0.0,1,1,0,0,1,1,0,0
422272404,2162698,2162698,1114122,0,0,0.10895637,0.10895642,0.0,0.0,2162698,2162698,2228234,0,0,0.0024778864,0.0024778864,0.0,0.0,1,1,0,0,1,1,0,0
422470204,2162698,2162698,1114122,0,0,0.09387332,0.09387332,0.0,0.0,2162698,2162698,2228234,0,0,0.0023498612,0.002349861,0.0,0.0,1,1,0,0,1,1,0,0
422672671,2162698,2162698,1114122,0,0,0.10693234,0.10693232,0.0,0.0,2162698,2162698,2228234,0,0,0.0021849289,0.0021849289,0.0,0.0,1,1,0,0,1,1,0,0
422875039,2162698,2162698,1114122,0,0,0.103333496,0.103333525,0.0,0.0,2162698,2162698,2228234,0,0,0.0015841383,0.001584138,0.0,0.0,1,1,0,0,1,1,0,0
423072890,2162698,2162698,1114122,0,0,0.1122748,0.112274915,0.0,0.0,2162698,2162698,2228234,0,0,0.0021874746,0.0021874742,0.0,0.0,1,1,0,0,1,1,0,0
423270684,2162698,2162698,1114122,0,0,0.095684364,0.09568435,0.0,0.0,2162698,2162698,2228234,0,0,0.0030709382,0.0030709382,0.0,0.0,1,1,0,0,1,1,0,0
423473051,2162698,2162698,1114122,0,0,0.08813651,0.088136494,0.0,0.0,2162698,2162698,2228234,0,0,0.0020071936,0.0020071939,0.0,0.0,1,1,0,0,1,1,0,0
423670918,2162698,2162698,1114122,0,0,0.08336865,0.08336868,0.0,0.0,2162698,2162698,2228234,0,0,0.0024861603,0.0024861603,0.0,0.0,1,1,0,0,1,1,0,0
423868775,2162698,2162698,1114122,0,0,0.09659443,0.09659436,0.0,0.0,2162698,2162698,2228234,0,0,0.0026727503,0.0026727503,0.0,0.0,1,1,0,0,1,1,0,0
424071208,2162698,2162698,1114122,0,0,0.10926448,0.10926447,0.0,0.0,2162698,2162698,2228234,0,0,0.00310036,0.00310036,0.0,0.0,1,1,0,0,1,1,0,0
424273515,2162698,2162698,1114122,0,0,0.081948794,0.08194875,0.0,0.0,2162698,2162698,2228234,0,0,0.0019734146,0.0019734146,0.0,0.0,1,1,0,0,1,1,0,0
424471505,2162698,2162698,1114122,0,0,0.098604865,0.09860481,0.0,0.0,2162698,2162698,2228234,0,0,0.0020651454,0.0020651459,0.0,0.0,1,1,0,0,1,1,0,0
424673778,2162698,2162698,1114122,0,0,0.08736782,0.08736781,0.0,0.0,2162698,2162698,2228234,0,0,0.0026363682,0.0026363682,0.0,0.0,1,1,0,0,1,1,0,0
424871621,2162698,2162698,1114122,0,0,0.088504955,0.088504925,0.0,0.0,2162698,2162698,2228234,0,0,0.0025747109,0.0025747109,0.0,0.0,1,1,0,0,1,1,0,0
425069562,2162698,2162698,1114122,0,0,0.08031082,0.08031088,0.0,0.0,2162698,2162698,2228234,0,0,0.0029235708,0.0029235708,0.0,0.0,1,1,0,0,1,1,0,0
425271873,2162698,2162698,1114122,0,0,0.10232329,0.102323234,0.0,0.0,2162698,2162698,2228234,0,0,0.0019344869,0.0019344868,0.0,0.0,1,1,0,0,1,1,0,0
