timestamp,roll_body,pitch_body,yaw_body,yaw_sp_move_rate,q_d[0],q_d[1],q_d[2],q_d[3],thrust_body[0],thrust_body[1],thrust_body[2],roll_reset_integral,pitch_reset_integral,yaw_reset_integral,fw_control_yaw,apply_flaps
368082403,-0.0,-0.0,-0.06200923,0.0,0.9995194,-0.0,0.0,-0.030999647,0.0,0.0,-0.001,0,0,0,0,0
368117911,-0.0,-0.0,-0.060592234,0.0,0.9995411,-0.0,0.0,-0.030291485,0.0,0.0,-0.001,0,0,0,0,0
368172338,-0.0,-0.0,-0.060501095,0.0,0.9995425,-0.0,0.0,-0.030245936,0.0,0.0,-0.001,0,0,0,0,0
368221548,-0.0,-0.0,-0.06104388,0.0,0.99953425,-0.0,0.0,-0.030517202,0.0,0.0,-0.001,0,0,0,0,0
368271056,-0.0,-0.0,-0.06188055,0.0,0.9995214,-0.0,0.0,-0.030935341,0.0,0.0,-0.001,0,0,0,0,0
368321029,-0.0,-0.0,-0.061137896,0.0,0.9995328,-0.0,0.0,-0.03056419,0.0,0.0,-0.001,0,0,0,0,0
368370110,-0.0,-0.0,-0.060692865,0.0,0.99953955,-0.0,0.0,-0.030341774,0.0,0.0,-0.001,0,0,0,0,0
368419622,-0.0,-0.0,-0.06117569,0.0,0.9995322,-0.0,0.0,-0.030583078,0.0,0.0,-0.001,0,0,0,0,0
368469047,-0.0,-0.0,-0.06175279,0.0,0.99952334,-0.0,0.0,-0.030871486,0.0,0.0,-0.001,0,0,0,0,0
368524272,-0.0,-0.0,-0.06117592,0.0,0.9995322,-0.0,0.0,-0.030583194,0.0,0.0,-0.001,0,0,0,0,0
368572538,-0.0,-0.0,-0.06091027,0.0,0.9995363,-0.0,0.0,-0.03045043,0.0,0.0,-0.001,0,0,0,0,0
368621779,-0.0,-0.0,-0.0612471,0.0,0.99953115,-0.0,0.0,-0.030618766,0.0,0.0,-0.001,0,0,0,0,0
368671136,-0.0,-0.0,-0.06155713,0.0,0.9995264,-0.0,0.0,-0.030773709,0.0,0.0,-0.001,0,0,0,0,0
368720784,-0.0,-0.0,-0.06117341,0.0,0.9995323,-0.0,0.0,-0.030581934,0.0,0.0,-0.001,0,0,0,0,0
368774664,-0.0,-0.0,-0.06093524,0.0,0.9995359,-0.0,0.0,-0.030462906,0.0,0.0,-0.001,0,0,0,0,0
368819390,-0.0,-0.0,-0.061253197,0.0,0.99953103,-0.0,0.0,-0.030621812,0.0,0.0,-0.001,0,0,0,0,0
368869022,-0.0,-0.0,-0.061453044,0.0,0.999528,-0.0,0.0,-0.030721685,0.0,0.0,-0.001,0,0,0,0,0
368918164,-0.0,-0.0,-0.061136413,0.0,0.9995328,-0.0,0.0,-0.030563448,0.0,0.0,-0.001,0,0,0,0,0
368972494,-0.0,-0.0,-0.060968895,0.0,0.9995354,-0.0,0.0,-0.030479727,0.0,0.0,-0.001,0,0,0,0,0
369022062,-0.0,-0.0,-0.061178632,0.0,0.99953216,-0.0,0.0,-0.030584546,0.0,0.0,-0.001,0,0,0,0,0
369071574,-0.0,-0.0,-0.06130514,0.0,0.99953026,-0.0,0.0,-0.030647768,0.0,0.0,-0.001,0,0,0,0,0
369120983,-0.0,-0.0,-0.061111845,0.0,0.9995332,-0.0,0.0,-0.030551167,0.0,0.0,-0.001,0,0,0,0,0
369170347,-0.0,-0.0,-0.06093457,0.0,0.9995359,-0.0,0.0,-0.030462572,0.0,0.0,-0.001,0,0,0,0,0
369220349,-0.0,-0.0,-0.06107862,0.0,0.9995337,-0.0,0.0,-0.03053456,0.0,0.0,-0.001,0,0,0,0,0
369269177,-0.0,-0.0,-0.061153848,0.0,0.9995326,-0.0,0.0,-0.03057216,0.0,0.0,-0.001,0,0,0,0,0
369318407,-0.0,-0.0,-0.061065894,0.0,0.9995339,-0.0,0.0,-0.030528205,0.0,0.0,-0.001,0,0,0,0,0
369368093,-0.0,-0.0,-0.06097475,0.0,0.9995353,-0.0,0.0,-0.030482655,0.0,0.0,-0.001,0,0,0,0,0
369422116,-0.0,-0.0,-0.06108263,0.0,0.99953365,-0.0,0.0,-0.030536568,0.0,0.0,-0.001,0,0,0,0,0
369471281,-0.0,-0.0,-0.061163936,0.0,0.9995324,-0.0,0.0,-0.0305772,0.0,0.0,-0.001,0,0,0,0,0
369521055,-0.0,-0.0,-0.06108437,0.0,0.99953365,-0.0,0.0,-0.030537441,0.0,0.0,-0.001,0,0,0,0,0
369570229,-0.0,-0.0,-0.060995895,0.0,0.99953496,-0.0,0.0,-0.03049322,0.0,0.0,-0.001,0,0,0,0,0
369619747,-0.0,-0.0,-0.061048504,0.0,0.9995342,-0.0,0.0,-0.030519512,0.0,0.0,-0.001,0,0,0,0,0
369669705,-0.0,-0.0,-0.061074898,0.0,0.9995338,-0.0,0.0,-0.030532703,0.0,0.0,-0.001,0,0,0,0,0
369719149,-0.0,-0.0,-0.060988422,0.0,0.9995351,-0.0,0.0,-0.03048949,0.0,0.0,-0.001,0,0,0,0,0
369768515,-0.0,-0.0,-0.060929786,0.0,0.999536,-0.0,0.0,-0.030460184,0.0,0.0,-0.001,0,0,0,0,0
369822515,-0.0,-0.0,-0.06091762,0.0,0.99953616,-0.0,0.0,-0.030454101,0.0,0.0,-0.001,0,0,0,0,0
369871908,-0.0,-0.0,-0.060931724,0.0,0.999536,-0.0,0.0,-0.030461151,0.0,0.0,-0.001,0,0,0,0,0
369921225,-0.0,-0.0,-0.060818363,0.0,0.99953765,-0.0,0.0,-0.030404495,0.0,0.0,-0.001,0,0,0,0,0
369970427,-0.0,-0.0,-0.06076025,0.0,0.9995386,-0.0,0.0,-0.030375453,0.0,0.0,-0.001,0,0,0,0,0
370025665,-0.0,-0.0,-0.06082073,0.0,0.99953765,-0.0,0.0,-0.030405676,0.0,0.0,-0.001,0,0,0,0,0
370069451,-0.0,-0.0,-0.060823727,0.0,0.9995376,-0.0,0.0,-0.030407177,0.0,0.0,-0.001,0,0,0,0,0
370118892,-0.0,-0.0,-0.060681384,0.0,0.99953973,-0.0,0.0,-0.030336041,0.0,0.0,-0.001,0,0,0,0,0
370168621,-0.0,-0.0,-0.0606325,0.0,0.9995405,-0.0,0.0,-0.030311607,0.0,0.0,-0.001,0,0,0,0,0
370217956,-0.0,-0.0,-0.060732424,0.0,0.99953896,-0.0,0.0,-0.030361546,0.0,0.0,-0.001,0,0,0,0,0
370271887,-0.0,-0.0,-0.060711917,0.0,0.9995393,-0.0,0.0,-0.030351294,0.0,0.0,-0.001,0,0,0,0,0
370321433,-0.0,-0.0,-0.06052763,0.0,0.99954206,-0.0,0.0,-0.030259196,0.0,0.0,-0.001,0,0,0,0,0
370370966,-0.0,-0.0,-0.060530275,0.0,0.99954206,-0.0,0.0,-0.030260514,0.0,0.0,-0.001,0,0,0,0,0
370420534,-0.0,-0.0,-0.06068798,0.0,0.9995397,-0.0,0.0,-0.030339332,0.0,0.0,-0.001,0,0,0,0,0
370469969,-0.0,-0.0,-0.06072163,0.0,0.99953914,-0.0,0.0,-0.030356152,0.0,0.0,-0.001,0,0,0,0,0
370519137,-0.0,-0.0,-0.06067321,0.0,0.99953985,-0.0,0.0,-0.030331954,0.0,0.0,-0.001,0,0,0,0,0
370568739,-0.0,-0.0,-0.06071412,0.0,0.99953926,-0.0,0.0,-0.030352399,0.0,0.0,-0.001,0,0,0,0,0
370622929,-0.0,-0.0,-0.060814194,0.0,0.99953777,-0.0,0.0,-0.030402413,0.0,0.0,-0.001,0,0,0,0,0
370672219,-0.0,-0.0,-0.06092876,0.0,0.99953604,-0.0,0.0,-0.03045967,0.0,0.0,-0.001,0,0,0,0,0
370721568,-0.0,-0.0,-0.060873438,0.0,0.9995368,-0.0,0.0,-0.03043202,0.0,0.0,-0.001,0,0,0,0,0
370771038,-0.0,-0.0,-0.060834333,0.0,0.9995374,-0.0,0.0,-0.030412477,0.0,0.0,-0.001,0,0,0,0,0
370820755,-0.0,-0.0,-0.06094596,0.0,0.99953574,-0.0,0.0,-0.030468265,0.0,0.0,-0.001,0,0,0,0,0
370870227,-0.0,-0.0,-0.060990445,0.0,0.9995351,-0.0,0.0,-0.0304905,0.0,0.0,-0.001,0,0,0,0,0
370919625,-0.0,-0.0,-0.06089721,0.0,0.99953645,-0.0,0.0,-0.0304439,0.0,0.0,-0.001,0,0,0,0,0
370969136,-0.0,-0.0,-0.06086416,0.0,0.999537,-0.0,0.0,-0.030427387,0.0,0.0,-0.001,0,0,0,0,0
371018529,-0.0,-0.0,-0.061011236,0.0,0.9995347,-0.0,0.0,-0.030500887,0.0,0.0,-0.001,0,0,0,0,0
371073070,-0.0,-0.0,-0.061041106,0.0,0.9995343,-0.0,0.0,-0.030515812,0.0,0.0,-0.001,0,0,0,0,0
371122407,-0.0,-0.0,-0.060920604,0.0,0.9995361,-0.0,0.0,-0.030455593,0.0,0.0,-0.001,0,0,0,0,0
371171353,-0.0,-0.0,-0.060898628,0.0,0.99953645,-0.0,0.0,-0.03044461,0.0,0.0,-0.001,0,0,0,0,0
371220741,-0.0,-0.0,-0.060956035,0.0,0.99953556,-0.0,0.0,-0.030473301,0.0,0.0,-0.001,0,0,0,0,0
371270035,-0.0,-0.0,-0.060916416,0.0,0.99953616,-0.0,0.0,-0.030453501,0.0,0.0,-0.001,0,0,0,0,0
371319638,-0.0,-0.0,-0.060836036,0.0,0.9995374,-0.0,0.0,-0.030413326,0.0,0.0,-0.001,0,0,0,0,0
371369203,-0.0,-0.0,-0.06072742,0.0,0.9995391,-0.0,0.0,-0.030359043,0.0,0.0,-0.001,0,0,0,0,0
371418368,-0.0,-0.0,-0.06077723,0.0,0.9995383,-0.0,0.0,-0.030383939,0.0,0.0,-0.001,0,0,0,0,0
371468059,-0.0,-0.0,-0.060805593,0.0,0.9995379,-0.0,0.0,-0.03039811,0.0,0.0,-0.001,0,0,0,0,0
371522252,-0.0,-0.0,-0.060770005,0.0,0.9995384,-0.0,0.0,-0.030380331,0.0,0.0,-0.001,0,0,0,0,0
371572090,-0.0,-0.0,-0.060788773,0.0,0.9995381,-0.0,0.0,-0.030389708,0.0,0.0,-0.001,0,0,0,0,0
371621233,-0.0,-0.0,-0.060984466,0.0,0.99953514,-0.0,0.0,-0.030487508,0.0,0.0,-0.001,0,0,0,0,0
371670627,-0.0,-0.0,-0.06105537,0.0,0.9995341,-0.0,0.0,-0.030522944,0.0,0.0,-0.001,0,0,0,0,0
371720103,-0.0,-0.0,-0.0609312,0.0,0.999536,-0.0,0.0,-0.030460885,0.0,0.0,-0.001,0,0,0,0,0
371769088,-0.0,-0.0,-0.060887903,0.0,0.99953663,-0.0,0.0,-0.030439248,0.0,0.0,-0.001,0,0,0,0,0
371824529,-0.0,-0.0,-0.061141077,0.0,0.99953276,-0.0,0.0,-0.030565776,0.0,0.0,-0.001,0,0,0,0,0
371872949,-0.0,-0.0,-0.061150856,0.0,0.9995326,-0.0,0.0,-0.030570667,0.0,0.0,-0.001,0,0,0,0,0
371922206,-0.0,-0.0,-0.061093993,0.0,0.9995335,-0.0,0.0,-0.030542247,0.0,0.0,-0.001,0,0,0,0,0
371971564,-0.0,-0.0,-0.0611516,0.0,0.99953264,-0.0,0.0,-0.030571036,0.0,0.0,-0.001,0,0,0,0,0
372021372,-0.0,-0.0,-0.0612548,0.0,0.99953103,-0.0,0.0,-0.03062261,0.0,0.0,-0.001,0,0,0,0,0
372070486,-0.0,-0.0,-0.06121163,0.0,0.9995317,-0.0,0.0,-0.030601036,0.0,0.0,-0.001,0,0,0,0,0
372120652,-0.0,-0.0,-0.06108363,0.0,0.99953365,-0.0,0.0,-0.030537067,0.0,0.0,-0.001,0,0,0,0,0
372169625,-0.0,-0.0,-0.061077025,0.0,0.9995337,-0.0,0.0,-0.030533765,0.0,0.0,-0.001,0,0,0,0,0
372219241,-0.0,-0.0,-0.061179973,0.0,0.99953216,-0.0,0.0,-0.030585218,0.0,0.0,-0.001,0,0,0,0,0
372268678,-0.0,-0.0,-0.06110914,0.0,0.99953324,-0.0,0.0,-0.030549817,0.0,0.0,-0.001,0,0,0,0,0
372322643,-0.0,-0.0,-0.06118852,0.0,0.99953204,-0.0,0.0,-0.030589486,0.0,0.0,-0.001,0,0,0,0,0
372372130,-0.0,-0.0,-0.061264377,0.0,0.99953085,-0.0,0.0,-0.0306274,0.0,0.0,-0.001,0,0,0,0,0
372416852,-0.0,-0.0,-0.061224766,0.0,0.9995315,-0.0,0.0,-0.030607605,0.0,0.0,-0.001,0,0,0,0,0
372470987,-0.0,-0.0,-0.061168414,0.0,0.99953234,-0.0,0.0,-0.030579438,0.0,0.0,-0.001,0,0,0,0,0
372520582,-0.0,-0.0,-0.06119506,0.0,0.9995319,-0.0,0.0,-0.030592754,0.0,0.0,-0.001,0,0,0,0,0
372569748,-0.0,-0.0,-0.06133542,0.0,0.9995298,-0.0,0.0,-0.030662902,0.0,0.0,-0.001,0,0,0,0,0
372619006,-0.0,-0.0,-0.061282527,0.0,0.9995306,-0.0,0.0,-0.030636467,0.0,0.0,-0.001,0,0,0,0,0
372668643,-0.0,-0.0,-0.061118595,0.0,0.9995331,-0.0,0.0,-0.030554542,0.0,0.0,-0.001,0,0,0,0,0
372717922,-0.0,-0.0,-0.061163988,0.0,0.9995324,-0.0,0.0,-0.030577226,0.0,0.0,-0.001,0,0,0,0,0
372772361,-0.0,-0.0,-0.061153267,0.0,0.9995326,-0.0,0.0,-0.030571869,0.0,0.0,-0.001,0,0,0,0,0
372821773,-0.0,-0.0,-0.061044235,0.0,0.99953425,-0.0,0.0,-0.030517383,0.0,0.0,-0.001,0,0,0,0,0
372871140,-0.0,-0.0,-0.060956493,0.0,0.99953556,-0.0,0.0,-0.03047353,0.0,0.0,-0.001,0,0,0,0,0
372921361,-0.0,-0.0,-0.06101131,0.0,0.9995347,-0.0,0.0,-0.030500926,0.0,0.0,-0.001,0,0,0,0,0
372970213,-0.0,-0.0,-0.060993414,0.0,0.999535,-0.0,0.0,-0.030491982,0.0,0.0,-0.001,0,0,0,0,0
373025274,-0.0,-0.0,-0.060806975,0.0,0.9995378,-0.0,0.0,-0.030398807,0.0,0.0,-0.001,0,0,0,0,0
373073333,-0.0,-0.0,-0.060780983,0.0,0.99953824,-0.0,0.0,-0.030385816,0.0,0.0,-0.001,0,0,0,0,0
373122695,-0.0,-0.0,-0.060964994,0.0,0.99953544,-0.0,0.0,-0.03047778,0.0,0.0,-0.001,0,0,0,0,0
373172359,-0.0,-0.0,-0.06097972,0.0,0.99953526,-0.0,0.0,-0.030485138,0.0,0.0,-0.001,0,0,0,0,0
373221734,-0.0,-0.0,-0.06086981,0.0,0.9995369,-0.0,0.0,-0.030430209,0.0,0.0,-0.001,0,0,0,0,0
373271248,-0.0,-0.0,-0.060849555,0.0,0.9995372,-0.0,0.0,-0.030420087,0.0,0.0,-0.001,0,0,0,0,0
373320666,-0.0,-0.0,-0.06100557,0.0,0.99953485,-0.0,0.0,-0.030498056,0.0,0.0,-0.001,0,0,0,0,0
373369975,-0.0,-0.0,-0.061002653,0.0,0.99953485,-0.0,0.0,-0.0304966,0.0,0.0,-0.001,0,0,0,0,0
373419871,-0.0,-0.0,-0.06087585,0.0,0.9995368,-0.0,0.0,-0.030433225,0.0,0.0,-0.001,0,0,0,0,0
373469667,-0.0,-0.0,-0.060890935,0.0,0.9995366,-0.0,0.0,-0.030440763,0.0,0.0,-0.001,0,0,0,0,0
373523602,-0.0,-0.0,-0.060914923,0.0,0.9995362,-0.0,0.0,-0.030452752,0.0,0.0,-0.001,0,0,0,0,0
373568204,-0.0,-0.0,-0.060960338,0.0,0.9995355,-0.0,0.0,-0.030475449,0.0,0.0,-0.001,0,0,0,0,0
373622256,-0.0,-0.0,-0.060646005,0.0,0.99954027,-0.0,0.0,-0.030318357,0.0,0.0,-0.001,0,0,0,0,0
373671261,-0.0,-0.0,-0.060631078,0.0,0.9995405,-0.0,0.0,-0.030310895,0.0,0.0,-0.001,0,0,0,0,0
373720933,-0.0,-0.0,-0.06069603,0.0,0.99953955,-0.0,0.0,-0.030343354,0.0,0.0,-0.001,0,0,0,0,0
373770346,-0.0,-0.0,-0.060638327,0.0,0.99954045,-0.0,0.0,-0.030314522,0.0,0.0,-0.001,0,0,0,0,0
373819771,-0.0,-0.0,-0.060505353,0.0,0.9995424,-0.0,0.0,-0.03024806,0.0,0.0,-0.001,0,0,0,0,0
373869061,-0.0,-0.0,-0.0604853,0.0,0.9995427,-0.0,0.0,-0.030238042,0.0,0.0,-0.001,0,0,0,0,0
373918776,-0.0,-0.0,-0.06057049,0.0,0.99954146,-0.0,0.0,-0.030280616,0.0,0.0,-0.001,0,0,0,0,0
373972586,-0.0,-0.0,-0.060639475,0.0,0.9995404,-0.0,0.0,-0.030315094,0.0,0.0,-0.001,0,0,0,0,0
374022135,-0.0,-0.0,-0.060570367,0.0,0.99954146,-0.0,0.0,-0.030280553,0.0,0.0,-0.001,0,0,0,0,0
374071798,-0.0,-0.0,-0.060607113,0.0,0.99954087,-0.0,0.0,-0.030298917,0.0,0.0,-0.001,0,0,0,0,0
374121268,-0.0,-0.0,-0.060654793,0.0,0.99954015,-0.0,0.0,-0.030322747,0.0,0.0,-0.001,0,0,0,0,0
374170872,-0.0,-0.0,-0.060655065,0.0,0.99954015,-0.0,0.0,-0.030322887,0.0,0.0,-0.001,0,0,0,0,0
374220072,-0.0,-0.0,-0.060612895,0.0,0.9995408,-0.0,0.0,-0.030301813,0.0,0.0,-0.001,0,0,0,0,0
374274145,-0.0,-0.0,-0.060538914,0.0,0.99954194,-0.0,0.0,-0.030264836,0.0,0.0,-0.001,0,0,0,0,0
374318886,-0.0,-0.0,-0.0605202,0.0,0.99954224,-0.0,0.0,-0.030255485,0.0,0.0,-0.001,0,0,0,0,0
374368584,-0.0,-0.0,-0.0605495,0.0,0.99954176,-0.0,0.0,-0.030270126,0.0,0.0,-0.001,0,0,0,0,0
374422543,-0.0,-0.0,-0.060573664,0.0,0.9995414,-0.0,0.0,-0.030282201,0.0,0.0,-0.001,0,0,0,0,0
374467414,-0.0,-0.0,-0.060573507,0.0,0.9995414,-0.0,0.0,-0.030282127,0.0,0.0,-0.001,0,0,0,0,0
374521473,0.014914137,-0.023730395,-0.060469627,0.0,0.99944746,0.007094398,-0.012084577,-0.030138807,0.0,0.0,-0.008948996,0,0,0,0,0
374570563,0.012617823,-0.018187314,-0.060469624,0.0,0.9994835,0.006030831,-0.009279906,-0.030171013,0.0,0.0,-0.016295029,0,0,0,0,0
374620834,0.0070275017,-0.009497971,-0.060469627,0.0,0.999526,0.0033685367,-0.004852988,-0.030213006,0.0,0.0,-0.024442395,0,0,0,0,0
374669990,0.0029495389,-0.005039271,-0.060469624,0.0,0.99953884,0.0013979212,-0.0025630607,-0.030226363,0.0,0.0,-0.032221198,0,0,0,0,0
374719371,0.0033646123,-0.0054595647,-0.060469624,0.0,0.99953794,0.0015990086,-0.0027793837,-0.030225463,0.0,0.0,-0.03977854,0,0,0,0,0
374768872,0.0043042987,-0.0049021468,-0.060469627,0.0,0.9995378,0.002077061,-0.0025150047,-0.030224778,0.0,0.0,-0.049457014,0,0,0,0,0
374822849,0.0030778993,-0.002429933,-0.060469627,0.0,0.9995411,0.0015015157,-0.0012609321,-0.030228281,0.0,0.0,-0.058105182,0,0,0,0,0
374872341,0.0032608751,-0.0037474155,-0.060469627,0.0,0.99954,0.0015730463,-0.0019221362,-0.030227065,0.0,0.0,-0.06404736,0,0,0,0,0
374921492,0.0024861542,-0.0022680266,-0.060469627,0.0,0.9995416,0.0012082263,-0.0011710724,-0.030228756,0.0,0.0,-0.07581266,0,0,0,0,0
374970902,0.0014482648,-0.0014812385,-0.060469627,0.0,0.9995425,0.0007014121,-0.0007621711,-0.030229656,0.0,0.0,-0.0882559,0,0,0,0,0
375020482,0.0016468716,-0.0028313722,-0.060469627,0.0,0.99954164,0.0007802621,-0.0014399309,-0.030229006,0.0,0.0,-0.1008806,0,0,0,0,0
375069745,0.0035617372,-0.0025036698,-0.060469624,0.0,0.9995407,0.0017422093,-0.0013050965,-0.030227907,0.0,0.0,-0.111195065,0,0,0,0,0
375119240,-0.0012566673,-0.0011836474,-0.06046963,0.0,0.9995426,-0.0006459373,-0.0005725585,-0.03023057,0.0,0.0,-0.120197095,0,0,0,0,0
375168668,-0.00434221,0.0022063407,-0.06046963,0.0,0.9995401,-0.0021367609,0.0011682962,-0.030227728,0.0,0.0,-0.13217884,0,0,0,0,0
375218109,0.007372513,-0.006853879,-0.060469627,0.0,0.9995307,0.0035809458,-0.003536779,-0.0302172,0.0,0.0,-0.1460976,0,0,0,0,0
375272247,-0.007875984,0.005455398,-0.060469627,0.0,0.99953187,-0.003853709,0.0028454734,-0.030219125,0.0,0.0,-0.15975654,0,0,0,0,0
375321828,0.007119089,-0.0055011585,-0.060469627,0.0,0.9995332,0.0034747466,-0.002856906,-0.030220116,0.0,0.0,-0.17219737,0,0,0,0,0
375371490,-0.009243903,0.0048116073,-0.060469624,0.0,0.9995297,-0.0045470814,0.0025443977,-0.030218683,0.0,0.0,-0.18534361,0,0,0,0,0
375420860,-0.0038832484,-0.007536865,-0.060469627,0.0,0.9995338,-0.002054642,-0.0037079987,-0.030237252,0.0,0.0,-0.19844691,0,0,0,0,0
375470420,-0.0011133506,0.0002678667,-0.060469627,0.0,0.99954283,-0.000552372,0.00015070052,-0.030230131,0.0,0.0,-0.21507324,0,0,0,0,0
375519404,-0.0069678756,0.004830395,-0.060469627,0.0,0.99953425,-0.0034093168,0.0025193964,-0.030221527,0.0,0.0,-0.2354836,0,0,0,0,0
375568881,-0.009111657,-0.008860623,-0.06046963,0.0,0.9995222,-0.004687613,-0.0042905044,-0.030249774,0.0,0.0,-0.24649757,0,0,0,0,0
375618475,-0.007971429,-0.005213046,-0.060469627,0.0,0.9995313,-0.004062664,-0.0024848194,-0.030240249,0.0,0.0,-0.26384103,0,0,0,0,0
375667979,-0.009059425,-0.0011721632,-0.060469627,0.0,0.99953246,-0.004545343,-0.00044887402,-0.03023255,0.0,0.0,-0.28264394,0,0,0,0,0
375722202,-0.007875723,-0.005278073,-0.06046963,0.0,0.99953145,-0.0040158154,-0.0025187647,-0.030240256,0.0,0.0,-0.30139935,0,0,0,0,0
375771487,-0.0066667027,-0.0029331848,-0.06046963,0.0,0.9995362,-0.003376153,-0.0013651458,-0.030234896,0.0,0.0,-0.31513518,0,0,0,0,0
375821640,-0.0021414238,-0.0046003913,-0.06046963,0.0,0.9995397,-0.0011397547,-0.0022667728,-0.030232575,0.0,0.0,-0.32939565,0,0,0,0,0
375870918,0.0021555324,-0.0047217663,-0.060469627,0.0,0.9995397,0.0010059006,-0.0023923814,-0.030227564,0.0,0.0,-0.34866536,0,0,0,0,0
375919903,0.0001268585,-0.0029874088,-0.060469627,0.0,0.9995419,1.824522e-05,-0.0014949386,-0.030230083,0.0,0.0,-0.36972195,0,0,0,0,0
375969433,0.0010716043,-0.0042055645,-0.060469627,0.0,0.9995407,0.0004719886,-0.0021180168,-0.030229015,0.0,0.0,-0.38123226,0,0,0,0,0
376018823,-0.0021191004,-0.004825482,-0.06046963,0.0,0.99953943,-0.0011320002,-0.0023796044,-0.030232659,0.0,0.0,-0.37939903,0,0,0,0,0
376068397,0.007291996,-0.0017925174,-0.060469627,0.0,0.99953604,0.003617228,-0.001006062,-0.030226732,0.0,0.0,-0.39479902,0,0,0,0,0
376123111,-0.0012941972,-0.0055237375,-0.060469627,0.0,0.9995389,-0.000730292,-0.0027410404,-0.030231873,0.0,0.0,-0.38803598,0,0,0,0,0
376171608,0.008869111,-0.0060412874,-0.060469627,0.0,0.999529,0.00434118,-0.0031532852,-0.030216387,0.0,0.0,-0.36277774,0,0,0,0,0
376221032,0.006721068,-0.0074459095,-0.060469627,0.0,0.9995308,0.0032464238,-0.0038228123,-0.030217323,0.0,0.0,-0.34050485,0,0,0,0,0
376270590,0.0015596407,-0.009145345,-0.060469627,0.0,0.99953234,0.00064122345,-0.004594139,-0.03022632,0.0,0.0,-0.32413772,0,0,0,0,0
376320297,0.0038323458,-0.005702661,-0.060469627,0.0,0.9995372,0.001829092,-0.0029079444,-0.030224573,0.0,0.0,-0.31239992,0,0,0,0,0
376369281,0.007914447,-0.008130828,-0.06046963,0.0,0.9995274,0.0038324746,-0.004183139,-0.030213641,0.0,0.0,-0.3102887,0,0,0,0,0
376418770,0.012304309,-0.010726067,-0.060469627,0.0,0.99951065,0.005987094,-0.0055464325,-0.030196223,0.0,0.0,-0.31142077,0,0,0,0,0
376468371,0.0050180047,-0.008546901,-0.060469624,0.0,0.99953103,0.0023786435,-0.004347318,-0.030219117,0.0,0.0,-0.31817526,0,0,0,0,0
376522415,0.004771439,-0.015682442,-0.06046963,0.0,0.99950993,0.0021475148,-0.007909654,-0.030210495,0.0,0.0,-0.32003027,0,0,0,0,0
376572034,0.008747708,-0.01261126,-0.060469624,0.0,0.9995144,0.0041811364,-0.006434865,-0.03020175,0.0,0.0,-0.32146084,0,0,0,0,0
376621854,0.0038987482,-0.014532158,-0.06046963,0.0,0.9995151,0.0017287775,-0.007321608,-0.030215196,0.0,0.0,-0.31484073,0,0,0,0,0
376670817,0.011260799,-0.023912873,-0.060469624,0.0,0.9994577,0.005265963,-0.012120693,-0.03016028,0.0,0.0,-0.31076887,0,0,0,0,0
376721026,0.014862103,-0.022951355,-0.060469627,0.0,0.9994521,0.0070802034,-0.01169449,-0.030142153,0.0,0.0,-0.30863577,0,0,0,0,0
376770215,0.00934677,-0.016345784,-0.060469627,0.0,0.99949986,0.004424013,-0.008310248,-0.030190693,0.0,0.0,-0.3146266,0,0,0,0,0
376819086,0.009786791,-0.020950183,-0.060469627,0.0,0.99947774,0.004574217,-0.010617906,-0.030176952,0.0,0.0,-0.31615847,0,0,0,0,0
376873068,0.01421462,-0.027979745,-0.060469627,0.0,0.9994229,0.0066804145,-0.014197502,-0.030127106,0.0,0.0,-0.31844485,0,0,0,0,0
376922495,0.013026813,-0.017116891,-0.060469627,0.0,0.99948686,0.0062514297,-0.008751141,-0.030172745,0.0,0.0,-0.32445878,0,0,0,0,0
376971989,0.016252147,-0.017705712,-0.060469627,0.0,0.999473,0.00785434,-0.009094043,-0.03015612,0.0,0.0,-0.32941473,0,0,0,0,0
377021484,0.024578217,-0.027146934,-0.060469627,0.0,0.99938047,0.011871767,-0.013937281,-0.030058416,0.0,0.0,-0.32121176,0,0,0,0,0
377070749,0.025592174,-0.027035715,-0.060469627,0.0,0.99937505,0.012380119,-0.013896944,-0.030052088,0.0,0.0,-0.310055,0,0,0,0,0
377120439,0.020996753,-0.021049567,-0.060469624,0.0,0.99943584,0.010174661,-0.0108365435,-0.030116424,0.0,0.0,-0.3043542,0,0,0,0,0
377170201,0.02075796,-0.02405452,-0.060469627,0.0,0.9994206,0.010009742,-0.012334556,-0.030101622,0.0,0.0,-0.30514184,0,0,0,0,0
377219917,0.017670147,-0.022956345,-0.060469627,0.0,0.9994412,0.008483371,-0.011739291,-0.030125676,0.0,0.0,-0.31006423,0,0,0,0,0
377268998,0.011850874,-0.0213265,-0.06046963,0.0,0.9994705,0.0056000175,-0.010837103,-0.030164806,0.0,0.0,-0.31112197,0,0,0,0,0
377318422,0.012095762,-0.02124478,-0.06046963,0.0,0.99947023,0.0057236333,-0.010799957,-0.030163739,0.0,0.0,-0.3169835,0,0,0,0,0
377372489,0.017249377,-0.019303074,-0.060469627,0.0,0.99946177,0.008328485,-0.009907327,-0.030144474,0.0,0.0,-0.3282526,0,0,0,0,0
377422001,0.016114933,-0.022293964,-0.060469627,0.0,0.9994511,0.0077162394,-0.011384858,-0.030137574,0.0,0.0,-0.3285626,0,0,0,0,0
377471183,0.017751047,-0.028400892,-0.060469627,0.0,0.99940664,0.008441206,-0.014461198,-0.030099995,0.0,0.0,-0.32416067,0,0,0,0,0
377520577,0.01782598,-0.019993028,-0.060469627,0.0,0.99945605,0.008606173,-0.0102608055,-0.030138437,0.0,0.0,-0.32754844,0,0,0,0,0
377570083,0.014506231,-0.021452067,-0.060469627,0.0,0.99946153,0.0069250837,-0.010939892,-0.03014991,0.0,0.0,-0.32786638,0,0,0,0,0
377619677,0.020768238,-0.026309574,-0.06046963,0.0,0.9994067,0.009980651,-0.013461569,-0.03008943,0.0,0.0,-0.32998347,0,0,0,0,0
377660594,0.012551112,-0.025953237,-0.06046963,0.0,0.99944156,0.005879851,-0.013159762,-0.030145673,0.0,0.0,-0.3245988,0,0,0,0,0
377718571,0.016878705,-0.020706985,-0.060469627,0.0,0.99945647,0.008121972,-0.010603314,-0.030140175,0.0,0.0,-0.32583562,0,0,0,0,0
377767908,0.011812798,-0.027520387,-0.06046963,0.0,0.99943334,0.005487153,-0.013931764,-0.030145587,0.0,0.0,-0.32533824,0,0,0,0,0
377821926,0.011945741,-0.020514578,-0.060469627,0.0,0.99947447,0.0056597227,-0.010432789,-0.030166842,0.0,0.0,-0.32807156,0,0,0,0,0
377871570,0.0061297035,-0.025629457,-0.060469627,0.0,0.9994574,0.002675815,-0.012901103,-0.030188326,0.0,0.0,-0.3474153,0,0,0,0,0
377921026,0.008810766,-0.03053557,-0.06046963,0.0,0.99941885,0.0039413166,-0.015393225,-0.030159168,0.0,0.0,-0.36902252,0,0,0,0,0
377966110,0.0037362247,-0.03186887,-0.060469627,0.0,0.9994152,0.0013853402,-0.015982917,-0.030196566,0.0,0.0,-0.37025762,0,0,0,0,0
378019866,-0.0017473157,-0.023992032,-0.060469627,0.0,0.9994704,-0.0012358287,-0.01196383,-0.030238502,0.0,0.0,-0.3486348,0,0,0,0,0
378069493,-0.00011215131,-0.03043934,-0.060469627,0.0,0.99942714,-0.00051611953,-0.015210431,-0.03022756,0.0,0.0,-0.3108335,0,0,0,0,0
378118767,-0.0022416995,-0.027727485,-0.06046963,0.0,0.9994458,-0.0015393199,-0.013823073,-0.030242817,0.0,0.0,-0.30997896,0,0,0,0,0
378172766,-0.002222328,-0.027295694,-0.06046963,0.0,0.9994488,-0.0015231168,-0.01360759,-0.030242536,0.0,0.0,-0.3123556,0,0,0,0,0
378222274,-0.007572906,-0.028194934,-0.060469627,0.0,0.9994349,-0.0042104893,-0.013976002,-0.03028034,0.0,0.0,-0.33968806,0,0,0,0,0
378271413,-0.0055333627,-0.024098223,-0.06046963,0.0,0.9994656,-0.0031294497,-0.011959636,-0.030261219,0.0,0.0,-0.35205296,0,0,0,0,0
378320996,-0.00938236,-0.024401939,-0.06046963,0.0,0.99945587,-0.0050574946,-0.012053152,-0.030284835,0.0,0.0,-0.3302925,0,0,0,0,0
378370466,-0.01440319,-0.02944112,-0.06046963,0.0,0.99940556,-0.00764244,-0.014495238,-0.030332109,0.0,0.0,-0.311443,0,0,0,0,0
378419921,-0.0118507305,-0.018619487,-0.060469627,0.0,0.9994805,-0.0062037925,-0.009126073,-0.030283505,0.0,0.0,-0.31318018,0,0,0,0,0
378469444,-0.014196143,-0.018337648,-0.06046963,0.0,0.9994738,-0.007371634,-0.008949708,-0.030293226,0.0,0.0,-0.31902632,0,0,0,0,0
378518992,-0.012257269,-0.021239204,-0.06046963,0.0,0.9994659,-0.00644647,-0.010429092,-0.03029299,0.0,0.0,-0.31991735,0,0,0,0,0
378568598,-0.0037015195,-0.019249005,-0.060469627,0.0,0.99949443,-0.0021407728,-0.009563994,-0.030246561,0.0,0.0,-0.3214745,0,0,0,0,0
378672035,-0.012391462,-0.021259572,-0.06046963,0.0,0.99946535,-0.0065138377,-0.010437236,-0.03029375,0.0,0.0,-0.33222952,0,0,0,0,0
378721436,-0.0146044195,-0.014673068,-0.060469627,0.0,0.99948776,-0.007520388,-0.0071121803,-0.030282134,0.0,0.0,-0.3316427,0,0,0,0,0
378770702,-0.018574717,-0.013759419,-0.060469624,0.0,0.9994743,-0.009490724,-0.006595466,-0.03029205,0.0,0.0,-0.32918656,0,0,0,0,0
378819958,-0.012221467,-0.01889961,-0.060469627,0.0,0.9994779,-0.006393289,-0.00926045,-0.030286014,0.0,0.0,-0.32738683,0,0,0,0,0
378869607,-0.012818847,-0.012637465,-0.060469627,0.0,0.9995013,-0.006597334,-0.0061219204,-0.030269466,0.0,0.0,-0.3225803,0,0,0,0,0
378919187,-0.011619187,-0.013159263,-0.060469627,0.0,0.9995033,-0.006005679,-0.006400846,-0.030267252,0.0,0.0,-0.32315195,0,0,0,0,0
378968534,-0.012802653,-0.019006623,-0.060469627,0.0,0.99947554,-0.0066853445,-0.009305127,-0.03028903,0.0,0.0,-0.32314232,0,0,0,0,0
379018064,-0.016704813,-0.0141284205,-0.07576084,0.0,0.9992206,-0.008613627,-0.006742532,-0.037928056,0.0,0.0,-0.31765726,0,0,0,0,0
379072227,-0.017056294,-0.011481577,-0.07576085,0.0,0.99922794,-0.008739188,-0.005413467,-0.03791829,0.0,0.0,-0.32808685,0,0,0,0,0
379121567,-0.0113851745,-0.011340032,-0.07576085,0.0,0.99924916,-0.0059031076,-0.005450245,-0.037902396,0.0,0.0,-0.32565302,0,0,0,0,0
379171053,-0.01592892,-0.008168128,-0.07576084,0.0,0.99924135,-0.00811326,-0.0037793743,-0.037902348,0.0,0.0,-0.32660237,0,0,0,0,0
379220657,-0.012910041,-0.006729877,-0.07576084,0.0,0.9992553,-0.006577741,-0.003117991,-0.037892062,0.0,0.0,-0.3245873,0,0,0,0,0
379270005,-0.020355262,-0.012538006,-0.07576084,0.0,0.9992088,-0.010407356,-0.005878713,-0.03793241,0.0,0.0,-0.32642272,0,0,0,0,0
379319622,-0.019937862,-0.005793309,-0.07576085,0.0,0.9992277,-0.010071268,-0.0025168993,-0.03789818,0.0,0.0,-0.3438718,0,0,0,0,0
379368941,-0.018027224,-0.0013784623,-0.07576085,0.0,0.99924153,-0.009033123,-0.00034735556,-0.03787602,0.0,0.0,-0.36596465,0,0,0,0,0
379418043,-0.014556643,-0.0118384715,-0.07576085,0.0,0.99923706,-0.0074970704,-0.005639165,-0.037912745,0.0,0.0,-0.3423653,0,0,0,0,0
379472198,-0.022589544,-0.0021448717,-0.07576084,0.0,0.99921787,-0.011327033,-0.00064385886,-0.037881028,0.0,0.0,-0.3036113,0,0,0,0,0
379522217,-0.019405462,-0.006768099,-0.07576085,0.0,0.99922866,-0.009823715,-0.003014008,-0.037902173,0.0,0.0,-0.304156,0,0,0,0,0
379571203,-0.0172466,-0.0026948377,-0.07576085,0.0,0.9992441,-0.008668026,-0.00101983,-0.037881535,0.0,0.0,-0.30855644,0,0,0,0,0
379620632,-0.019141,0.002882633,-0.07576084,0.0,0.99923635,-0.009508896,0.0018026581,-0.0378558,0.0,0.0,-0.31442273,0,0,0,0,0
379669883,-0.01829951,-0.005337797,-0.07576084,0.0,0.99923635,-0.009244101,-0.0023203616,-0.03789404,0.0,0.0,-0.3178183,0,0,0,0,0
379719358,-0.01421104,-0.005050122,-0.075760856,0.0,0.9992535,-0.0071959654,-0.0022540905,-0.037888225,0.0,0.0,-0.32115227,0,0,0,0,0
379769277,-0.016024705,-0.009856979,-0.07576085,0.0,0.99923694,-0.008193063,-0.0046213446,-0.037909146,0.0,0.0,-0.32124558,0,0,0,0,0
379819057,-0.020180691,-0.0041258824,-0.07576085,0.0,0.99922884,-0.010161037,-0.0016792271,-0.037890155,0.0,0.0,-0.32480842,0,0,0,0,0
379868133,-0.024037356,-0.0035104174,-0.07576085,0.0,0.99920815,-0.012076216,-0.00129867,-0.037889652,0.0,0.0,-0.3269611,0,0,0,0,0
379922464,-0.02021898,-0.00888305,-0.07576085,0.0,0.99922,-0.0102701625,-0.004055247,-0.037913922,0.0,0.0,-0.3258576,0,0,0,0,0
379972123,-0.015398515,-0.0077822506,-0.075760856,0.0,0.99924433,-0.0078409575,-0.0035966325,-0.037899897,0.0,0.0,-0.3282937,0,0,0,0,0
380021498,-0.016051307,-0.0060476684,-0.07576085,0.0,0.999245,-0.008134287,-0.002717625,-0.037894223,0.0,0.0,-0.3288712,0,0,0,0,0
380070381,-0.022843424,-0.017617337,-0.07576085,0.0,0.9991749,-0.011746395,-0.008369131,-0.037967958,0.0,0.0,-0.3258302,0,0,0,0,0
380115557,-0.021041226,-0.018354204,-0.07576085,0.0,0.99918157,-0.010859954,-0.008771476,-0.03796415,0.0,0.0,-0.3262241,0,0,0,0,0
380168977,-0.02772071,-0.009986628,-0.07576085,0.0,0.99917156,-0.01403888,-0.0044643446,-0.03793641,0.0,0.0,-0.32447094,0,0,0,0,0
380223238,-0.018367479,-0.016863463,-0.07576085,0.0,0.9992021,-0.009496,-0.0080774445,-0.0379458,0.0,0.0,-0.3850453,0,0,0,0,0
380268274,-0.01609821,-0.011831549,-0.07576085,0.0,0.999231,-0.0082671335,-0.0056064827,-0.03791705,0.0,0.0,-0.37505606,0,0,0,0,0
380322059,-0.020734103,-0.01577811,-0.07576085,0.0,0.99919474,-0.010657857,-0.007490295,-0.03794987,0.0,0.0,-0.36230385,0,0,0,0,0
380371737,-0.019010596,-0.012759427,-0.07576084,0.0,0.9992149,-0.009739738,-0.0060148393,-0.03792948,0.0,0.0,-0.3513027,0,0,0,0,0
380421163,-0.014212402,-0.016318638,-0.075760856,0.0,0.999222,-0.0074098003,-0.007884058,-0.037927095,0.0,0.0,-0.3473279,0,0,0,0,0
380470490,-0.020877227,-0.013198161,-0.07576085,0.0,0.9992038,-0.010680609,-0.0061986307,-0.03793731,0.0,0.0,-0.34095627,0,0,0,0,0
380519742,-0.019588927,-0.011776658,-0.07576084,0.0,0.9992152,-0.010010098,-0.005512872,-0.037926517,0.0,0.0,-0.33983484,0,0,0,0,0
380569496,-0.018042693,-0.014208737,-0.075760856,0.0,0.9992143,-0.009283563,-0.006757286,-0.03793291,0.0,0.0,-0.35259286,0,0,0,0,0
380623601,-0.015768703,-0.009936911,-0.07576085,0.0,0.9992378,-0.008066673,-0.004666132,-0.037908867,0.0,0.0,-0.33051422,0,0,0,0,0
380668417,-0.015733581,-0.0068492685,-0.07576085,0.0,0.99924487,-0.007990711,-0.0031241435,-0.037896894,0.0,0.0,-0.31543893,0,0,0,0,0
380722610,-0.01112141,-0.011943182,-0.07576085,0.0,0.99924815,-0.0057827355,-0.005756593,-0.037903287,0.0,0.0,-0.30467537,0,0,0,0,0
380771846,-0.0054881317,-0.0039569065,-0.07576085,0.0,0.9992767,-0.002817015,-0.0018731041,-0.037876576,0.0,0.0,-0.31929913,0,0,0,0,0
380821446,-0.005482369,-0.006184765,-0.07576085,0.0,0.9992738,-0.0028563137,-0.0029863357,-0.03787951,0.0,0.0,-0.3375685,0,0,0,0,0
380870676,0.0018241527,-0.0057989233,-0.07576084,0.0,0.9992781,0.0008016117,-0.0029319176,-0.037868544,0.0,0.0,-0.35599008,0,0,0,0,0
380920145,0.001156961,-0.008434521,-0.07576085,0.0,0.9992737,0.00041834736,-0.0042361296,-0.037868585,0.0,0.0,-0.34509388,0,0,0,0,0
380969549,-0.0028189726,-0.0057602804,-0.07576084,0.0,0.99927735,-0.0015175433,-0.002824688,-0.037875224,0.0,0.0,-0.32797363,0,0,0,0,0
381019070,-0.00412815,-0.0063293087,-0.07576085,0.0,0.99927527,-0.0021824318,-0.0030842028,-0.037877623,0.0,0.0,-0.3220989,0,0,0,0,0
381068795,-0.001223813,-0.012930039,-0.07576084,0.0,0.99926144,-0.00085629197,-0.006437162,-0.037874516,0.0,0.0,-0.31973514,0,0,0,0,0
381118283,0.008458782,-0.008512185,-0.07576085,0.0,0.9992653,0.0040651243,-0.004413159,-0.037852705,0.0,0.0,-0.32052836,0,0,0,0,0
381172202,-0.0014510814,-0.010261723,-0.07576084,0.0,0.9992691,-0.0009193223,-0.0050996793,-0.037874572,0.0,0.0,-0.32086968,0,0,0,0,0
381222264,-0.0017754737,-0.018025564,-0.07576085,0.0,0.99924135,-0.0012283855,-0.008972573,-0.037877806,0.0,0.0,-0.3068793,0,0,0,0,0
381271139,-0.0013105958,-0.007222549,-0.07576085,0.0,0.9992758,-0.000791587,-0.0035838583,-0.037873473,0.0,0.0,-0.29583243,0,0,0,0,0
381320176,-0.00619188,-0.0074404688,-0.07576085,0.0,0.99927056,-0.0032345818,-0.0036002924,-0.03788243,0.0,0.0,-0.28707877,0,0,0,0,0
381361582,0.0023943272,-0.007500431,-0.07576085,0.0,0.9992751,0.0010542707,-0.003792851,-0.037866585,0.0,0.0,-0.26611602,0,0,0,0,0
381419339,0.0012069419,-0.0146883195,-0.07576085,0.0,0.99925566,0.00032489098,-0.0073616775,-0.03786591,0.0,0.0,-0.27993587,0,0,0,0,0
381468956,-0.0008050086,-0.01017555,-0.07576085,0.0,0.9992696,-0.0005948904,-0.005068859,-0.037872914,0.0,0.0,-0.29977706,0,0,0,0,0
381518008,-0.0038187592,-0.011281774,-0.07576085,0.0,0.9992645,-0.0021216052,-0.0055644913,-0.037881464,0.0,0.0,-0.3127782,0,0,0,0,0
381572134,0.007161626,-0.011271783,-0.07576085,0.0,0.99926114,0.0033647432,-0.00576739,-0.037850358,0.0,0.0,-0.3352787,0,0,0,0,0
381621562,0.0034088579,-0.0128611345,-0.07576084,0.0,0.99926096,0.0014596379,-0.0064904476,-0.037859578,0.0,0.0,-0.33552417,0,0,0,0,0
381671251,0.0056124674,-0.021545252,-0.07576085,0.0,0.99922186,0.0023960895,-0.010870916,-0.037838813,0.0,0.0,-0.3314465,0,0,0,0,0
381720753,0.0058404733,-0.018341392,-0.07576084,0.0,0.99923736,0.0025707143,-0.009274537,-0.037842844,0.0,0.0,-0.3271489,0,0,0,0,0
381769870,-0.001899634,-0.020087447,-0.07576085,0.0,0.9992314,-0.0013294504,-0.010000375,-0.03787897,0.0,0.0,-0.3256121,0,0,0,0,0
381819658,-2.1491333e-05,-0.027466403,-0.07576085,0.0,0.99918836,-0.0005308157,-0.013722512,-0.03786794,0.0,0.0,-0.32175288,0,0,0,0,0
381873624,0.0053471588,-0.019335862,-0.07576085,0.0,0.99923337,0.0023054022,-0.009762058,-0.03784363,0.0,0.0,-0.32008183,0,0,0,0,0
381918662,0.0013881844,-0.023993127,-0.07576085,0.0,0.9992108,0.00023922908,-0.012013952,-0.037860308,0.0,0.0,-0.31926686,0,0,0,0,0
381968119,0.0053767124,-0.026160453,-0.07576085,0.0,0.99919486,0.0021908444,-0.013172225,-0.03783285,0.0,0.0,-0.3179897,0,0,0,0,0
382021831,-0.0045802123,-0.024594864,-0.075760856,0.0,0.9992034,-0.0027539958,-0.012201545,-0.037896544,0.0,0.0,-0.31248164,0,0,0,0,0
382071433,-0.003940886,-0.02021763,-0.07576084,0.0,0.9992289,-0.0023517543,-0.01002675,-0.037889257,0.0,0.0,-0.31520978,0,0,0,0,0
382121023,-0.0011718881,-0.020390065,-0.07576085,0.0,0.9992303,-0.00097158615,-0.01016535,-0.037875358,0.0,0.0,-0.31788766,0,0,0,0,0
382170151,-0.0012033944,-0.019667976,-0.07576084,0.0,0.9992339,-0.0009736569,-0.009803986,-0.037875436,0.0,0.0,-0.31687224,0,0,0,0,0
382219533,0.0024297948,-0.020363746,-0.07576085,0.0,0.99923056,0.00082836807,-0.010220391,-0.037857015,0.0,0.0,-0.3175896,0,0,0,0,0
382269127,0.007926402,-0.020109205,-0.075760856,0.0,0.99922574,0.003579375,-0.010197225,-0.037829336,0.0,0.0,-0.33283225,0,0,0,0,0
382323161,-0.004838529,-0.015547277,-0.075760856,0.0,0.9992488,-0.0027118481,-0.007676343,-0.037888907,0.0,0.0,-0.33691838,0,0,0,0,0
382368706,-0.0038752533,-0.021713998,-0.07576084,0.0,0.9992211,-0.0023472817,-0.0107756,-0.03789008,0.0,0.0,-0.32308152,0,0,0,0,0
382422270,0.002150047,-0.01462913,-0.07576085,0.0,0.9992556,0.00079721346,-0.00734996,-0.037862472,0.0,0.0,-0.32485458,0,0,0,0,0
382471693,-0.00038427088,-0.013259256,-0.07576085,0.0,0.9992606,-0.00044306455,-0.0066175465,-0.037871808,0.0,0.0,-0.33593446,0,0,0,0,0
382521229,0.0044311914,-0.016975652,-0.07576085,0.0,0.99924487,0.0018924836,-0.008565519,-0.03785111,0.0,0.0,-0.35204116,0,0,0,0,0
382570414,-0.0011633415,-0.019300228,-0.07576085,0.0,0.99923575,-0.0009466837,-0.009621012,-0.0378752,0.0,0.0,-0.36026034,0,0,0,0,0
382619831,-0.0034153294,-0.0115608815,-0.07576084,0.0,0.9992641,-0.001925322,-0.005711583,-0.037880544,0.0,0.0,-0.37201175,0,0,0,0,0
382669218,0.006812826,-0.014797115,-0.07576085,0.0,0.9992504,0.00312368,-0.007522141,-0.03784493,0.0,0.0,-0.37747985,0,0,0,0,0
382718627,0.0044952407,-0.0099680275,-0.07576085,0.0,0.9992681,0.002057228,-0.005065525,-0.037859607,0.0,0.0,-0.37287012,0,0,0,0,0
382768269,0.0020179916,-0.013384896,-0.07576085,0.0,0.99926,0.00075479917,-0.006725805,-0.037863746,0.0,0.0,-0.35690546,0,0,0,0,0
382822398,0.0046989336,-0.009308089,-0.07576085,0.0,0.9992695,0.0021714997,-0.004739652,-0.03785992,0.0,0.0,-0.33986896,0,0,0,0,0
382871834,-0.0019063922,-0.015714614,-0.07576084,0.0,0.99925107,-0.0012500463,-0.007815488,-0.03787766,0.0,0.0,-0.32456997,0,0,0,0,0
382921437,0.0009340745,-0.008391371,-0.07576085,0.0,0.99927384,0.00030780223,-0.00421035,-0.03786907,0.0,0.0,-0.32008266,0,0,0,0,0
382970684,-0.0003065374,-0.01022025,-0.07576084,0.0,0.99926955,-0.0003466833,-0.0051006326,-0.037871648,0.0,0.0,-0.32775182,0,0,0,0,0
383020291,0.004813789,-0.014849168,-0.07576084,0.0,0.99925286,0.0021239235,-0.007510318,-0.037852347,0.0,0.0,-0.33325514,0,0,0,0,0
383069775,0.003050174,-0.013849421,-0.07576084,0.0,0.9992579,0.0012617101,-0.0069774357,-0.03785986,0.0,0.0,-0.33232424,0,0,0,0,0
383119233,-0.003892307,-0.012657418,-0.07576084,0.0,0.99926025,-0.0021843917,-0.006250412,-0.037882842,0.0,0.0,-0.32462892,0,0,0,0,0
383168772,-0.00064343004,-0.01457321,-0.07576084,0.0,0.99925596,-0.00059742684,-0.007269129,-0.037872694,0.0,0.0,-0.3238306,0,0,0,0,0
383218116,0.0008539858,-0.010730485,-0.07576085,0.0,0.99926823,0.00022349236,-0.0053775385,-0.037868526,0.0,0.0,-0.3245512,0,0,0,0,0
383272102,0.008624292,-0.012139138,-0.075760856,0.0,0.9992559,0.004079101,-0.0062284246,-0.037844166,0.0,0.0,-0.32870793,0,0,0,0,0
383321607,0.0018573063,-0.011326,-0.07576085,0.0,0.9992664,0.00071350764,-0.005694073,-0.037865486,0.0,0.0,-0.32981607,0,0,0,0,0
383370935,-0.00054814195,-0.0143379755,-0.07576084,0.0,0.99925685,-0.0005453643,-0.0071534044,-0.037872355,0.0,0.0,-0.32743287,0,0,0,0,0
383420534,0.000610209,-0.009461086,-0.07576085,0.0,0.99927145,0.00012573077,-0.0047386857,-0.037869494,0.0,0.0,-0.32738447,0,0,0,0,0
383469618,-0.004722719,-0.008125957,-0.07576085,0.0,0.9992713,-0.002513513,-0.0039706132,-0.03788053,0.0,0.0,-0.3293133,0,0,0,0,0
383519164,0.0011926835,-0.014332107,-0.07576084,0.0,0.99925697,0.00032451277,-0.007183434,-0.03786611,0.0,0.0,-0.32884255,0,0,0,0,0
383568739,0.0077587916,-0.007572571,-0.07576085,0.0,0.99926853,0.0037331844,-0.003930448,-0.037856128,0.0,0.0,-0.33019382,0,0,0,0,0
383622930,-0.00012797512,-0.0088758925,-0.07576085,0.0,0.99927276,-0.00023201156,-0.004432325,-0.037871275,0.0,0.0,-0.32975635,0,0,0,0,0
383672256,-0.0013591658,-0.008893615,-0.07576085,0.0,0.9992724,-0.0008474946,-0.004417865,-0.037874002,0.0,0.0,-0.32893398,0,0,0,0,0
383721775,-0.0014185603,-0.0034890708,-0.075760856,0.0,0.9992808,-0.0007748381,-0.0017164212,-0.037872534,0.0,0.0,-0.32911128,0,0,0,0,0
383771783,0.001595212,-0.00416693,-0.07576085,0.0,0.9992802,0.0007181284,-0.0021121742,-0.037869614,0.0,0.0,-0.33484226,0,0,0,0,0
383821101,0.0068655377,0.0002673018,-0.07576085,0.0,0.99927676,0.003435361,3.5508488e-06,-0.037871595,0.0,0.0,-0.3364419,0,0,0,0,0
383870158,0.0046818065,-0.004945044,-0.07576084,0.0,0.99927706,0.0022455773,-0.0025593918,-0.037865356,0.0,0.0,-0.33422434,0,0,0,0,0
383919547,0.0006546792,-0.004826396,-0.07576084,0.0,0.99927974,0.00023571283,-0.002423861,-0.03787046,0.0,0.0,-0.32248455,0,0,0,0,0
383968950,-0.007494223,-0.00047210825,-0.07576085,0.0,0.99927557,-0.0037533534,-9.397524e-05,-0.03787198,0.0,0.0,-0.29873973,0,0,0,0,0
384018325,-0.0037214318,-0.008088631,-0.07576084,0.0,0.99927247,-0.0020125275,-0.0039709285,-0.037878502,0.0,0.0,-0.3000995,0,0,0,0,0
384072510,0.0043525714,-0.0038304483,-0.07576084,0.0,0.9992786,0.0021021867,-0.0019962632,-0.037867043,0.0,0.0,-0.32336232,0,0,0,0,0
384121845,0.0005475744,-0.0031547062,-0.07576084,0.0,0.99928135,0.00021385396,-0.0015865896,-0.037870884,0.0,0.0,-0.34105605,0,0,0,0,0
384171206,0.0010063131,-0.0106391255,-0.07576084,0.0,0.9992685,0.00030133038,-0.0053347754,-0.037868146,0.0,0.0,-0.34640118,0,0,0,0,0
384221001,-0.0037226197,-0.010561826,-0.07576084,0.0,0.9992666,-0.0020599414,-0.005206601,-0.037880596,0.0,0.0,-0.3278666,0,0,0,0,0
384270852,-0.010143122,-0.006412881,-0.075760856,0.0,0.999264,-0.0051893066,-0.0030120285,-0.03788694,0.0,0.0,-0.3149366,0,0,0,0,0
384319766,-0.006291612,-0.0145382015,-0.07576085,0.0,0.9992504,-0.0034187478,-0.007144653,-0.03789303,0.0,0.0,-0.29944137,0,0,0,0,0
384369398,-0.0035647743,-0.011822166,-0.07576084,0.0,0.99926317,-0.0020049354,-0.0058392985,-0.03788117,0.0,0.0,-0.29042283,0,0,0,0,0
384418735,-0.0050053652,-0.0102181155,-0.07576085,0.0,0.99926597,-0.0026943376,-0.005010575,-0.03788353,0.0,0.0,-0.3014696,0,0,0,0,0
384472813,-0.0055726343,-0.00914478,-0.07576085,0.0,0.9992678,-0.0029574472,-0.004463556,-0.037883554,0.0,0.0,-0.32079306,0,0,0,0,0
384522275,-0.006447988,-0.009705963,-0.07576085,0.0,0.9992651,-0.0034054252,-0.00472736,-0.037886363,0.0,0.0,-0.33493507,0,0,0,0,0
384571407,-0.0103957085,-0.014073869,-0.07576085,0.0,0.999243,-0.005460466,-0.006834889,-0.03790647,0.0,0.0,-0.332477,0,0,0,0,0
384621031,-0.010606235,-0.0112380395,-0.07576085,0.0,0.99925166,-0.005512,-0.0054140477,-0.037900012,0.0,0.0,-0.3471958,0,0,0,0,0
384670577,-0.013276083,-0.006305485,-0.07576084,0.0,0.9992548,-0.0067525934,-0.0028990177,-0.037891254,0.0,0.0,-0.33816722,0,0,0,0,0
384719940,-0.010326333,-0.01352552,-0.07576085,0.0,0.9992451,-0.0054154317,-0.006562236,-0.037904885,0.0,0.0,-0.33069497,0,0,0,0,0
384774447,-0.016568849,-0.009767275,-0.07576085,0.0,0.99923486,-0.008463231,-0.0045662117,-0.037910044,0.0,0.0,-0.3249129,0,0,0,0,0
384818620,-0.016445963,-0.008777379,-0.07576085,0.0,0.99923784,-0.008383109,-0.00407397,-0.037905775,0.0,0.0,-0.32412162,0,0,0,0,0
384868486,-0.016226577,-0.011254138,-0.07576085,0.0,0.99923223,-0.0083203465,-0.0053155636,-0.03791514,0.0,0.0,-0.31428015,0,0,0,0,0
384922487,-0.008786693,-0.008825489,-0.07576085,0.0,0.9992625,-0.004557253,-0.0042431424,-0.037890002,0.0,0.0,-0.31795746,0,0,0,0,0
384971935,-0.01175289,-0.008675337,-0.07576085,0.0,0.999255,-0.0060364106,-0.0041119223,-0.03789583,0.0,0.0,-0.3201296,0,0,0,0,0
385021344,-0.010735963,-0.011236851,-0.07576085,0.0,0.9992513,-0.005576793,-0.0054109963,-0.03790036,0.0,0.0,-0.32382518,0,0,0,0,0
385070815,-0.016686799,-0.011726002,-0.07576084,0.0,0.99922884,-0.008559206,-0.0055425907,-0.037918273,0.0,0.0,-0.31503463,0,0,0,0,0
385120402,-0.019379435,-0.011569668,-0.07576085,0.0,0.99921685,-0.009901521,-0.0054134293,-0.037924964,0.0,0.0,-0.3246853,0,0,0,0,0
385160534,-0.016148018,-0.010768693,-0.075760856,0.0,0.9992339,-0.008271918,-0.0050745164,-0.037913024,0.0,0.0,-0.31632626,0,0,0,0,0
385219126,-0.00913983,-0.01046277,-0.07576085,0.0,0.9992576,-0.0047646747,-0.0050544874,-0.037894342,0.0,0.0,-0.30939347,0,0,0,0,0
385268463,-0.007139788,-0.008055875,-0.07576085,0.0,0.99926764,-0.0037198386,-0.0038898154,-0.03788518,0.0,0.0,-0.28541368,0,0,0,0,0
385317895,-0.006467689,-0.012784882,-0.07576084,0.0,0.9992562,-0.0034735403,-0.0062653106,-0.03789105,0.0,0.0,-0.28366485,0,0,0,0,0
385367434,-0.0044190004,-0.017108232,-0.07576084,0.0,0.9992429,-0.002531784,-0.008464181,-0.03788877,0.0,0.0,-0.29802704,0,0,0,0,0
385421334,-0.007679615,-0.01045713,-0.07576084,0.0,0.99926084,-0.004035001,-0.0050793346,-0.037890624,0.0,0.0,-0.31111005,0,0,0,0,0
385470791,-0.013714032,-0.010996884,-0.07576085,0.0,0.9992426,-0.007060167,-0.0052346615,-0.037907578,0.0,0.0,-0.3047642,0,0,0,0,0
385520950,-0.011885611,-0.013417092,-0.07576085,0.0,0.999241,-0.00619243,-0.0064785094,-0.037909687,0.0,0.0,-0.2874635,0,0,0,0,0
385570031,-0.008504506,-0.019345725,-0.07576085,0.0,0.99922526,-0.0046153064,-0.009504654,-0.03791035,0.0,0.0,-0.29296133,0,0,0,0,0
385626014,-0.0031801881,-0.0143366875,-0.07576085,0.0,0.99925524,-0.0018603839,-0.007102913,-0.037881732,0.0,0.0,-0.2859877,0,0,0,0,0
385669352,-0.00934694,-0.013772766,-0.07576084,0.0,0.99924684,-0.0049307807,-0.0067043267,-0.037902214,0.0,0.0,-0.29688317,0,0,0,0,0
385723678,-0.0062178615,-0.01371861,-0.07576085,0.0,0.9992535,-0.0033663902,-0.0067365607,-0.0378916,0.0,0.0,-0.31370088,0,0,0,0,0
385772448,-0.0043692933,-0.0123472605,-0.07576085,0.0,0.99926066,-0.0024168382,-0.006086414,-0.037884034,0.0,0.0,-0.33064872,0,0,0,0,0
385821810,-0.006363903,-0.014161548,-0.07576085,0.0,0.99925166,-0.0034477387,-0.006955098,-0.03789274,0.0,0.0,-0.34562194,0,0,0,0,0
385870966,-0.014528733,-0.026005846,-0.07576084,0.0,0.9991682,-0.0077508884,-0.012717798,-0.03796155,0.0,0.0,-0.33272567,0,0,0,0,0
385920508,-0.013052164,-0.020313205,-0.07576085,0.0,0.9992073,-0.006905647,-0.009901788,-0.03793484,0.0,0.0,-0.32905233,0,0,0,0,0
385969828,-0.013387856,-0.018009605,-0.07576084,0.0,0.99921745,-0.007029817,-0.008744523,-0.037929215,0.0,0.0,-0.32954183,0,0,0,0,0
386019444,-0.013715467,-0.022568397,-0.07576085,0.0,0.9991926,-0.0072796526,-0.011015905,-0.03794539,0.0,0.0,-0.32763788,0,0,0,0,0
386068944,-0.00760242,-0.023762114,-0.07576085,0.0,0.99920315,-0.004248144,-0.0117282225,-0.037913546,0.0,0.0,-0.3240332,0,0,0,0,0
386123003,-0.018514534,-0.017944265,-0.07576085,0.0,0.99919647,-0.009589889,-0.008614626,-0.037951212,0.0,0.0,-0.32165053,0,0,0,0,0
386172478,-0.014645407,-0.026373386,-0.07576084,0.0,0.9991653,-0.007816118,-0.012899204,-0.037963543,0.0,0.0,-0.32050583,0,0,0,0,0
386221937,-0.011843136,-0.02085886,-0.07576085,0.0,0.9992084,-0.0063119265,-0.010197333,-0.037930354,0.0,0.0,-0.3225086,0,0,0,0,0
386271435,-0.015297166,-0.019315027,-0.07576084,0.0,0.999204,-0.008008392,-0.009360507,-0.037942305,0.0,0.0,-0.32595637,0,0,0,0,0
386321411,-0.012977494,-0.0226454,-0.075760856,0.0,0.99919474,-0.006912418,-0.011068378,-0.037941556,0.0,0.0,-0.3436932,0,0,0,0,0
386370321,-0.012970946,-0.024648197,-0.07576085,0.0,0.9991827,-0.006946992,-0.012069093,-0.037947565,0.0,0.0,-0.35242257,0,0,0,0,0
386415229,-0.015611525,-0.024619376,-0.07576085,0.0,0.99917287,-0.008265651,-0.012004581,-0.037963357,0.0,0.0,-0.36412853,0,0,0,0,0
386469170,-0.021363169,-0.021091549,-0.07576084,0.0,0.9991658,-0.011072477,-0.010132917,-0.037979655,0.0,0.0,-0.3874485,0,0,0,0,0
386518434,-0.017319493,-0.025726242,-0.07576085,0.0,0.99915826,-0.009139824,-0.012525132,-0.037978116,0.0,0.0,-0.39272064,0,0,0,0,0
386568151,-0.017859254,-0.014841777,-0.07576084,0.0,0.99921274,-0.009203883,-0.007077038,-0.037935026,0.0,0.0,-0.40180692,0,0,0,0,0
386622327,-0.013390911,-0.019146534,-0.07576085,0.0,0.999212,-0.0070528337,-0.009312485,-0.03793283,0.0,0.0,-0.38392776,0,0,0,0,0
386671511,-0.021891853,-0.020384932,-0.07576085,0.0,0.9991666,-0.011323261,-0.009769862,-0.037978612,0.0,0.0,-0.36410055,0,0,0,0,0
386721232,-0.01267276,-0.016641214,-0.07576085,0.0,0.999226,-0.006646675,-0.008074419,-0.037921976,0.0,0.0,-0.34665006,0,0,0,0,0
386770236,-0.01797558,-0.022044031,-0.07576085,0.0,0.9991778,-0.009398071,-0.010673088,-0.037966527,0.0,0.0,-0.33106238,0,0,0,0,0
386819691,-0.017468525,-0.01858297,-0.07576084,0.0,0.9991983,-0.009079372,-0.008953572,-0.037949376,0.0,0.0,-0.3191074,0,0,0,0,0
386869126,-0.025085824,-0.018546103,-0.075760856,0.0,0.99915665,-0.012884196,-0.008790553,-0.037982978,0.0,0.0,-0.31800932,0,0,0,0,0
386919089,-0.019004906,-0.02357265,-0.07576085,0.0,0.99916387,-0.009941167,-0.011417225,-0.03797894,0.0,0.0,-0.32317498,0,0,0,0,0
386972996,-0.017503023,-0.020152483,-0.07576085,0.0,0.99919033,-0.009126259,-0.009737047,-0.03795611,0.0,0.0,-0.32481718,0,0,0,0,0
387022537,-0.020844871,-0.016818365,-0.075760856,0.0,0.9991897,-0.010732848,-0.0080079045,-0.037955552,0.0,0.0,-0.33056673,0,0,0,0,0
387072421,-0.021079332,-0.023708124,-0.07576085,0.0,0.9991522,-0.010980063,-0.0114455065,-0.03799144,0.0,0.0,-0.33420452,0,0,0,0,0
387121329,-0.022997605,-0.018959634,-0.07576085,0.0,0.99916756,-0.011848768,-0.009036802,-0.03797608,0.0,0.0,-0.3348497,0,0,0,0,0
387175293,-0.012833659,-0.01875191,-0.075760856,0.0,0.99921584,-0.006766968,-0.009125898,-0.037929043,0.0,0.0,-0.3411341,0,0,0,0,0
387219917,-0.014250542,-0.02023557,-0.07576084,0.0,0.9992034,-0.007502893,-0.0098402705,-0.037940502,0.0,0.0,-0.3411643,0,0,0,0,0
387269506,-0.014900003,-0.025189234,-0.07576085,0.0,0.9991721,-0.007920948,-0.012302783,-0.037961073,0.0,0.0,-0.32782596,0,0,0,0,0
387318933,-0.0152078075,-0.019112924,-0.07576085,0.0,0.99920535,-0.007959927,-0.00926123,-0.037941154,0.0,0.0,-0.325394,0,0,0,0,0
387368633,-0.022110023,-0.022267872,-0.07576085,0.0,0.999155,-0.011467793,-0.010706404,-0.037989695,0.0,0.0,-0.3018282,0,0,0,0,0
387422512,-0.013533264,-0.023826718,-0.07576084,0.0,0.99918574,-0.0072123995,-0.011648017,-0.037948366,0.0,0.0,-0.2851962,0,0,0,0,0
387467394,-0.01925936,-0.022095716,-0.07576085,0.0,0.99917126,-0.010040405,-0.010674535,-0.037973605,0.0,0.0,-0.2693226,0,0,0,0,0
387521938,-0.016807148,-0.019707473,-0.075760856,0.0,0.9991957,-0.008770194,-0.0095279245,-0.03795093,0.0,0.0,-0.25349277,0,0,0,0,0
387570643,-0.01563356,-0.022986937,-0.07576084,0.0,0.9991827,-0.008245828,-0.0111886095,-0.037957482,0.0,0.0,-0.24220797,0,0,0,0,0
387620518,-0.019338232,-0.021269362,-0.07576085,0.0,0.9991755,-0.010064207,-0.010260199,-0.037970208,0.0,0.0,-0.24675873,0,0,0,0,0
387669898,-0.020873286,-0.019322757,-0.07576085,0.0,0.99917775,-0.010794344,-0.009258546,-0.037968293,0.0,0.0,-0.2624445,0,0,0,0,0
387719338,-0.019516392,-0.019539429,-0.07576085,0.0,0.9991838,-0.010120543,-0.009392554,-0.037963018,0.0,0.0,-0.2781866,0,0,0,0,0
387769273,-0.015157057,-0.020786151,-0.07576084,0.0,0.99919695,-0.0079661915,-0.0100981435,-0.037946932,0.0,0.0,-0.29694977,0,0,0,0,0
387818241,-0.014024351,-0.020187303,-0.07576085,0.0,0.99920446,-0.007388976,-0.009820447,-0.03793923,0.0,0.0,-0.3095393,0,0,0,0,0
387871944,-0.021128401,-0.017787272,-0.07576085,0.0,0.9991838,-0.0108928,-0.008486586,-0.03796164,0.0,0.0,-0.32716882,0,0,0,0,0
387921547,-0.02294986,-0.019625325,-0.07576085,0.0,0.99916446,-0.011837482,-0.0093702795,-0.037979566,0.0,0.0,-0.3361008,0,0,0,0,0
387971250,-0.018444594,-0.016729264,-0.07576085,0.0,0.99920225,-0.00953199,-0.008008934,-0.037945513,0.0,0.0,-0.32494503,0,0,0,0,0
388020575,-0.015976828,-0.022636749,-0.07576085,0.0,0.9991833,-0.008410707,-0.011007144,-0.037958078,0.0,0.0,-0.3284483,0,0,0,0,0
388069795,-0.009091145,-0.016722642,-0.07576084,0.0,0.9992359,-0.0048587844,-0.008182999,-0.037907626,0.0,0.0,-0.327348,0,0,0,0,0
388119356,-0.010438403,-0.013867091,-0.07576085,0.0,0.9992436,-0.0054778857,-0.0067307693,-0.0379061,0.0,0.0,-0.32686043,0,0,0,0,0
388168986,-0.013093906,-0.023939308,-0.07576085,0.0,0.99918664,-0.0069950284,-0.011712603,-0.03794615,0.0,0.0,-0.31522006,0,0,0,0,0
388218610,-0.010289112,-0.018080128,-0.075760856,0.0,0.9992268,-0.0054829833,-0.008838514,-0.037915792,0.0,0.0,-0.3055402,0,0,0,0,0
388272538,-0.013633808,-0.0146033745,-0.07576085,0.0,0.9992309,-0.0070882943,-0.0070380573,-0.03791921,0.0,0.0,-0.31583104,0,0,0,0,0
388321994,-0.010097179,-0.018768685,-0.07576085,0.0,0.99922407,-0.005400112,-0.009186165,-0.03791656,0.0,0.0,-0.30872914,0,0,0,0,0
388371426,-0.0041240114,-0.015197182,-0.07576085,0.0,0.99925107,-0.002348231,-0.0075149615,-0.03788585,0.0,0.0,-0.3216565,0,0,0,0,0
388421352,-0.008604104,-0.008768819,-0.07576085,0.0,0.99926305,-0.0044649527,-0.004218287,-0.037889503,0.0,0.0,-0.30925158,0,0,0,0,0
388470488,-0.009188965,-0.01122384,-0.07576085,0.0,0.99925536,-0.0048036254,-0.005433809,-0.037896138,0.0,0.0,-0.3093853,0,0,0,0,0
388515313,-0.0065148547,-0.012153214,-0.07576085,0.0,0.9992581,-0.0034851513,-0.0059488174,-0.037890244,0.0,0.0,-0.3200566,0,0,0,0,0
388568915,-0.010281127,-0.016877523,-0.075760856,0.0,0.9992322,-0.0054562497,-0.008237824,-0.037912864,0.0,0.0,-0.3241406,0,0,0,0,0
388618493,-0.017092694,-0.013795572,-0.07576085,0.0,0.9992201,-0.008801127,-0.006568882,-0.03792799,0.0,0.0,-0.32332933,0,0,0,0,0
388668093,-0.01772104,-0.011759097,-0.07576085,0.0,0.9992241,-0.0090765515,-0.0055395165,-0.03792128,0.0,0.0,-0.3275598,0,0,0,0,0
388722015,-0.011418763,-0.017337305,-0.07576084,0.0,0.9992269,-0.0060333237,-0.008445972,-0.03791878,0.0,0.0,-0.3259353,0,0,0,0,0
388771724,-0.008861404,-0.013734426,-0.07576085,0.0,0.99924815,-0.004687471,-0.0066943727,-0.037900507,0.0,0.0,-0.31143412,0,0,0,0,0
388821065,-0.013990024,-0.01023235,-0.07576085,0.0,0.99924374,-0.007183596,-0.004847452,-0.037905704,0.0,0.0,-0.29634076,0,0,0,0,0
388870352,-0.016901636,-0.015724102,-0.07576084,0.0,0.9992135,-0.0087421285,-0.0075360197,-0.03793523,0.0,0.0,-0.30260813,0,0,0,0,0
388920606,-0.014286952,-0.019882761,-0.07576085,0.0,0.99920505,-0.007514416,-0.009663315,-0.037939493,0.0,0.0,-0.31122816,0,0,0,0,0
388969575,-0.016846169,-0.011988324,-0.07576085,0.0,0.99922734,-0.008643789,-0.0056706294,-0.037919793,0.0,0.0,-0.32639605,0,0,0,0,0
389018890,-0.020732308,-0.009787847,-0.07576084,0.0,0.99921507,-0.010543737,-0.004497562,-0.037919566,0.0,0.0,-0.34114987,0,0,0,0,0
389072971,-0.008966611,-0.016394552,-0.07576085,0.0,0.9992376,-0.0047903587,-0.0080214385,-0.037906434,0.0,0.0,-0.3246423,0,0,0,0,0
389122392,-0.012088759,-0.010586797,-0.07576084,0.0,0.99924916,-0.0062403856,-0.0050605754,-0.037902113,0.0,0.0,-0.3181258,0,0,0,0,0
389167288,-0.011927522,-0.01019954,-0.07576085,0.0,0.9992507,-0.0061525004,-0.0048701474,-0.03790059,0.0,0.0,-0.33180225,0,0,0,0,0
389221270,-0.015206169,-0.017203547,-0.07576084,0.0,0.9992143,-0.007923023,-0.008307322,-0.037934218,0.0,0.0,-0.3138503,0,0,0,0,0
389270441,-0.016968882,-0.014997971,-0.075760856,0.0,0.99921614,-0.008761997,-0.007171961,-0.037932523,0.0,0.0,-0.31167486,0,0,0,0,0
389319895,-0.016550051,-0.01206243,-0.07576084,0.0,0.99922836,-0.008497244,-0.0057132677,-0.037919246,0.0,0.0,-0.32571706,0,0,0,0,0
389369373,-0.01243436,-0.008272545,-0.07576085,0.0,0.9992538,-0.006369269,-0.003897764,-0.037896007,0.0,0.0,-0.34680253,0,0,0,0,0
389419056,-0.008983408,-0.01558357,-0.07576085,0.0,0.9992409,-0.0047834096,-0.007615937,-0.037904806,0.0,0.0,-0.34195602,0,0,0,0,0
389468532,-0.0061986535,-0.011752875,-0.07576085,0.0,0.9992598,-0.0033195913,-0.005754786,-0.037888736,0.0,0.0,-0.33030915,0,0,0,0,0
389522728,-0.017182847,-0.01429257,-0.07576085,0.0,0.9992179,-0.008855564,-0.0068154777,-0.03793035,0.0,0.0,-0.32653114,0,0,0,0,0
389572105,-0.009671191,-0.020033441,-0.07576085,0.0,0.999219,-0.005211201,-0.00982613,-0.037917424,0.0,0.0,-0.32652956,0,0,0,0,0
389621606,-0.008062433,-0.0071823443,-0.07576084,0.0,0.9992675,-0.0041642897,-0.0034358928,-0.037885275,0.0,0.0,-0.32983834,0,0,0,0,0
389670881,-0.0071106153,-0.0127464775,-0.07576085,0.0,0.9992551,-0.0037940377,-0.0062339418,-0.037893,0.0,0.0,-0.31773105,0,0,0,0,0
389720820,-0.008090014,-0.014097149,-0.075760856,0.0,0.99924856,-0.0043089287,-0.006890216,-0.037898604,0.0,0.0,-0.2969741,0,0,0,0,0
389769876,-0.012330098,-0.011899396,-0.075760856,0.0,0.9992446,-0.006385796,-0.005711808,-0.03790663,0.0,0.0,-0.301005,0,0,0,0,0
389819192,-0.0175572,-0.012091434,-0.07576085,0.0,0.9992238,-0.009000978,-0.005708663,-0.037922245,0.0,0.0,-0.31384495,0,0,0,0,0
389868959,-0.013409508,-0.013263735,-0.07576085,0.0,0.9992365,-0.006950897,-0.0063730013,-0.03791411,0.0,0.0,-0.32677355,0,0,0,0,0
389918287,-0.013420908,-0.014274373,-0.07576085,0.0,0.9992329,-0.0069757053,-0.0068777194,-0.037917405,0.0,0.0,-0.324822,0,0,0,0,0
389972045,-0.008104986,-0.011182572,-0.07576084,0.0,0.9992579,-0.004261258,-0.00543373,-0.037893105,0.0,0.0,-0.33181554,0,0,0,0,0
390021512,-0.007844051,-0.008491612,-0.075760856,0.0,0.99926525,-0.00407996,-0.0040941834,-0.03788738,0.0,0.0,-0.32770362,0,0,0,0,0
390071622,-0.01255839,-0.01604002,-0.07576085,0.0,0.9992289,-0.006578166,-0.0077762194,-0.037919722,0.0,0.0,-0.3237694,0,0,0,0,0
390120508,-0.0127891395,-0.011825432,-0.07576085,0.0,0.9992433,-0.006613744,-0.005666154,-0.03790771,0.0,0.0,-0.30731907,0,0,0,0,0
390170180,-0.020322355,-0.010005711,-0.07576085,0.0,0.99921656,-0.010343042,-0.0046141814,-0.03791973,0.0,0.0,-0.29509234,0,0,0,0,0
390219571,-0.020673562,-0.013949148,-0.07576084,0.0,0.9992022,-0.01059305,-0.0065776906,-0.03794046,0.0,0.0,-0.2993702,0,0,0,0,0
390269112,-0.015562666,-0.012861078,-0.07576084,0.0,0.99922985,-0.008019034,-0.006131005,-0.037919432,0.0,0.0,-0.32114902,0,0,0,0,0
390318510,-0.015837343,-0.006827667,-0.07576085,0.0,0.99924445,-0.008042145,-0.0031113848,-0.037896972,0.0,0.0,-0.33350244,0,0,0,0,0
390372425,-0.008714249,-0.014850866,-0.07576085,0.0,0.9992444,-0.004635071,-0.007254962,-0.037902284,0.0,0.0,-0.35906506,0,0,0,0,0
390421773,-0.01935927,-0.017846582,-0.07576085,0.0,0.9991928,-0.010010071,-0.008549794,-0.03795439,0.0,0.0,-0.3574589,0,0,0,0,0
390471242,-0.021273939,-0.01435266,-0.07576085,0.0,0.9991975,-0.010900624,-0.0067678955,-0.037944525,0.0,0.0,-0.3404596,0,0,0,0,0
390520878,-0.026724985,-0.01998172,-0.07576084,0.0,0.9991385,-0.013730169,-0.009476619,-0.037999496,0.0,0.0,-0.3214425,0,0,0,0,0
390570115,-0.01349868,-0.0150566045,-0.07576085,0.0,0.99922967,-0.0070293527,-0.0072670616,-0.037920203,0.0,0.0,-0.32843462,0,0,0,0,0
390619555,-0.027792165,-0.013830791,-0.07576085,0.0,0.9991586,-0.014147203,-0.0063834786,-0.037962828,0.0,0.0,-0.3268403,0,0,0,0,0
390673734,-0.026548423,-0.01656836,-0.07576084,0.0,0.9991562,-0.013577546,-0.0077747325,-0.03797661,0.0,0.0,-0.3275676,0,0,0,0,0
390724209,-0.023024082,-0.013887201,-0.07576084,0.0,0.99918926,-0.011766197,-0.006502148,-0.03794782,0.0,0.0,-0.31540602,0,0,0,0,0
390768324,-0.025981363,-0.009069307,-0.07576085,0.0,0.9991858,-0.013152582,-0.0040390473,-0.037926644,0.0,0.0,-0.30321932,0,0,0,0,0
390822278,-0.025108758,-0.013116312,-0.07576085,0.0,0.99917924,-0.01279312,-0.0060774595,-0.03794984,0.0,0.0,-0.30931622,0,0,0,0,0
390871666,-0.023736967,-0.015118165,-0.07576085,0.0,0.9991803,-0.012145601,-0.007103604,-0.037957266,0.0,0.0,-0.3232509,0,0,0,0,0
390921703,-0.028822385,-0.012203848,-0.07576084,0.0,0.99915695,-0.014631149,-0.0055511333,-0.037954595,0.0,0.0,-0.34114897,0,0,0,0,0
390970315,-0.031176034,-0.012323793,-0.07576085,0.0,0.9991386,-0.015809238,-0.0055663846,-0.03796202,0.0,0.0,-0.33228683,0,0,0,0,0
391024569,-0.027269363,-0.012737444,-0.07576085,0.0,0.9991662,-0.013865371,-0.0058471807,-0.037953842,0.0,0.0,-0.33372393,0,0,0,0,0
391069430,-0.030326156,-0.019726796,-0.07576084,0.0,0.9991135,-0.015524373,-0.0092808325,-0.03801461,0.0,0.0,-0.33365694,0,0,0,0,0
391118569,-0.020638548,-0.009336037,-0.075760856,0.0,0.99921674,-0.010488349,-0.0042736107,-0.037917074,0.0,0.0,-0.33376333,0,0,0,0,0
391172808,-0.03067364,-0.01512076,-0.07576085,0.0,0.99913216,-0.015611064,-0.0069732084,-0.03798169,0.0,0.0,-0.3302112,0,0,0,0,0
391223252,-0.029495146,-0.01688932,-0.07576085,0.0,0.99913365,-0.015055707,-0.007879114,-0.037990335,0.0,0.0,-0.33124107,0,0,0,0,0
391271797,-0.02849198,-0.012639832,-0.075760856,0.0,0.99915785,-0.014474323,-0.0057752132,-0.03795673,0.0,0.0,-0.33230808,0,0,0,0,0
391321900,-0.023149349,-0.016859874,-0.07576084,0.0,0.9991765,-0.011884931,-0.007984903,-0.037964985,0.0,0.0,-0.32998833,0,0,0,0,0
391370679,-0.026297888,-0.018276324,-0.07576085,0.0,0.99915,-0.013484623,-0.008632758,-0.037986577,0.0,0.0,-0.32565355,0,0,0,0,0
391420324,-0.031500746,-0.018325763,-0.07576084,0.0,0.9991113,-0.016084725,-0.008558606,-0.038009286,0.0,0.0,-0.31451872,0,0,0,0,0
391469633,-0.025992628,-0.01682869,-0.07576084,0.0,0.99915874,-0.013304798,-0.007915343,-0.037976097,0.0,0.0,-0.30542973,0,0,0,0,0
391519133,-0.023379471,-0.016750595,-0.07576085,0.0,0.9991756,-0.011997832,-0.007925939,-0.03796528,0.0,0.0,-0.30190113,0,0,0,0,0
391568692,-0.024030281,-0.011953195,-0.075760856,0.0,0.9991899,-0.012232343,-0.005516832,-0.037939712,0.0,0.0,-0.31956384,0,0,0,0,0
391622664,-0.02571762,-0.022047475,-0.07576085,0.0,0.99913394,-0.01326589,-0.010527758,-0.038007572,0.0,0.0,-0.32692268,0,0,0,0,0
391671907,-0.023720376,-0.017541166,-0.07576085,0.0,0.99916995,-0.012183073,-0.00831443,-0.037971187,0.0,0.0,-0.32087943,0,0,0,0,0
391721622,-0.024844496,-0.017828288,-0.07576085,0.0,0.99916166,-0.012750082,-0.008436526,-0.037977587,0.0,0.0,-0.31993735,0,0,0,0,0
391770953,-0.019691883,-0.015918678,-0.07576085,0.0,0.99919957,-0.01013982,-0.007580298,-0.037946638,0.0,0.0,-0.32314318,0,0,0,0,0
391820423,-0.021536995,-0.010554031,-0.07576084,0.0,0.9992086,-0.010960251,-0.004865096,-0.037925422,0.0,0.0,-0.32465154,0,0,0,0,0
391869660,-0.025271092,-0.014993184,-0.07576085,0.0,0.99917114,-0.012909673,-0.007012048,-0.037961926,0.0,0.0,-0.32102925,0,0,0,0,0
391919135,-0.03041963,-0.015069964,-0.07576085,0.0,0.99913436,-0.015483211,-0.006952657,-0.03798043,0.0,0.0,-0.32261783,0,0,0,0,0
391973254,-0.018898264,-0.0103367735,-0.07576085,0.0,0.9992228,-0.009637811,-0.004806584,-0.037917968,0.0,0.0,-0.32931277,0,0,0,0,0
392022904,-0.023920067,-0.008462205,-0.07576085,0.0,0.99920034,-0.012111286,-0.0037748239,-0.03791888,0.0,0.0,-0.32768223,0,0,0,0,0
392072347,-0.02305031,-0.014536889,-0.07576084,0.0,0.9991867,-0.011791573,-0.0068262317,-0.037951555,0.0,0.0,-0.32807058,0,0,0,0,0
392122211,-0.019216305,-0.013326417,-0.07576085,0.0,0.9992119,-0.009853231,-0.006294211,-0.037932746,0.0,0.0,-0.3304013,0,0,0,0,0
392171328,-0.013027335,-0.005853297,-0.07576084,0.0,0.9992564,-0.0066197547,-0.0026778043,-0.037889447,0.0,0.0,-0.3354558,0,0,0,0,0
392221066,-0.015909377,-0.0054901885,-0.07576084,0.0,0.9992464,-0.008052826,-0.0024417841,-0.037891842,0.0,0.0,-0.33119193,0,0,0,0,0
392270055,-0.016126985,-0.016052753,-0.07576085,0.0,0.9992155,-0.008361318,-0.007714909,-0.037933584,0.0,0.0,-0.33136895,0,0,0,0,0
392319263,-0.016276017,-0.011471964,-0.07576084,0.0,0.99923134,-0.008349168,-0.0054234574,-0.03791613,0.0,0.0,-0.33029866,0,0,0,0,0
392368894,-0.011383718,-0.0150581505,-0.07576085,0.0,0.99923646,-0.0059727128,-0.0073079304,-0.037912507,0.0,0.0,-0.33014995,0,0,0,0,0
392418302,-0.0060328147,-0.012834197,-0.07576085,0.0,0.9992568,-0.003257198,-0.006298189,-0.037889756,0.0,0.0,-0.3208848,0,0,0,0,0
