timestamp,x,y,z,yaw,yawspeed,vx,vy,vz,acceleration[0],acceleration[1],acceleration[2],jerk[0],jerk[1],jerk[2],thrust[0],thrust[1],thrust[2]
368082283,nan,nan,nan,nan,2.6179938,-0.009317248,0.023658903,0.00074518076,0.12023055,-0.30529645,0.109192,nan,nan,8.0,nan,nan,nan
368261912,nan,nan,nan,nan,2.6024196,-0.0070494832,0.01962061,0.00068748835,0.1009561,-0.28098804,0.10488,nan,nan,8.0,nan,nan,nan
368468941,nan,nan,nan,nan,2.4208615,-0.009620747,0.011595186,0.0028701734,0.18265536,-0.22014126,0.214296,nan,nan,8.0,nan,nan,nan
368662465,nan,nan,nan,nan,1.2879907,-0.010860918,0.010823323,0.000754491,0.18484852,-0.18420863,0.109872,nan,nan,8.0,nan,nan,nan
368868931,nan,nan,nan,-0.061453044,0.0,-0.012601887,0.0016807232,0.0028650325,0.26511827,-0.035359025,0.214104,nan,nan,8.0,nan,nan,nan
369062099,nan,nan,nan,-0.061356142,0.0,-0.016807757,-0.00064432627,0.00067704037,0.27040505,0.010365991,0.10408,nan,nan,8.0,nan,nan,nan
369260754,nan,nan,nan,-0.061197434,0.0,-0.017450683,-0.004939178,0.0013255425,0.27940345,0.07908134,0.145632,nan,nan,8.0,nan,nan,nan
369462604,nan,nan,nan,-0.061197173,0.0,-0.01817296,-0.0036053518,0.0007238252,0.27818352,0.055189107,0.107616,nan,nan,8.0,nan,nan,nan
369660533,nan,nan,nan,-0.06109737,0.0,-0.017158255,-0.010334092,0.0013347332,0.25991443,0.15654157,0.146136,nan,nan,8.0,nan,nan,nan
369871816,nan,nan,nan,-0.060931724,0.0,-0.013996506,-0.009371516,0.0039270273,0.2567814,0.17193083,0.250664,nan,nan,8.0,nan,nan,nan
370060873,nan,nan,nan,-0.060843557,0.0,-0.014640396,-0.008441921,0.0013105847,0.24376072,0.14055693,0.144808,nan,nan,8.0,nan,nan,nan
370271745,nan,nan,nan,-0.060711917,0.0,-0.011338015,-0.0045609605,0.003969756,0.2541906,0.10225363,0.252024,nan,nan,8.0,nan,nan,nan
370460784,nan,nan,nan,-0.06080042,0.0,-0.01811216,-0.005144824,0.0012724916,0.28322455,0.080450945,0.142688,nan,nan,8.0,nan,nan,nan
370672117,nan,nan,nan,-0.06092876,0.0,-0.015600708,-0.005108727,0.0039280304,0.2907706,0.09521795,0.250696,nan,nan,8.0,nan,nan,nan
370860978,nan,nan,nan,-0.060928863,0.0,-0.029817853,-0.011823942,0.000311805,0.33100656,0.13125701,0.070632,nan,nan,8.0,nan,nan,nan
371072955,nan,nan,nan,-0.061041106,0.0,-0.01615452,-0.00366667,0.004144527,0.3012608,0.06837862,0.257512,nan,nan,8.0,nan,nan,nan
371261287,nan,nan,nan,-0.06086397,0.0,-0.01821237,0.0011148584,0.0012507539,0.2895516,-0.017724713,0.141464,nan,nan,8.0,nan,nan,nan
371467916,nan,nan,nan,-0.06080559,0.0,-0.015523933,0.0017471369,0.002906288,0.28875616,-0.03249799,0.21564,nan,nan,8.0,nan,nan,nan
371661265,nan,nan,nan,-0.061000433,0.0,-0.020211907,-0.00064062537,0.0003207681,0.28627002,0.009073457,0.07164,nan,nan,8.0,nan,nan,nan
371864485,nan,nan,nan,-0.06100009,0.0,-0.012648309,-0.00032433728,0.0021095648,0.2586403,0.0066322447,0.18372,nan,nan,8.0,nan,nan,nan
372061461,nan,nan,nan,-0.06101349,0.0,-0.018301072,0.0027000995,0.00068843266,0.2797284,-0.041270502,0.104952,nan,nan,8.0,nan,nan,nan
372268579,nan,nan,nan,-0.061109144,0.0,-0.011145101,0.0036667036,0.002906935,0.24668652,-0.08115909,0.215664,nan,nan,8.0,nan,nan,nan
372461912,nan,nan,nan,-0.060995612,0.0,-0.018708784,0.006618125,0.0012859395,0.28424078,-0.10054853,0.14344,nan,nan,8.0,nan,nan,nan
372668506,nan,nan,nan,-0.06111859,0.0,-0.01609531,0.001964313,0.0028950856,0.2926643,-0.035717502,0.215224,nan,nan,8.0,nan,nan,nan
372862009,nan,nan,nan,-0.06094267,0.0,-0.021240093,-0.0008327813,0.0007357114,0.30188277,0.011836216,0.108496,nan,nan,8.0,nan,nan,nan
373065414,nan,nan,nan,-0.060690615,0.0,-0.016764853,-0.003872376,0.002201111,0.2871041,0.06631582,0.187664,nan,nan,8.0,nan,nan,nan
373271066,nan,nan,nan,-0.060849555,0.0,-0.01905747,-0.004294183,-0.0005938211,0.30018777,0.067640744,-0.10850757,nan,nan,-8.0,nan,nan,nan
373469343,nan,nan,nan,-0.060890935,0.0,-0.018658333,-0.007377798,-0.0029667628,0.2996383,0.118481696,-0.217872,nan,nan,-8.0,nan,nan,nan
373663070,nan,nan,0.1440094,-0.06075407,0.0,-0.019611135,-0.011229335,-0.002051003,0.28540745,0.1634243,-0.181152,nan,nan,-8.0,nan,nan,nan
373860559,nan,nan,0.1596619,-0.060441382,0.0,-0.017491672,-0.015081342,-0.0013552706,0.24491301,0.2111643,-0.147256,nan,nan,-8.0,nan,nan,nan
374071710,nan,nan,nan,-0.06060711,0.0,-0.013872027,-0.0058795684,-0.0020050693,0.25472066,0.107961684,-0.179112,nan,nan,-8.0,nan,nan,nan
374260528,nan,nan,nan,-0.060224537,0.0,-0.019519659,-0.0042549255,-0.00031527554,0.2781062,0.060622025,-0.071024,nan,nan,-8.0,nan,nan,nan
374467305,nan,nan,nan,-0.060573507,0.0,-0.015717803,-0.0065818494,-0.0013069672,0.26043192,0.10905619,-0.144608,nan,nan,-8.0,nan,nan,nan
374660665,13.410869,-3.4355533,nan,-0.06046963,0.0,0.0,0.0,-0.08820068,0.0,0.0,-1.1879439,nan,nan,-8.0,nan,nan,nan
374862989,13.410869,-3.4355533,nan,-0.06046963,0.0,0.0,0.0,-0.47027618,0.0,0.0,-2.0445635,nan,nan,8.0,nan,nan,nan
375061206,13.410869,-3.4355533,nan,-0.06046963,0.0,0.0,0.0,-0.72781676,0.0,0.0,-0.51208925,nan,nan,8.0,nan,nan,nan
375272071,13.410869,-3.4355533,nan,-0.06046963,0.0,0.0,0.0,-0.7442065,0.0,0.0,0.0,nan,nan,0.0,nan,nan,nan
375461048,13.410869,-3.4355533,nan,-0.06046963,0.0,0.0,0.0,-0.7378556,0.0,0.0,0.0,nan,nan,0.0,nan,nan,nan
375667826,13.410869,-3.4355533,nan,-0.06046963,0.0,0.0,0.0,-0.73154116,0.0,0.0,0.0,nan,nan,0.0,nan,nan,nan
375861263,13.410869,-3.4355533,nan,-0.06046963,0.0,0.0,0.0,-0.6541694,0.0,0.0,1.112632,nan,nan,8.0,nan,nan,nan
376068296,13.410869,-3.4355533,nan,-0.06046963,0.0,0.0,0.0,-0.50104576,0.0,0.0,0.0,nan,nan,0.0,nan,nan,nan
376261674,13.410869,-3.4355533,nan,-0.06046963,0.0,0.0,0.0,-0.50104576,0.0,0.0,0.0,nan,nan,0.0,nan,nan,nan
376468233,13.410869,-3.4355533,nan,-0.06046963,0.0,0.0,0.0,-0.49820787,0.0,0.0,0.18562794,nan,nan,-8.0,nan,nan,nan
376661894,13.410869,-3.4355533,nan,-0.06046963,0.0,0.0,0.0,-0.3885268,0.0,0.0,0.74637836,nan,nan,-8.0,nan,nan,nan
376864270,13.410869,-3.4355533,nan,-0.06046963,0.0,0.0,0.0,-0.35370928,0.0,0.0,0.0,nan,nan,0.0,nan,nan,nan
377062087,13.410869,-3.4355533,nan,-0.06046963,0.0,0.0,0.0,-0.27797422,0.0,0.0,0.86524147,nan,nan,-8.0,nan,nan,nan
377268905,13.410869,-3.4355533,nan,-0.06046963,0.0,0.0,0.0,-0.20562615,0.0,0.0,0.0,nan,nan,0.0,nan,nan,nan
377471086,13.410869,-3.4355533,nan,-0.06046963,0.0,0.0,0.0,-0.20923729,0.0,0.0,0.0,nan,nan,0.0,nan,nan,nan
377660291,13.410869,-3.4355533,nan,-0.06046963,0.0,0.0,0.0,-0.21286158,0.0,0.0,0.0,nan,nan,0.0,nan,nan,nan
377862206,13.410869,-3.4355533,nan,-0.06046963,0.0,0.0,0.0,-0.21874139,0.0,0.0,-0.2873389,nan,nan,-8.0,nan,nan,nan
378060271,13.410869,-3.4355533,nan,-0.06046963,0.0,0.0,0.0,-0.3322543,0.0,0.0,-0.090696305,nan,nan,8.0,nan,nan,nan
378262709,13.410869,-3.4355533,nan,-0.06046963,0.0,0.0,0.0,-0.3983906,0.0,0.0,-0.5843158,nan,nan,8.0,nan,nan,nan
378460483,13.410869,-3.4355533,nan,-0.06046963,0.0,0.0,0.0,-0.42431325,0.0,0.0,0.0,nan,nan,0.0,nan,nan,nan
378671935,13.410869,-3.4355533,nan,-0.06046963,0.0,0.0,0.0,-0.42785475,0.0,0.0,-0.13058642,nan,nan,8.0,nan,nan,nan
378860743,13.410869,-3.4355533,nan,-0.06046963,0.0,0.0,0.0,-0.43355224,0.0,0.0,0.0,nan,nan,0.0,nan,nan,nan
379072117,13.410869,-3.4355533,nan,-0.07576085,0.0,0.0,0.0,-0.4381306,0.0,0.0,-0.035203114,nan,nan,8.0,nan,nan,nan
379260802,13.410869,-3.4355533,nan,-0.07576085,0.0,0.0,0.0,-0.44415715,0.0,0.0,-0.142464,nan,nan,-8.0,nan,nan,nan
379472049,13.410869,-3.4355533,nan,-0.07576085,0.0,0.0,0.0,-0.5472197,0.0,0.0,0.0,nan,nan,0.0,nan,nan,nan
379661221,13.410869,-3.4355533,nan,-0.07576085,0.0,0.0,0.0,-0.5472197,0.0,0.0,0.0,nan,nan,0.0,nan,nan,nan
379868043,13.410869,-3.4355533,nan,-0.07576085,0.0,0.0,0.0,-0.5472197,0.0,0.0,0.0,nan,nan,0.0,nan,nan,nan
380061197,13.410869,-3.4355533,nan,-0.07576085,0.0,0.0,0.0,-0.5472197,0.0,0.0,0.0,nan,nan,0.0,nan,nan,nan
380268181,13.410869,-3.4355533,nan,-0.07576085,0.0,0.0,0.0,-0.5472197,0.0,0.0,0.0,nan,nan,0.0,nan,nan,nan
380461326,13.410869,-3.4355533,nan,-0.07576085,0.0,0.0,0.0,-0.5530765,0.0,0.0,-0.12659782,nan,nan,-8.0,nan,nan,nan
380668266,13.410869,-3.4355533,nan,-0.07576085,0.0,0.0,0.0,-0.6090362,0.0,0.0,0.20179342,nan,nan,8.0,nan,nan,nan
380870583,13.410869,-3.4355533,nan,-0.07576085,0.0,0.0,0.0,-0.613118,0.0,0.0,-0.76355857,nan,nan,-8.0,nan,nan,nan
381068699,13.410869,-3.4355533,nan,-0.07576085,0.0,0.0,0.0,-0.6526287,0.0,0.0,0.0,nan,nan,0.0,nan,nan,nan
381261831,13.410869,-3.4355533,nan,-0.07576085,0.0,0.0,0.0,-0.62044793,0.0,0.0,0.71756,nan,nan,8.0,nan,nan,nan
381468866,13.410869,-3.4355533,nan,-0.07576085,0.0,0.0,0.0,-0.38621032,0.0,0.0,0.721122,nan,nan,-8.0,nan,nan,nan
381671118,13.410869,-3.4355533,nan,-0.07576085,0.0,0.0,0.0,-0.35370928,0.0,0.0,0.0,nan,nan,0.0,nan,nan,nan
381865037,13.410869,-3.4355533,nan,-0.07576085,0.0,0.0,0.0,-0.35370928,0.0,0.0,0.0,nan,nan,0.0,nan,nan,nan
382071290,13.410869,-3.4355533,nan,-0.07576085,0.0,0.0,0.0,-0.35370928,0.0,0.0,0.0,nan,nan,0.0,nan,nan,nan
382260482,13.410869,-3.4355533,nan,-0.07576085,0.0,0.0,0.0,-0.3654097,0.0,0.0,-0.4131769,nan,nan,-8.0,nan,nan,nan
382462450,13.410869,-3.4355533,nan,-0.07576085,0.0,0.0,0.0,-0.4347467,0.0,0.0,-0.49017602,nan,nan,-8.0,nan,nan,nan
382660550,13.410869,-3.4355533,nan,-0.07576085,0.0,0.0,0.0,-0.6868793,0.0,0.0,-1.8179497,nan,nan,8.0,nan,nan,nan
382871740,13.410869,-3.4355533,nan,-0.07576085,0.0,0.0,0.0,-0.9719248,0.0,0.0,-0.54875106,nan,nan,8.0,nan,nan,nan
383060518,13.410869,-3.4355533,nan,-0.07576085,0.0,0.0,0.0,-1.0599353,0.0,0.0,-0.41243207,nan,nan,8.0,nan,nan,nan
383272003,13.410869,-3.4355533,nan,-0.07576085,0.0,0.0,0.0,-1.0705667,0.0,0.0,0.0,nan,nan,0.0,nan,nan,nan
383461115,13.410869,-3.4355533,nan,-0.07576085,0.0,0.0,0.0,-1.0705667,0.0,0.0,0.0,nan,nan,0.0,nan,nan,nan
383664014,13.410869,-3.4355533,nan,-0.07576085,0.0,0.0,0.0,-1.0705667,0.0,0.0,0.0,nan,nan,0.0,nan,nan,nan
383861145,13.410869,-3.4355533,nan,-0.07576085,0.0,0.0,0.0,-1.0705667,0.0,0.0,0.0,nan,nan,0.0,nan,nan,nan
384072416,13.410869,-3.4355533,nan,-0.07576085,0.0,0.0,0.0,-0.9565781,0.0,0.0,0.26636764,nan,nan,-8.0,nan,nan,nan
384261126,13.410869,-3.4355533,nan,-0.07576085,0.0,0.0,0.0,-0.94810915,0.0,0.0,0.55121565,nan,nan,8.0,nan,nan,nan
384464146,13.410869,-3.4355533,nan,-0.07576085,0.0,0.0,0.0,-0.79240656,0.0,0.0,0.20867434,nan,nan,-8.0,nan,nan,nan
384661604,13.410869,-3.4355533,nan,-0.07576085,0.0,0.0,0.0,-0.8286916,0.0,0.0,-0.15179202,nan,nan,8.0,nan,nan,nan
384868388,13.410869,-3.4355533,nan,-0.07576085,0.0,0.0,0.0,-0.82399327,0.0,0.0,0.31339198,nan,nan,8.0,nan,nan,nan
385061821,13.410869,-3.4355533,nan,-0.07576085,0.0,0.0,0.0,-0.7819896,0.0,0.0,0.29620418,nan,nan,-8.0,nan,nan,nan
385268314,13.410869,-3.4355533,nan,-0.07576085,0.0,0.0,0.0,-0.6888699,0.0,0.0,1.1841359,nan,nan,8.0,nan,nan,nan
385461890,13.410869,-3.4355533,nan,-0.07576085,0.0,0.0,0.0,-0.5306151,0.0,0.0,0.70381314,nan,nan,8.0,nan,nan,nan
385669008,13.410869,-3.4355533,nan,-0.07576085,0.0,0.0,0.0,-0.31144637,0.0,0.0,0.8248749,nan,nan,-8.0,nan,nan,nan
385862818,13.410869,-3.4355533,nan,-0.07576085,0.0,0.0,0.0,-0.26892018,0.0,0.0,0.0,nan,nan,0.0,nan,nan,nan
386060568,13.410869,-3.4355533,nan,-0.07576085,0.0,0.0,0.0,-0.26892018,0.0,0.0,0.0,nan,nan,0.0,nan,nan,nan
386262410,13.410869,-3.4355533,nan,-0.07576085,0.0,0.0,0.0,-0.27273434,0.0,0.0,-0.026955709,nan,nan,8.0,nan,nan,nan
386460495,13.410869,-3.4355533,nan,-0.07576085,0.0,0.0,0.0,-0.43503264,0.0,0.0,-1.6116757,nan,nan,-8.0,nan,nan,nan
386663444,13.410869,-3.4355533,nan,-0.07576085,0.0,0.0,0.0,-0.80976367,0.0,0.0,-1.2992461,nan,nan,8.0,nan,nan,nan
386860181,13.410869,-3.4355533,nan,-0.07576085,0.0,0.0,0.0,-0.91526616,0.0,0.0,0.0,nan,nan,0.0,nan,nan,nan
387072291,13.410869,-3.4355533,nan,-0.07576085,0.0,0.0,0.0,-0.91526616,0.0,0.0,0.0,nan,nan,0.0,nan,nan,nan
387260748,13.410869,-3.4355533,nan,-0.07576085,0.0,0.0,0.0,-0.91121763,0.0,0.0,0.254512,nan,nan,8.0,nan,nan,nan
387467244,13.410869,-3.4355533,nan,-0.07576085,0.0,0.0,0.0,-0.7486764,0.0,0.0,1.5797246,nan,nan,8.0,nan,nan,nan
387660573,13.410869,-3.4355533,nan,-0.07576085,0.0,0.0,0.0,-0.3656937,0.0,0.0,1.6244965,nan,nan,-8.0,nan,nan,nan
387863458,13.410869,-3.4355533,nan,-0.07576085,0.0,0.0,0.0,-0.20075692,0.0,0.0,0.001000464,nan,nan,-8.0,nan,nan,nan
388061109,13.410869,-3.4355533,nan,-0.07576085,0.0,0.0,0.0,-0.20923729,0.0,0.0,0.0,nan,nan,0.0,nan,nan,nan
388263569,13.410869,-3.4355533,nan,-0.07576085,0.0,0.0,0.0,-0.17769437,0.0,0.0,0.090925395,nan,nan,-8.0,nan,nan,nan
388461272,13.410869,-3.4355533,nan,-0.07576085,0.0,0.0,0.0,-0.120117754,0.0,0.0,0.4818993,nan,nan,-8.0,nan,nan,nan
388667885,13.410869,-3.4355533,nan,-0.07576085,0.0,0.0,0.0,-0.102284506,0.0,0.0,0.0,nan,nan,0.0,nan,nan,nan
388861463,13.410869,-3.4355533,nan,-0.07576085,0.0,0.0,0.0,-0.038430583,0.0,0.0,0.529717,nan,nan,-8.0,nan,nan,nan
389072878,13.410869,-3.4355533,nan,-0.07576085,0.0,0.0,0.0,-0.026849201,0.0,0.0,0.27282235,nan,nan,8.0,nan,nan,nan
389261895,13.410869,-3.4355533,nan,-0.07576085,0.0,0.0,0.0,0.025024977,0.0,0.0,0.38094378,nan,nan,-8.0,nan,nan,nan
389468436,13.410869,-3.4355533,-7.880977,-0.07576085,0.0,0.0,0.0,-2.910383e-10,0.0,0.0,0.0,nan,nan,0.0,nan,nan,nan
389661987,13.410869,-3.4355533,nan,-0.07576085,0.0,0.0,0.0,-0.025335511,0.0,0.0,0.323896,nan,nan,8.0,nan,nan,nan
389868863,13.410869,-3.4355533,nan,-0.07576085,0.0,0.0,0.0,0.060230915,0.0,0.0,0.0,nan,nan,0.0,nan,nan,nan
390061950,13.410869,-3.4355533,nan,-0.07576085,0.0,0.0,0.0,0.08340225,0.0,0.0,0.18927759,nan,nan,8.0,nan,nan,nan
390269019,13.410869,-3.4355533,nan,-0.07576085,0.0,0.0,0.0,0.22013584,0.0,0.0,0.32344356,nan,nan,-8.0,nan,nan,nan
390471093,13.410869,-3.4355533,nan,-0.07576085,0.0,0.0,0.0,0.15962203,0.0,0.0,-0.19822171,nan,nan,8.0,nan,nan,nan
390673644,13.410869,-3.4355533,nan,-0.07576085,0.0,0.0,0.0,0.16535144,0.0,0.0,0.0,nan,nan,0.0,nan,nan,nan
390862824,13.410869,-3.4355533,nan,-0.07576085,0.0,0.0,0.0,0.25475457,0.0,0.0,0.21922262,nan,nan,-8.0,nan,nan,nan
391060241,13.410869,-3.4355533,nan,-0.07576085,0.0,0.0,0.0,0.2501977,0.0,0.0,0.0,nan,nan,0.0,nan,nan,nan
391271697,13.410869,-3.4355533,nan,-0.07576085,0.0,0.0,0.0,0.2501977,0.0,0.0,0.0,nan,nan,0.0,nan,nan,nan
391460393,13.410869,-3.4355533,nan,-0.07576085,0.0,0.0,0.0,0.27088302,0.0,0.0,0.575296,nan,nan,8.0,nan,nan,nan
391671813,13.410869,-3.4355533,nan,-0.07576085,0.0,0.0,0.0,0.3251029,0.0,0.0,0.0,nan,nan,0.0,nan,nan,nan
391860904,13.410869,-3.4355533,nan,-0.07576085,0.0,0.0,0.0,0.33284277,0.0,0.0,0.0,nan,nan,0.0,nan,nan,nan
392063421,13.410869,-3.4355533,nan,-0.07576085,0.0,0.0,0.0,0.33284277,0.0,0.0,0.0,nan,nan,0.0,nan,nan,nan
392261212,13.410869,-3.4355533,nan,-0.07576085,0.0,0.0,0.0,0.3354518,0.0,0.0,0.0,nan,nan,0.0,nan,nan,nan
392472427,13.410869,-3.4355533,nan,-0.07576085,0.0,0.0,0.0,0.35309854,0.0,0.0,0.12832975,nan,nan,-8.0,nan,nan,nan
392661030,13.410869,-3.4355533,nan,-0.07576085,0.0,0.0,0.0,0.4492568,0.0,0.0,1.095942,nan,nan,8.0,nan,nan,nan
392868240,13.410869,-3.4355533,nan,-0.07576085,0.0,0.0,0.0,0.61358696,0.0,0.0,0.014287442,nan,nan,-8.0,nan,nan,nan
393061724,13.410869,-3.4355533,nan,-0.07576085,0.0,0.0,0.0,0.52886933,0.0,0.0,-0.58896554,nan,nan,-8.0,nan,nan,nan
393263953,13.410869,-3.4355533,nan,-0.07576085,0.0,0.0,0.0,0.40108797,0.0,0.0,-0.5913786,nan,nan,8.0,nan,nan,nan
393461448,13.410869,-3.4355533,nan,-0.07576085,0.0,0.0,0.0,0.30265543,0.0,0.0,-0.009659335,nan,nan,8.0,nan,nan,nan
393668576,13.410869,-3.4355533,nan,-0.07576085,0.0,0.0,0.0,0.30264962,0.0,0.0,0.0,nan,nan,0.0,nan,nan,nan
393861749,13.410869,-3.4355533,nan,-0.07576085,0.0,0.0,0.0,0.29438278,0.0,0.0,-0.24409308,nan,nan,8.0,nan,nan,nan
394068788,13.410869,-3.4355533,nan,-0.07576085,0.0,0.0,0.0,0.32352296,0.0,0.0,0.865448,nan,nan,8.0,nan,nan,nan
394271033,13.410869,-3.4355533,nan,-0.07576085,0.0,0.0,0.0,0.48842844,0.0,0.0,0.1255776,nan,nan,-8.0,nan,nan,nan
394468821,13.410869,-3.4355533,nan,-0.07576085,0.0,0.0,0.0,0.36132386,0.0,0.0,-1.0809084,nan,nan,8.0,nan,nan,nan
394662183,13.410869,-3.4355533,nan,-0.07576085,0.0,0.0,0.0,0.2808253,0.0,0.0,0.3198462,nan,nan,8.0,nan,nan,nan
394865235,13.410869,-3.4355533,nan,-0.07576085,0.0,0.0,0.0,0.39999816,0.0,0.0,0.073818564,nan,nan,-8.0,nan,nan,nan
395063334,13.410869,-3.4355533,nan,-0.07576085,0.0,0.0,0.0,0.28692314,0.0,0.0,-0.5550008,nan,nan,8.0,nan,nan,nan
395260371,13.410869,-3.4355533,nan,-0.07576085,0.0,0.0,0.0,0.26639977,0.0,0.0,-0.12368548,nan,nan,8.0,nan,nan,nan
395471520,13.410869,-3.4355533,nan,-0.07576085,0.0,0.0,0.0,0.2265274,0.0,0.0,-0.789088,nan,nan,-8.0,nan,nan,nan
395660667,13.410869,-3.4355533,nan,-0.07576085,0.0,0.0,0.0,0.13969709,0.0,0.0,0.144616,nan,nan,8.0,nan,nan,nan
395868218,13.410869,-3.4355533,nan,-0.07576085,0.0,0.0,0.0,0.28917497,0.0,0.0,0.5045992,nan,nan,-8.0,nan,nan,nan
396060996,13.410869,-3.4355533,nan,-0.07576085,0.0,0.0,0.0,0.29358312,0.0,0.0,-0.09406653,nan,nan,8.0,nan,nan,nan
396272040,13.410869,-3.4355533,nan,-0.07576085,0.0,0.0,0.0,0.29065892,0.0,0.0,0.0,nan,nan,0.0,nan,nan,nan
396461046,13.410869,-3.4355533,nan,-0.07576085,0.0,0.0,0.0,0.29065892,0.0,0.0,0.0,nan,nan,0.0,nan,nan,nan
396672444,13.410869,-3.4355533,nan,-0.07576085,0.0,0.0,0.0,0.29065892,0.0,0.0,0.0,nan,nan,0.0,nan,nan,nan
396861934,13.410869,-3.4355533,nan,-0.07576085,0.0,0.0,0.0,0.29065892,0.0,0.0,0.0,nan,nan,0.0,nan,nan,nan
397063389,13.410869,-3.4355533,nan,-0.07576085,0.0,0.0,0.0,0.29065892,0.0,0.0,0.0,nan,nan,0.0,nan,nan,nan
397262015,13.410869,-3.4355533,nan,-0.07576085,0.0,0.0,0.0,0.29065892,0.0,0.0,0.0,nan,nan,0.0,nan,nan,nan
397468119,13.410869,-3.4355533,nan,-0.07576085,0.0,0.0,0.0,0.29065892,0.0,0.0,0.0,nan,nan,0.0,nan,nan,nan
397661597,13.410869,-3.4355533,nan,-0.07576085,0.0,0.0,0.0,0.33601812,0.0,0.0,0.11776303,nan,nan,8.0,nan,nan,nan
397868787,13.410869,-3.4355533,nan,-0.07576085,0.0,0.0,0.0,0.3541278,0.0,0.0,0.0,nan,nan,0.0,nan,nan,nan
398062174,13.410869,-3.4355533,nan,-0.07576085,0.0,0.0,0.0,0.35876885,0.0,0.0,0.18722974,nan,nan,8.0,nan,nan,nan
398268569,13.410869,-3.4355533,nan,-0.07576085,0.0,0.0,0.0,0.4778809,0.0,0.0,0.14199542,nan,nan,-8.0,nan,nan,nan
398461877,13.410869,-3.4355533,nan,-0.07576085,0.0,0.0,0.0,0.41252595,0.0,0.0,-0.39830983,nan,nan,8.0,nan,nan,nan
398665348,13.410869,-3.4355533,nan,-0.07576085,0.0,0.0,0.0,0.45411754,0.0,0.0,0.90780807,nan,nan,8.0,nan,nan,nan
398871134,13.410869,-3.4355533,nan,-0.07576085,0.0,0.0,0.0,0.56591725,0.0,0.0,0.036229208,nan,nan,-8.0,nan,nan,nan
399069438,13.410869,-3.4355533,nan,-0.07576085,0.0,0.0,0.0,0.50336534,0.0,0.0,0.0,nan,nan,0.0,nan,nan,nan
399271630,13.410869,-3.4355533,nan,-0.07576085,0.0,0.0,0.0,0.50336534,0.0,0.0,0.0,nan,nan,0.0,nan,nan,nan
399460540,13.410869,-3.4355533,nan,-0.07576085,0.0,0.0,0.0,0.50336534,0.0,0.0,0.0,nan,nan,0.0,nan,nan,nan
399671817,13.410869,-3.4355533,nan,-0.07576085,0.0,0.0,0.0,0.50336534,0.0,0.0,0.0,nan,nan,0.0,nan,nan,nan
399860889,13.410869,-3.4355533,nan,-0.07576085,0.0,0.0,0.0,0.50336534,0.0,0.0,0.0,nan,nan,0.0,nan,nan,nan
400071771,13.410869,-3.4355533,nan,-0.07576085,0.0,0.0,0.0,0.50336534,0.0,0.0,0.0,nan,nan,0.0,nan,nan,nan
400265140,13.410869,-3.4355533,nan,-0.07576085,0.0,0.0,0.0,0.50336534,0.0,0.0,0.0,nan,nan,0.0,nan,nan,nan
400472438,13.410869,-3.4355533,nan,-0.07576085,0.0,0.0,0.0,0.5874569,0.0,0.0,0.47280625,nan,nan,-8.0,nan,nan,nan
400661322,13.410869,-3.4355533,nan,-0.07576085,0.0,0.0,0.0,0.6651968,0.0,0.0,-0.21447329,nan,nan,-8.0,nan,nan,nan
400872365,13.410869,-3.4355533,nan,-0.07576085,0.0,0.0,0.0,0.6362998,0.0,0.0,-0.42633557,nan,nan,-8.0,nan,nan,nan
401061425,13.410869,-3.4355533,nan,-0.07576085,0.0,0.0,0.0,0.42134583,0.0,0.0,-1.4194713,nan,nan,8.0,nan,nan,nan
401268055,13.410869,-3.4355533,nan,-0.07576085,0.0,0.0,0.0,0.25034562,0.0,0.0,-0.32245478,nan,nan,8.0,nan,nan,nan
401461528,13.410869,-3.4355533,nan,-0.07576085,0.0,0.0,0.0,0.19277997,0.0,0.0,-0.15419975,nan,nan,8.0,nan,nan,nan
401673561,13.410869,-3.4355533,nan,-0.07576085,0.0,0.0,0.0,0.21690583,0.0,0.0,0.723784,nan,nan,8.0,nan,nan,nan
401861927,13.410869,-3.4355533,nan,-0.07576085,0.0,0.0,0.0,0.3478029,0.0,0.0,0.9145866,nan,nan,8.0,nan,nan,nan
402068612,13.410869,-3.4355533,nan,-0.07576085,0.0,0.0,0.0,0.3996316,0.0,0.0,0.0,nan,nan,0.0,nan,nan,nan
402262041,13.410869,-3.4355533,nan,-0.07576085,0.0,0.0,0.0,0.3996316,0.0,0.0,0.0,nan,nan,0.0,nan,nan,nan
402468930,13.410869,-3.4355533,nan,-0.07576085,0.0,0.0,0.0,0.38296795,0.0,0.0,-0.4606663,nan,nan,-8.0,nan,nan,nan
402661961,13.410869,-3.4355533,nan,-0.07576085,0.0,0.0,0.0,0.300705,0.0,0.0,-0.40091944,nan,nan,8.0,nan,nan,nan
402869098,13.410869,-3.4355533,nan,-0.07576085,0.0,0.0,0.0,0.29303008,0.0,0.0,0.0,nan,nan,0.0,nan,nan,nan
403062656,13.410869,-3.4355533,nan,-0.07576085,0.0,0.0,0.0,0.36017933,0.0,0.0,0.5803876,nan,nan,8.0,nan,nan,nan
403269049,13.410869,-3.4355533,nan,-0.07576085,0.0,0.0,0.0,0.49132258,0.0,0.0,-0.013250262,nan,nan,-8.0,nan,nan,nan
403471834,13.410869,-3.4355533,nan,-0.07576085,0.0,0.0,0.0,0.436338,0.0,0.0,0.045238554,nan,nan,-8.0,nan,nan,nan
403660367,13.410869,-3.4355533,nan,-0.07576085,0.0,0.0,0.0,0.43646592,0.0,0.0,0.0,nan,nan,0.0,nan,nan,nan
403871588,13.410869,-3.4355533,nan,-0.07576085,0.0,0.0,0.0,0.43646592,0.0,0.0,0.0,nan,nan,0.0,nan,nan,nan
404060517,13.410869,-3.4355533,nan,-0.07576085,0.0,0.0,0.0,0.5185272,0.0,0.0,0.75912863,nan,nan,-8.0,nan,nan,nan
404272095,13.410869,-3.4355533,nan,-0.07576085,0.0,0.0,0.0,0.5056557,0.0,0.0,-0.5097722,nan,nan,8.0,nan,nan,nan
404461048,13.410869,-3.4355533,nan,-0.07576085,0.0,0.0,0.0,0.48941398,0.0,0.0,0.0,nan,nan,0.0,nan,nan,nan
404672339,13.410869,-3.4355533,nan,-0.07576085,0.0,0.0,0.0,0.48941398,0.0,0.0,0.0,nan,nan,0.0,nan,nan,nan
404861859,13.410869,-3.4355533,nan,-0.07576085,0.0,0.0,0.0,0.46029493,0.0,0.0,-0.33288223,nan,nan,-8.0,nan,nan,nan
405067782,13.410869,-3.4355533,nan,-0.07576085,0.0,0.0,0.0,0.34350032,0.0,0.0,-0.46046752,nan,nan,8.0,nan,nan,nan
405261513,13.410869,-3.4355533,nan,-0.07576085,0.0,0.0,0.0,0.3124887,0.0,0.0,0.0,nan,nan,0.0,nan,nan,nan
405472807,13.410869,-3.4355533,nan,-0.07576085,0.0,0.0,0.0,0.3124887,0.0,0.0,0.0,nan,nan,0.0,nan,nan,nan
405662147,13.410869,-3.4355533,nan,-0.07576085,0.0,0.0,0.0,0.3124887,0.0,0.0,0.0,nan,nan,0.0,nan,nan,nan
405868600,13.410869,-3.4355533,nan,-0.07576085,0.0,0.0,0.0,0.30513376,0.0,0.0,-0.472179,nan,nan,-8.0,nan,nan,nan
406061595,13.410869,-3.4355533,nan,-0.07576085,0.0,0.0,0.0,0.19875723,0.0,0.0,0.052606657,nan,nan,8.0,nan,nan,nan
406268569,13.410869,-3.4355533,nan,-0.07576085,0.0,0.0,0.0,0.36423144,0.0,0.0,0.9772595,nan,nan,-8.0,nan,nan,nan
406470904,13.410869,-3.4355533,nan,-0.07576085,0.0,0.0,0.0,0.419533,0.0,0.0,-0.53208447,nan,nan,-8.0,nan,nan,nan
406669105,13.410869,-3.4355533,nan,-0.07576085,0.0,0.0,0.0,0.23647368,0.0,0.0,-0.52115965,nan,nan,8.0,nan,nan,nan
406871026,13.410869,-3.4355533,nan,-0.07576085,0.0,0.0,0.0,0.2943366,0.0,0.0,1.0942644,nan,nan,8.0,nan,nan,nan
407060208,13.410869,-3.4355533,nan,-0.07576085,0.0,0.0,0.0,0.45827785,0.0,0.0,0.22180532,nan,nan,-8.0,nan,nan,nan
407262243,13.410869,-3.4355533,nan,-0.07576085,0.0,0.0,0.0,0.42392117,0.0,0.0,0.0,nan,nan,0.0,nan,nan,nan
407460460,13.410869,-3.4355533,nan,-0.07576085,0.0,0.0,0.0,0.42392117,0.0,0.0,0.0,nan,nan,0.0,nan,nan,nan
407671679,13.410869,-3.4355533,nan,-0.07576085,0.0,0.0,0.0,0.42392117,0.0,0.0,0.0,nan,nan,0.0,nan,nan,nan
407860506,13.410869,-3.4355533,nan,-0.07576085,0.0,0.0,0.0,0.41861856,0.0,0.0,-0.20878422,nan,nan,-8.0,nan,nan,nan
408067186,13.410869,-3.4355533,nan,-0.07576085,0.0,0.0,0.0,0.26211149,0.0,0.0,-0.59918,nan,nan,8.0,nan,nan,nan
408260798,13.410869,-3.4355533,nan,-0.07576085,0.0,0.0,0.0,0.22743116,0.0,0.0,0.0,nan,nan,0.0,nan,nan,nan
408472202,13.410869,-3.4355533,nan,-0.07576085,0.0,0.0,0.0,0.22743116,0.0,0.0,0.0,nan,nan,0.0,nan,nan,nan
408660809,13.410869,-3.4355533,nan,-0.07576085,0.0,0.0,0.0,0.19020188,0.0,0.0,-0.6781091,nan,nan,-8.0,nan,nan,nan
408872354,13.410869,-3.4355533,nan,-0.07576085,0.0,0.0,0.0,0.097927175,0.0,0.0,-0.08800316,nan,nan,8.0,nan,nan,nan
409061200,13.410869,-3.4355533,nan,-0.07576085,0.0,0.0,0.0,0.09221863,0.0,0.0,0.0,nan,nan,0.0,nan,nan,nan
409268114,13.410869,-3.4355533,nan,-0.07576085,0.0,0.0,0.0,0.09481949,0.0,0.0,0.0,nan,nan,0.0,nan,nan,nan
409461561,13.410869,-3.4355533,nan,-0.07576085,0.0,0.0,0.0,0.07350682,0.0,0.0,-0.574868,nan,nan,-8.0,nan,nan,nan
409668397,13.410869,-3.4355533,nan,-0.07576085,0.0,0.0,0.0,0.024227556,0.0,0.0,0.0,nan,nan,0.0,nan,nan,nan
409870738,13.410869,-3.4355533,nan,-0.07576085,0.0,0.0,0.0,0.020968929,0.0,0.0,0.0,nan,nan,0.0,nan,nan,nan
410073085,13.410869,-3.4355533,nan,-0.07576085,0.0,0.0,0.0,0.010183892,0.0,0.0,0.0,nan,nan,0.0,nan,nan,nan
410261712,13.410869,-3.4355533,nan,-0.07576085,0.0,0.0,0.0,0.02128668,0.0,0.0,0.28624356,nan,nan,-8.0,nan,nan,nan
410468708,13.410869,-3.4355533,nan,-0.07576085,0.0,0.0,0.0,0.091749735,0.0,0.0,0.932344,nan,nan,8.0,nan,nan,nan
410662352,13.410869,-3.4355533,nan,-0.07576085,0.0,0.0,0.0,0.16246514,0.0,0.0,-0.40251994,nan,nan,-8.0,nan,nan,nan
411062168,13.410869,-3.4355533,nan,-0.07576085,0.0,0.0,0.0,0.09351787,0.0,0.0,-0.6617629,nan,nan,8.0,nan,nan,nan
411260320,13.410869,-3.4355533,nan,-0.07576085,0.0,0.0,0.0,0.03299071,0.0,0.0,0.0,nan,nan,0.0,nan,nan,nan
411471859,13.410869,-3.4355533,nan,-0.07576085,0.0,0.0,0.0,0.09384722,0.0,0.0,0.50101095,nan,nan,8.0,nan,nan,nan
411660365,13.410869,-3.4355533,nan,-0.07576085,0.0,0.0,0.0,0.19030394,0.0,0.0,0.12585594,nan,nan,-8.0,nan,nan,nan
411871602,13.410869,-3.4355533,nan,-0.07576085,0.0,0.0,0.0,0.1894966,0.0,0.0,0.0,nan,nan,0.0,nan,nan,nan
412060814,13.410869,-3.4355533,nan,-0.07576085,0.0,0.0,0.0,0.21017751,0.0,0.0,0.23622696,nan,nan,-8.0,nan,nan,nan
412263329,13.410869,-3.4355533,nan,-0.07576085,0.0,0.0,0.0,0.41412237,0.0,0.0,1.3527433,nan,nan,-8.0,nan,nan,nan
412460682,13.410869,-3.4355533,nan,-0.07576085,0.0,0.0,0.0,0.525295,0.0,0.0,-0.22616878,nan,nan,-8.0,nan,nan,nan
412671989,13.410869,-3.4355533,nan,-0.07576085,0.0,0.0,0.0,0.41468874,0.0,0.0,0.0,nan,nan,0.0,nan,nan,nan
412860895,13.410869,-3.4355533,nan,-0.07576085,0.0,0.0,0.0,0.40547732,0.0,0.0,-0.383904,nan,nan,-8.0,nan,nan,nan
413072471,13.410869,-3.4355533,nan,-0.07576085,0.0,0.0,0.0,0.24700373,0.0,0.0,-0.5596075,nan,nan,8.0,nan,nan,nan
413261605,13.410869,-3.4355533,nan,-0.07576085,0.0,0.0,0.0,0.22344223,0.0,0.0,0.0,nan,nan,0.0,nan,nan,nan
413468753,13.410869,-3.4355533,nan,-0.07576085,0.0,0.0,0.0,0.2010528,0.0,0.0,-0.54325604,nan,nan,-8.0,nan,nan,nan
413661840,13.410869,-3.4355533,nan,-0.07576085,0.0,0.0,0.0,0.12485327,0.0,0.0,0.29755604,nan,nan,8.0,nan,nan,nan
413868356,13.410869,-3.4355533,nan,-0.07576085,0.0,0.0,0.0,0.33303326,0.0,0.0,1.1183422,nan,nan,-8.0,nan,nan,nan
414061792,13.410869,-3.4355533,nan,-0.07576085,0.0,0.0,0.0,0.3996888,0.0,0.0,-0.42918578,nan,nan,-8.0,nan,nan,nan
414268919,13.410869,-3.4355533,nan,-0.07576085,0.0,0.0,0.0,0.31212953,0.0,0.0,-0.5861139,nan,nan,8.0,nan,nan,nan
414471152,13.410869,-3.4355533,nan,-0.07576085,0.0,0.0,0.0,0.24418354,0.0,0.0,-0.8366699,nan,nan,8.0,nan,nan,nan
414673145,13.410869,-3.4355533,nan,-0.07576085,0.0,0.0,0.0,0.19648917,0.0,0.0,-0.251184,nan,nan,-8.0,nan,nan,nan
414871744,13.410869,-3.4355533,nan,-0.07576085,0.0,0.0,0.0,0.14202625,0.0,0.0,0.184016,nan,nan,8.0,nan,nan,nan
415060330,13.410869,-3.4355533,nan,-0.07576085,0.0,0.0,0.0,0.20212261,0.0,0.0,-0.16444324,nan,nan,8.0,nan,nan,nan
415271334,13.410869,-3.4355533,nan,-0.07576085,0.0,0.0,0.0,0.2845885,0.0,0.0,0.83407205,nan,nan,-8.0,nan,nan,nan
415465043,13.410869,-3.4355533,nan,-0.07576085,0.0,0.0,0.0,0.29606378,0.0,0.0,-0.7155919,nan,nan,-8.0,nan,nan,nan
415671692,13.410869,-3.4355533,nan,-0.07576085,0.0,0.0,0.0,0.12959215,0.0,0.0,-0.16129151,nan,nan,8.0,nan,nan,nan
415860617,13.410869,-3.4355533,nan,-0.07576085,0.0,0.0,0.0,0.1093126,0.0,0.0,-0.13480407,nan,nan,8.0,nan,nan,nan
416071992,13.410869,-3.4355533,nan,-0.07576085,0.0,0.0,0.0,0.2182402,0.0,0.0,0.682503,nan,nan,-8.0,nan,nan,nan
416261054,13.410869,-3.4355533,nan,-0.07576085,0.0,0.0,0.0,0.25019774,0.0,0.0,0.0,nan,nan,0.0,nan,nan,nan
416471891,13.410869,-3.4355533,nan,-0.07576085,0.0,0.0,0.0,0.21159251,0.0,0.0,-0.770506,nan,nan,-8.0,nan,nan,nan
416660974,13.410869,-3.4355533,nan,-0.07576085,0.0,0.0,0.0,0.09787513,0.0,0.0,0.08313817,nan,nan,8.0,nan,nan,nan
416864042,13.410869,-3.4355533,nan,-0.07576085,0.0,0.0,0.0,0.21649487,0.0,0.0,0.5628983,nan,nan,0.0,nan,nan,nan
417061380,13.410869,-3.4355533,nan,-0.07576085,0.0,0.0,0.0,0.3828753,0.0,0.0,0.5177857,nan,nan,-8.0,nan,nan,nan
417273250,13.410869,-3.4355533,nan,-0.07576085,0.0,0.0,0.0,0.313083,0.0,0.0,-1.1767663,nan,nan,-8.0,nan,nan,nan
417461681,13.410869,-3.4355533,nan,-0.07576085,0.0,0.0,0.0,0.15484208,0.0,0.0,-0.11924286,nan,nan,8.0,nan,nan,nan
417672748,13.410869,-3.4355533,nan,-0.07576085,0.0,0.0,0.0,0.17712025,0.0,0.0,-0.4762125,nan,nan,-8.0,nan,nan,nan
417861724,13.410869,-3.4355533,nan,-0.07576085,0.0,0.0,0.0,0.133877,0.0,0.0,0.0,nan,nan,0.0,nan,nan,nan
418068830,13.410869,-3.4355533,nan,-0.07576085,0.0,0.0,0.0,0.119319595,0.0,0.0,-0.0008509606,nan,nan,8.0,nan,nan,nan
418262512,13.410869,-3.4355533,nan,-0.07576085,0.0,0.0,0.0,0.09015922,0.0,0.0,-0.09114363,nan,nan,8.0,nan,nan,nan
418468709,13.410869,-3.4355533,nan,-0.07576085,0.0,0.0,0.0,0.08453064,0.0,0.0,-0.28592,nan,nan,-8.0,nan,nan,nan
418662015,13.410869,-3.4355533,nan,-0.07576085,0.0,0.0,0.0,0.06614722,0.0,0.0,0.0,nan,nan,0.0,nan,nan,nan
418868991,13.410869,-3.4355533,nan,-0.07576085,0.0,0.0,0.0,0.05127085,0.0,0.0,-0.07086338,nan,nan,8.0,nan,nan,nan
419062134,13.410869,-3.4355533,nan,-0.07576085,0.0,0.0,0.0,0.037643988,0.0,0.0,-0.12179582,nan,nan,-8.0,nan,nan,nan
419269320,13.410869,-3.4355533,nan,-0.07576085,0.0,0.0,0.0,0.016642626,0.0,0.0,0.0,nan,nan,0.0,nan,nan,nan
419471682,13.410869,-3.4355533,nan,-0.07576085,0.0,0.0,0.0,0.019885506,0.0,0.0,0.0,nan,nan,0.0,nan,nan,nan
419660576,13.410869,-3.4355533,nan,-0.07576085,0.0,0.0,0.0,0.058957245,0.0,0.0,0.3662852,nan,nan,-8.0,nan,nan,nan
419867531,13.410869,-3.4355533,nan,-0.07576085,0.0,0.0,0.0,0.06734254,0.0,0.0,0.0,nan,nan,0.0,nan,nan,nan
420060898,13.410869,-3.4355533,nan,-0.07576085,0.0,0.0,0.0,0.06734254,0.0,0.0,0.0,nan,nan,0.0,nan,nan,nan
420272040,13.410869,-3.4355533,nan,-0.07576085,0.0,0.0,0.0,0.06734254,0.0,0.0,0.0,nan,nan,0.0,nan,nan,nan
420460941,13.410869,-3.4355533,nan,-0.07576085,0.0,0.0,0.0,0.06734254,0.0,0.0,0.0,nan,nan,0.0,nan,nan,nan
420672391,13.410869,-3.4355533,nan,-0.07576085,0.0,0.0,0.0,0.06734254,0.0,0.0,0.0,nan,nan,0.0,nan,nan,nan
420861291,13.410869,-3.4355533,nan,-0.07576085,0.0,0.0,0.0,0.06734254,0.0,0.0,0.0,nan,nan,0.0,nan,nan,nan
421067736,13.410869,-3.4355533,nan,-0.07576085,0.0,0.0,0.0,0.06734254,0.0,0.0,0.0,nan,nan,0.0,nan,nan,nan
421261598,13.410869,-3.4355533,nan,-0.07576085,0.0,0.0,0.0,0.06734254,0.0,0.0,0.0,nan,nan,0.0,nan,nan,nan
421464577,13.410869,-3.4355533,nan,-0.07576085,0.0,0.0,0.0,0.06734254,0.0,0.0,0.0,nan,nan,0.0,nan,nan,nan
421661506,13.410869,-3.4355533,nan,-0.07576085,0.0,0.0,0.0,0.06734254,0.0,0.0,0.0,nan,nan,0.0,nan,nan,nan
421868640,13.410869,-3.4355533,nan,-0.07576085,0.0,0.0,0.0,0.06734254,0.0,0.0,0.0,nan,nan,0.0,nan,nan,nan
422061921,13.410869,-3.4355533,nan,-0.07576085,0.0,0.0,0.0,0.06734254,0.0,0.0,0.0,nan,nan,0.0,nan,nan,nan
422268761,13.410869,-3.4355533,nan,-0.07576085,0.0,0.0,0.0,0.06734254,0.0,0.0,0.0,nan,nan,0.0,nan,nan,nan
422471201,13.410869,-3.4355533,nan,-0.07576085,0.0,0.0,0.0,0.06734254,0.0,0.0,0.0,nan,nan,0.0,nan,nan,nan
422660421,13.410869,-3.4355533,nan,-0.07576085,0.0,0.0,0.0,0.06734254,0.0,0.0,0.0,nan,nan,0.0,nan,nan,nan
422862465,13.410869,-3.4355533,nan,-0.07576085,0.0,0.0,0.0,0.06734254,0.0,0.0,0.0,nan,nan,0.0,nan,nan,nan
423069180,13.410869,-3.4355533,nan,-0.07576085,0.0,0.0,0.0,0.06734254,0.0,0.0,0.0,nan,nan,0.0,nan,nan,nan
423271326,13.410869,-3.4355533,nan,-0.07576085,0.0,0.0,0.0,0.06734254,0.0,0.0,0.0,nan,nan,0.0,nan,nan,nan
423460545,13.410869,-3.4355533,nan,-0.07576085,0.0,0.0,0.0,0.06734254,0.0,0.0,0.0,nan,nan,0.0,nan,nan,nan
423668038,13.410869,-3.4355533,nan,-0.07576085,0.0,0.0,0.0,0.06734254,0.0,0.0,0.0,nan,nan,0.0,nan,nan,nan
423860827,13.410869,-3.4355533,nan,-0.07576085,0.0,0.0,0.0,0.06734254,0.0,0.0,0.0,nan,nan,0.0,nan,nan,nan
424071876,13.410869,-3.4355533,nan,-0.07576085,0.0,0.0,0.0,0.06734254,0.0,0.0,0.0,nan,nan,0.0,nan,nan,nan
424260752,13.410869,-3.4355533,nan,-0.07576085,0.0,0.0,0.0,0.06734254,0.0,0.0,0.0,nan,nan,0.0,nan,nan,nan
424463313,nan,nan,nan,-0.10701936,0.0,-0.018497065,-0.013749249,0.00194005,0.26516995,0.1971063,0.176184,nan,nan,8.0,nan,nan,nan
424660983,nan,nan,nan,-0.10692457,0.0,-0.022551183,-0.018612882,0.00031513348,0.26284945,0.21694587,0.071008,nan,nan,8.0,nan,nan,nan
424868022,nan,nan,nan,-0.107007675,0.0,-0.019618344,-0.016612839,0.0012484915,0.25769222,0.21821412,0.141336,nan,nan,8.0,nan,nan,nan
425061233,nan,nan,nan,-0.106751494,0.0,-0.020254435,-0.017849948,0.00030457228,0.24596949,0.21676944,0.069808,nan,nan,8.0,nan,nan,nan
425268297,nan,nan,nan,-0.10649257,0.0,-0.015120035,-0.014122868,0.0029265934,0.23817591,0.2224682,0.216392,nan,nan,8.0,nan,nan,nan
