timestamp,timestamp_sample,hover_thrust,hover_thrust_var,accel_innov,accel_innov_var,accel_innov_test_ratio,accel_noise_var,valid
378100702,378100670,0.4691161,0.0077546015,1.6549714,6.447786,0.047198463,4.9896274,0
378109973,378109918,0.3901483,0.005961399,4.750889,6.4905195,0.38639167,5.0247855,0
378199446,378199418,0.33163178,0.0006959571,-2.0384314,5.613319,0.082248874,4.8920426,0
378298190,378298159,0.34551156,0.00032735596,-0.44287077,5.5311623,0.00393999,5.234216,0
378403479,378403448,0.3351575,0.00022039608,-4.402029,5.825117,0.36962268,5.746622,0
378500938,378500910,0.3259307,0.00016841988,2.0521,5.7703743,0.081086874,5.6159487,0
378698510,378698479,0.32847962,0.00011094858,-0.23709004,5.85742,0.0010662958,5.730702,0
378802967,378802939,0.32911497,9.4505056e-05,1.6141989,5.694716,0.050839297,5.588033,0
378901149,378901117,0.32789272,8.235475e-05,1.5516267,5.4933505,0.048696153,5.397388,0
379001015,379000987,0.32950747,7.269376e-05,-1.9785967,5.421877,0.08022734,5.3536363,0
379103654,379103615,0.32960534,6.52886e-05,2.385642,5.7429843,0.11011093,5.682204,0
379199449,379199421,0.33089814,5.939658e-05,-1.847321,5.6114697,0.06757182,5.5501556,0
379301152,379301124,0.3315346,5.4441298e-05,-3.5351832,5.6701927,0.24489704,5.648333,0
379401719,379401691,0.3311644,4.960328e-05,2.4915078,5.7422233,0.12011629,5.69324,0
379498919,379498888,0.32993183,4.6173347e-05,0.94344664,5.5526886,0.017811023,5.4977922,0
379597837,379597806,0.3301782,4.335725e-05,-2.4981403,5.385645,0.12875184,5.357235,0
379697148,379697117,0.3290264,4.07513e-05,1.6398491,5.565731,0.053683773,5.5174503,0
379801756,379801728,0.32903826,3.8389502e-05,-1.0902681,5.6294284,0.023461718,5.574805,0
379899335,379899307,0.32928997,3.6203983e-05,-0.15727738,5.3932056,0.000509616,5.338453,0
380004103,380004075,0.32839695,3.4189332e-05,4.377202,5.392313,0.39479858,5.453136,0
380101466,380101438,0.32903248,3.24422e-05,-0.66106313,5.60508,0.0086628655,5.5437236,0
380201657,380201580,0.3293337,3.0805735e-05,-2.5633695,5.468877,0.13350016,5.438307,1
380300327,380300249,0.32848048,2.8875058e-05,0.2896713,5.3399506,0.0017459475,5.2812033,1
380398538,380398510,0.32729843,2.7276366e-05,0.13724536,5.160711,0.00040554896,5.1095037,1
380501922,380501894,0.3275433,2.5924614e-05,-4.313633,5.259887,0.39306778,5.330639,1
380602188,380602160,0.32691005,2.474161e-05,1.7782121,5.420335,0.06481843,5.3825593,1
380699556,380699523,0.326373,2.3768705e-05,-0.2748978,5.2600803,0.001596275,5.2193294,1
380799960,380799929,0.32649824,2.2914759e-05,-3.0071344,5.1552396,0.19490111,5.157825,1
380901855,380901827,0.32625288,2.2079927e-05,2.6343338,5.412778,0.1424554,5.3971114,1
381002340,381002310,0.32632798,2.1292493e-05,0.62836754,5.6453557,0.0077713,5.5869665,1
381100016,381099986,0.32577464,2.0604126e-05,0.6554723,5.4197187,0.008808245,5.379311,1
381204281,381204253,0.32602924,1.9970917e-05,-1.3686672,5.651259,0.036830533,5.6090026,1
381302142,381302113,0.32578397,1.9448773e-05,-2.2231586,5.7469254,0.09555707,5.7300305,1
381402445,381402414,0.32568473,1.9041683e-05,0.6951076,5.779192,0.009289544,5.7400107,1
381499984,381499956,0.32644293,1.8601158e-05,-4.357627,5.564749,0.37915084,5.6090345,1
381600802,381600774,0.3257875,1.8154156e-05,-3.7786179,6.438273,0.24640757,6.460179,1
381698231,381698200,0.32536244,1.7703867e-05,0.07704353,6.5259414,0.00010106173,6.4793444,1
381802850,381802822,0.325458,1.727673e-05,-2.4104278,6.2443323,0.10338552,6.2255473,1
381900182,381900152,0.32522547,1.6869893e-05,0.93918175,6.0652537,0.016158752,6.028272,1
382000502,382000474,0.32506502,1.648724e-05,2.8670404,6.0618815,0.15066683,6.0578957,1
382098052,382098024,0.32554895,1.6132399e-05,-4.9947987,6.336025,0.43749848,6.3982387,1
382202762,382202734,0.3250714,1.5815938e-05,1.0066478,6.6328,0.016975231,6.5905,1
382300658,382300629,0.3252732,1.5481908e-05,0.3368708,6.355343,0.0019840163,6.3111134,1
382400980,382400893,0.32557744,1.5144197e-05,-2.6135879,6.2472954,0.121489756,6.235682,1
382503242,382503212,0.3251199,1.4828875e-05,4.1354156,6.3799257,0.29783806,6.414242,1
382602922,382602891,0.3259428,1.4485819e-05,-4.861541,6.7657723,0.3881396,6.859232,1
382700627,382700599,0.32560495,1.4134819e-05,0.6951361,6.8054867,0.00788929,6.7614894,1
382800836,382800808,0.3252574,1.3812799e-05,2.0242205,6.583473,0.06915411,6.556679,1
382899030,382898978,0.32489976,1.3547866e-05,-1.1316966,6.4735136,0.021982517,6.437571,1
383003770,383003742,0.32490632,1.3312087e-05,3.4972732,6.456926,0.2104703,6.485018,1
383101395,383101359,0.32508382,1.307023e-05,-3.4158752,6.6011653,0.19639972,6.614832,1
383201169,383201137,0.3249586,1.2848872e-05,-0.16106147,6.355106,0.0004535425,6.3121834,1
383298841,383298758,0.324808,1.2623488e-05,4.102438,6.3067203,0.29650906,6.3380404,1
383397576,383397546,0.32493258,1.2418149e-05,0.22885594,7.090203,0.0008207733,7.0468583,1
383501241,383501213,0.32494178,1.2229265e-05,-0.097436085,6.876759,0.00015339575,6.8350773,1
383601745,383601717,0.3250588,1.2039037e-05,0.31769913,6.637734,0.0016895448,6.591358,1
383699120,383699090,0.3250771,1.18462185e-05,-0.38984415,6.523381,0.0025886109,6.4829383,1
383799012,383798984,0.32539922,1.1663924e-05,-0.33839518,7.0900955,0.0017945424,7.044987,1
383901441,383901413,0.3255209,1.1494064e-05,-0.97194016,6.884359,0.015246602,6.833107,1
384001536,384001504,0.32566354,1.1347634e-05,-4.554608,6.739591,0.3419999,6.7939734,1
384099255,384099178,0.32562867,1.1206392e-05,-0.5667853,7.0472293,0.005064962,7.005976,1
384199748,384199717,0.32567725,1.1047339e-05,2.7413924,7.1951466,0.116054036,7.1893344,1
384301871,384301843,0.32562605,1.091267e-05,0.6883187,7.2405987,0.0072704647,7.18644,1
384402020,384401942,0.3253459,1.0804192e-05,-0.015997767,6.943196,4.0955933e-06,6.8984976,1
384499535,384499499,0.3254801,1.0677284e-05,4.2151175,6.9512525,0.28399703,6.9923286,1
384598448,384598420,0.3254935,1.0543083e-05,0.23721725,7.745149,0.0008072726,7.7011085,1
384701641,384701610,0.32531717,1.0416322e-05,3.1174805,7.7886157,0.13864516,7.7917423,1
384801791,384801763,0.32522273,1.0300583e-05,-3.377225,7.567746,0.16745992,7.578152,1
384899758,384899728,0.32515043,1.018947e-05,1.2384706,7.3843904,0.023078853,7.3495793,1
385000216,385000189,0.32525578,1.0078071e-05,-0.14233434,7.064611,0.00031863147,7.018901,1
385101846,385101815,0.32530302,9.96448e-06,-3.8159711,6.93688,0.23324023,6.9761624,1
385202069,385202041,0.32546827,9.856846e-06,1.3264984,7.575879,0.025807023,7.540311,1
385299703,385299672,0.3253797,9.778212e-06,3.9586453,7.9638443,0.21863914,7.993698,1
385400571,385400540,0.3254646,9.705216e-06,-2.160627,7.9596167,0.06516658,7.9318843,1
385498050,385498018,0.32554436,9.62096e-06,-2.4441032,7.7425885,0.085725576,7.7247686,1
385602827,385602799,0.3255989,9.548604e-06,-1.2466321,7.5047503,0.023009004,7.4644732,1
385699986,385699905,0.32568574,9.472131e-06,-2.8857796,7.249811,0.12763129,7.2442613,1
385805144,385805111,0.32561886,9.383747e-06,7.755808,7.9032726,0.8456772,8.174165,1
385897814,385897786,0.32597432,9.29483e-06,0.8654431,8.813374,0.009442617,8.772247,1
386002675,386002647,0.32574084,9.219041e-06,2.44128,8.675066,0.07633432,8.650539,1
386100385,386100352,0.32567492,9.142136e-06,-0.80378586,8.325041,0.00862287,8.282357,1
386200637,386200609,0.32575354,9.066072e-06,-2.672392,8.042024,0.09867166,8.026917,1
386298241,386298211,0.3259031,8.986661e-06,-0.59896874,7.896733,0.0050479886,7.8535156,1
386402738,386402710,0.32606098,8.899567e-06,-4.256138,8.203525,0.24535133,8.25513,1
386500297,386500270,0.32600692,8.799303e-06,2.562656,8.622525,0.08462596,8.604786,1
386599332,386599304,0.32585964,8.690353e-06,0.98167586,8.415677,0.012723442,8.373197,1
386702897,386702869,0.32524318,8.596624e-06,1.9626439,8.226184,0.052028593,8.185378,1
386802938,386802910,0.32518333,8.522021e-06,-1.7109379,8.18136,0.039755795,8.13817,1
386901027,386900999,0.32527843,8.458011e-06,1.0573121,8.209922,0.015129511,8.1688,1
387001167,387001090,0.3253696,8.392727e-06,0.18967295,8.044284,0.0004969136,7.9950533,1
387098609,387098581,0.32547674,8.321166e-06,0.6015921,7.736278,0.0051979213,7.695478,1
387203192,387203164,0.3256427,8.250709e-06,2.7138894,8.26408,0.09902554,8.253019,1
387300756,387300725,0.32562557,8.184442e-06,-1.4569174,7.96151,0.029623196,7.9279704,1
387401756,387401728,0.32560837,8.126646e-06,-4.0858903,7.6943555,0.2410786,7.73417,1
387498970,387498942,0.3254891,8.083603e-06,-2.527842,8.11884,0.08745071,8.105778,1
387603729,387603653,0.32541233,8.055601e-06,0.9739541,7.9614067,0.013238678,7.905599,1
387701282,387701254,0.32551047,8.023233e-06,-0.80387783,7.8627787,0.009131908,7.8247557,1
387801516,387801484,0.3256653,7.97748e-06,0.53220516,7.6009183,0.0041404697,7.5581093,1
387899057,387899029,0.32585362,7.918093e-06,-3.4975317,8.035501,0.1691484,8.042024,1
388003779,388003751,0.32587892,7.8582625e-06,-2.1263173,7.773599,0.06462365,7.7382884,1
388101197,388101166,0.32565403,7.798055e-06,4.8759,7.7443905,0.3410985,7.8123536,1
388201660,388201632,0.32560772,7.743342e-06,-1.6889243,7.9595942,0.03981869,7.9254327,1
388299621,388299593,0.32553566,7.693027e-06,-1.9103606,7.656458,0.052961502,7.6299763,1
388403930,388403902,0.32558158,7.641792e-06,0.73575544,7.40487,0.008122823,7.349381,1
388501506,388501478,0.3255812,7.588823e-06,3.000435,7.1681805,0.13954589,7.1708517,1
388601563,388601535,0.3256053,7.5329312e-06,-3.602882,7.8271327,0.1842701,7.844117,1
388699786,388699752,0.3257116,7.479317e-06,-0.80210257,7.630967,0.009367803,7.590529,1
388798663,388798624,0.32560763,7.4275913e-06,3.668739,7.391551,0.2023278,7.415674,1
388902007,388901976,0.32585675,7.3851984e-06,-3.1556451,7.5744185,0.1460779,7.578084,1
389002131,389002103,0.32606447,7.335925e-06,-2.929157,7.565349,0.12601255,7.5578647,1
389104002,389103974,0.32616746,7.2836915e-06,0.8242129,7.5171843,0.010041096,7.471143,1
389198645,389198614,0.3261842,7.2325997e-06,2.5110934,7.284979,0.09617339,7.27873,1
389301999,389301922,0.32628372,7.187558e-06,-5.719164,7.740229,0.46953583,7.878339,1
389402023,389401947,0.3262268,7.138665e-06,2.1100202,7.937144,0.062325597,7.917247,1
389500041,389500013,0.32615384,7.0898927e-06,-0.37665528,7.645106,0.002061874,7.6041656,1
389600115,389600083,0.32620284,7.0427654e-06,-3.1495063,7.4340496,0.1482576,7.4344707,1
389697766,389697738,0.32614896,6.9969706e-06,4.95357,7.4096775,0.36795506,7.484175,1
389802330,389802298,0.3263067,6.9621497e-06,-4.969618,7.8227587,0.35078704,7.891712,1
389899906,389899829,0.32638738,6.9199455e-06,-1.4410862,7.60576,0.030338544,7.5723257,1
390000578,390000547,0.3264226,6.8764884e-06,-0.047650177,7.628241,3.3072127e-05,7.5815754,1
390098146,390098113,0.32635695,6.8347663e-06,1.1267719,7.8096986,0.018063223,7.7759624,1
390202703,390202675,0.32633677,6.802302e-06,-3.2577019,7.545628,0.15627329,7.555471,1
390300170,390300142,0.32648697,6.764195e-06,-3.5521672,7.401172,0.18942782,7.4114785,1
390400629,390400601,0.32631615,6.7160213e-06,4.2469788,7.7074723,0.2600194,7.757168,1
390502468,390502437,0.3262689,6.6694583e-06,-0.43761164,7.566308,0.0028122324,7.510654,1
390602897,390602866,0.32610267,6.6294456e-06,0.8048007,7.3411145,0.009803297,7.3004475,1
390691267,390691239,0.3261236,6.5913932e-06,2.7584834,7.126642,0.118635125,7.122693,1
390801140,390801110,0.32610497,6.551008e-06,2.799175,7.196632,0.12097297,7.195589,1
390898470,390898442,0.32603863,6.512992e-06,3.6220255,7.04887,0.20679547,7.0706058,1
391003053,391003025,0.3260944,6.4701026e-06,1.0188556,6.938097,0.01662426,6.903308,1
391100656,391100628,0.32611525,6.425121e-06,1.7569225,6.73555,0.050920144,6.714306,1
391199440,391199412,0.3261897,6.3799985e-06,-1.566079,6.5928617,0.041334327,6.567655,1
391298849,391298821,0.3263412,6.3357184e-06,-3.9228523,6.634656,0.25771695,6.665323,1
391398911,391398883,0.32630002,6.296175e-06,2.075435,7.244217,0.06606696,7.225669,1
391501053,391501025,0.32649478,6.2668773e-06,3.4314034,7.74986,0.16881351,7.7684374,1
391601150,391601123,0.32648474,6.2406957e-06,2.1520312,8.131455,0.06328289,8.112417,1
391698820,391698792,0.3266621,6.21126e-06,-3.6159828,8.662033,0.16772214,8.669322,1
391803508,391803480,0.32657486,6.1895526e-06,5.8318167,9.474288,0.3988583,9.657713,1
391901013,391900937,0.32676318,6.167589e-06,-5.0392485,9.74015,0.28968325,9.797233,1
392001707,392001679,0.32667166,6.1462433e-06,3.4750562,9.710558,0.1381774,9.720585,1
392099030,392099002,0.32668906,6.123493e-06,-2.2152832,9.66005,0.056446444,9.63235,1
392199003,392198973,0.32672086,6.1008204e-06,1.5053874,9.775594,0.025757926,9.7341385,1
392301279,392301251,0.3268781,6.079141e-06,-3.1879497,9.6218605,0.11736034,9.612894,1
392401367,392401335,0.32681718,6.0574184e-06,3.787546,9.742478,0.16360775,9.763061,1
392499480,392499444,0.32698944,6.0376115e-06,-2.961011,9.929217,0.098112084,9.914028,1
392598355,392598327,0.32703763,6.0188736e-06,1.7698967,9.944797,0.034999147,9.911094,1
392701855,392701827,0.32705313,6.0060715e-06,-0.5884155,9.744685,0.003947825,9.695675,1
392801600,392801570,0.32699,5.993228e-06,-5.0375357,9.975544,0.28265536,10.041847,1
392899224,392899196,0.32713634,5.975053e-06,-5.3949056,10.217591,0.31650215,10.285083,1
393004216,393004188,0.3270375,5.9550985e-06,1.2481818,10.3808155,0.01667561,10.313248,1
393101872,393101842,0.32717353,5.9317754e-06,-4.805082,10.017826,0.25608587,10.089444,1
393201912,393201884,0.3272607,5.9091144e-06,2.540328,10.085095,0.07109795,10.0666275,1
393299768,393299740,0.32744458,5.8859696e-06,0.15254265,9.866715,0.00026203992,9.81754,1
393404831,393404800,0.32742622,5.864715e-06,4.0152235,9.805164,0.18269308,9.843272,1
393502064,393502036,0.32743937,5.845584e-06,2.7920244,9.693582,0.08935352,9.685335,1
393602073,393602045,0.3272499,5.829807e-06,1.8872129,9.719101,0.040716756,9.686291,1
393699765,393699737,0.32712993,5.8127835e-06,-1.1651199,9.707985,0.015537088,9.666876,1
393800549,393800518,0.32729438,5.7956754e-06,-2.4273252,9.950353,0.06579228,9.920572,1
393903214,393903186,0.32731152,5.778781e-06,-1.8165286,10.038172,0.036524758,9.997173,1
394003006,394002978,0.32732755,5.761691e-06,-5.3047442,9.824733,0.318248,9.914842,1
394099929,394099901,0.32720658,5.7493357e-06,-2.2810774,9.9160795,0.05830389,9.891991,1
394205135,394205107,0.327258,5.742832e-06,2.5102344,10.319841,0.06784425,10.297287,1
394297975,394297947,0.32736528,5.728336e-06,-4.0251594,10.05525,0.17903204,10.072117,1
394402988,394402960,0.32729638,5.712066e-06,-0.4081512,10.077022,0.0018368238,9.995759,1
394500090,394500062,0.32745525,5.6887984e-06,-0.22331578,9.732413,0.0005693453,9.682863,1
394600747,394600719,0.3273448,5.66994e-06,5.193246,9.751369,0.307305,9.843059,1
394703613,394703583,0.32710043,5.6585222e-06,-2.2786093,9.601182,0.06008589,9.576601,1
394802714,394802686,0.32702672,5.6490708e-06,1.437525,9.241381,0.024845714,9.186288,1
394900386,394900349,0.32710364,5.63466e-06,-4.3256917,8.945068,0.23242614,8.983643,1
395098699,395098654,0.32715312,5.5901683e-06,2.7175522,8.917894,0.092013374,8.904704,1
395197519,395197491,0.3270611,5.571641e-06,2.75308,8.7780285,0.09593964,8.765868,1
395300985,395300952,0.3269763,5.5547125e-06,-2.853515,8.543881,0.10589186,8.540003,1
395399422,395399391,0.3270603,5.5346827e-06,-5.381567,8.256796,0.38972965,8.344078,1
395498621,395498594,0.32688916,5.5095356e-06,3.3296585,8.5863085,0.14346646,8.587794,1
395603350,395603320,0.3269939,5.488312e-06,-1.9391891,8.826215,0.047339458,8.783697,1
395701092,395701064,0.32714492,5.4695674e-06,0.8609898,8.613443,0.009562616,8.573694,1
395801417,395801389,0.3270996,5.4554407e-06,-2.2125354,8.367315,0.06500575,8.34362,1
395898744,395898667,0.3271839,5.4395623e-06,-2.4177234,8.122889,0.07995769,8.106274,1
396003580,396003550,0.32721713,5.4192537e-06,1.3851225,8.006116,0.02662637,7.958949,1
396101199,396101172,0.32737136,5.3955387e-06,2.1768358,7.7807536,0.0676686,7.765386,1
396199946,396199918,0.3272001,5.372102e-06,-1.2987518,7.6298914,0.024563571,7.5991015,1
396299411,396299370,0.3273056,5.3488825e-06,-1.3351842,7.338545,0.026991678,7.3058414,1
396399385,396399347,0.32738388,5.3258227e-06,1.7593942,7.3616195,0.046720814,7.336967,1
396501708,396501677,0.32752842,5.303789e-06,-2.470419,7.110795,0.09536314,7.0929446,1
396600430,396600402,0.3275268,5.2802484e-06,2.5348544,7.0091844,0.10185821,7.0052643,1
396699036,396699008,0.32737654,5.2576565e-06,-1.055802,7.0696964,0.0175195,7.039209,1
396798028,396798000,0.3275727,5.233941e-06,2.5592022,7.008847,0.10382934,7.0053606,1
396901594,396901517,0.3278252,5.212976e-06,2.9237056,7.111439,0.1335572,7.119201,1
397002092,397002064,0.3275638,5.19286e-06,3.2474177,6.930053,0.16908194,6.9478383,1
397099524,397099489,0.32788056,5.17051e-06,-3.5600548,6.9464974,0.2027239,6.96117,1
397204141,397204110,0.3279223,5.148558e-06,-1.5970922,7.0599995,0.040143274,7.0184216,1
397302063,397302029,0.32773656,5.1268544e-06,-2.1327295,7.0465193,0.071722336,7.0285573,1
397402101,397402072,0.32777715,5.1063494e-06,-1.2700634,6.7819552,0.026427336,6.7498207,1
397499474,397499447,0.3277628,5.0843214e-06,3.0354772,6.630996,0.15439479,6.6397824,1
397598929,397598898,0.3275803,5.0646e-06,1.2731084,6.7255735,0.026776815,6.6983023,1
397702313,397702285,0.3277564,5.04728e-06,-6.321149,6.695123,0.66311824,6.840948,1
397802456,397802370,0.32810467,5.0281055e-06,-5.3077617,6.892128,0.45417893,6.984162,1
397900010,397899975,0.32812613,5.005159e-06,0.6914681,6.9461884,0.00764813,6.913217,1
397998710,397998629,0.3282588,4.983265e-06,-0.31746662,6.8030357,0.0016460797,6.7694807,1
398102606,398102575,0.32838702,4.9641762e-06,-0.7628748,6.5803213,0.009826908,6.5335526,1
398202556,398202528,0.3283463,4.948138e-06,4.4953246,6.5697007,0.34177005,6.6483674,1
398300205,398300174,0.32855755,4.929577e-06,-1.5908347,6.4915657,0.04331698,6.464846,1
398399208,398399180,0.3285286,4.9063165e-06,0.8094785,6.4051623,0.011366795,6.3760214,1
398502857,398502819,0.3286187,4.8836396e-06,-2.1222377,6.283545,0.07964175,6.266084,1
398601624,398601593,0.32866418,4.862637e-06,2.113823,6.116358,0.08117118,6.1104727,1
398700196,398700168,0.32870793,4.8475276e-06,-2.514172,6.1708646,0.113815516,6.162386,1
398799103,398799073,0.3286254,4.833058e-06,0.5253964,5.9845133,0.0051251063,5.9567156,1
398898421,398898393,0.32900187,4.813907e-06,-2.4957302,5.977783,0.115774415,5.966915,1
399003179,399003144,0.32919842,4.788904e-06,-2.1902964,5.792299,0.09202638,5.767626,1
399100774,399100742,0.32926065,4.7644407e-06,1.8821485,5.822889,0.067596905,5.815804,1
399200558,399200525,0.32910934,4.7427507e-06,2.0816379,5.701242,0.08444975,5.6974983,1
399303235,399303204,0.3290943,4.7227545e-06,-2.3441825,5.5588603,0.10983849,5.5489726,1
399397497,399397469,0.32919687,4.6989203e-06,-0.5123561,5.455546,0.00534642,5.426198,1
399500569,399500541,0.3292715,4.675901e-06,1.4034683,5.2794056,0.04145507,5.264731,1
399601247,399601219,0.32956758,4.652242e-06,-1.0790156,5.2780123,0.024509957,5.248642,1
399698720,399698690,0.32937586,4.6294713e-06,0.11658262,5.15917,0.00029271515,5.133499,1
399803558,399803477,0.32951704,4.6093473e-06,-0.5534025,5.2123313,0.006528414,5.1705914,1
399900871,399900843,0.32947937,4.5882384e-06,0.121871285,5.2212596,0.00031607124,5.195468,1
400001433,400001344,0.3295036,4.56638e-06,-0.6668099,5.1012883,0.009684601,5.0725307,1
400103438,400103408,0.3293389,4.5536353e-06,0.54275715,5.679321,0.005763313,5.653039,1
400204605,400204574,0.3293784,4.5356296e-06,0.32841784,5.4695115,0.0021911012,5.4261894,1
400296588,400296560,0.3291119,4.5191464e-06,2.0424223,5.4633803,0.08483736,5.456059,1
400401349,400401319,0.32906845,4.5014126e-06,-0.8377923,5.6146708,0.013890117,5.585955,1
400499100,400498986,0.32879353,4.4873987e-06,3.2682257,5.555605,0.21362409,5.5754023,1
400603694,400603664,0.32897213,4.477627e-06,-1.501858,5.8105083,0.04313215,5.7788353,1
400701485,400701330,0.32908562,4.461568e-06,-3.268767,5.7498107,0.2064771,5.771835,1
400801862,400801777,0.32910988,4.4446274e-06,-1.6379497,5.605149,0.053182833,5.583569,1
400899414,400899386,0.32902467,4.424894e-06,0.5764029,5.476476,0.0067407563,5.449765,1
401004103,401004071,0.3292375,4.4008034e-06,-0.9030894,5.3536024,0.016926723,5.313553,1
401101687,401101659,0.32965323,4.3693776e-06,-1.0360777,5.598472,0.021304565,5.5712314,1
401201657,401201627,0.32978377,4.344273e-06,-1.1129302,5.4751244,0.025136184,5.4468274,1
401299295,401299267,0.32951617,4.3244704e-06,2.3204393,5.502932,0.108718574,5.501896,1
401404265,401404182,0.32968727,4.3075283e-06,-1.2945336,5.774479,0.032245666,5.747027,1
401502223,401502187,0.32956314,4.291762e-06,-2.0773077,5.7444487,0.08346623,5.731531,1
401602223,401602195,0.3298388,4.2806205e-06,-0.22033703,6.457253,0.00083538116,6.4202843,1
401699466,401699438,0.32982397,4.27102e-06,0.5663396,6.555997,0.0054359147,6.5267406,1
401799928,401799900,0.32994524,4.2638617e-06,-2.6401138,6.507922,0.11900369,6.5019965,1
401902093,401902016,0.32971036,4.2573415e-06,2.9729009,6.627202,0.1481795,6.6365557,1
402001319,402001291,0.32979923,4.2487354e-06,-1.9897507,6.6565723,0.0660852,6.6383653,1
402100127,402100099,0.32993695,4.237441e-06,-2.717388,6.8101273,0.12047739,6.804747,1
402199060,402199033,0.32985458,4.227397e-06,2.5862498,7.2662144,0.10227989,7.261614,1
402302555,402302524,0.32987532,4.219031e-06,0.3589558,7.253276,0.0019738097,7.2024884,1
402402910,402402882,0.32993644,4.209403e-06,-0.47358984,7.214619,0.0034542107,7.1732726,1
402500088,402500060,0.32993555,4.1981716e-06,1.3349435,7.558152,0.02619797,7.5293922,1
402600270,402600242,0.33002165,4.1863486e-06,-3.015913,7.6366577,0.13234021,7.63555,1
402698285,402698254,0.33004615,4.1760804e-06,2.4082973,8.108847,0.07947281,8.097327,1
402803189,402803156,0.33016863,4.170659e-06,2.431617,8.393793,0.07826896,8.37784,1
402900499,402900471,0.33013013,4.1648473e-06,-4.74154,8.2785015,0.30174813,8.333839,1
402999112,402999084,0.33008376,4.1614067e-06,3.1402278,8.534384,0.12838303,8.539795,1
403102569,403102538,0.33009812,4.159575e-06,-5.8450384,8.798332,0.4314514,8.950893,1
403202975,403202947,0.3300111,4.159958e-06,1.1623075,9.523009,0.01576251,9.479334,1
403300862,403300832,0.3300379,4.1579656e-06,2.7443385,9.576624,0.08738169,9.56571,1
403400972,403400945,0.330181,4.1532858e-06,-4.117408,9.523662,0.19778863,9.551182,1
403498497,403498413,0.33004707,4.149352e-06,2.6986604,9.427342,0.08583505,9.415852,1
403602244,403602214,0.32995006,4.147665e-06,0.86346567,9.27874,0.008928092,9.216863,1
403700623,403700595,0.3298876,4.1447374e-06,2.044077,9.114518,0.050935227,9.077518,1
403799549,403799521,0.33001125,4.1412954e-06,-0.7703358,8.786506,0.007504149,8.748235,1
403898950,403898922,0.3300097,4.137184e-06,-0.35729492,8.477607,0.0016731616,8.434765,1
404003833,404003799,0.3299573,4.1351855e-06,3.2998137,8.317794,0.14545485,8.328014,1
404101244,404101216,0.32983285,4.1337476e-06,-0.37131715,8.530266,0.0017959115,8.488518,1
404200145,404200117,0.32991174,4.131205e-06,-8.037141,8.7020035,0.82478625,8.952755,1
404303216,404303188,0.32973775,4.1278317e-06,6.3857636,9.570155,0.4734392,9.7536335,1
404403589,404403561,0.32976484,4.1261596e-06,-4.676131,9.766691,0.2487616,9.83306,1
404501445,404501417,0.32962185,4.124689e-06,3.8359551,9.855032,0.16590004,9.866618,1
404600379,404600345,0.32961288,4.123375e-06,-0.3403247,9.752072,0.0013196158,9.705595,1
404699920,404699892,0.32960546,4.1221e-06,-3.6402416,9.811137,0.15007162,9.830188,1
404797888,404797857,0.32960722,4.1200524e-06,4.9598746,10.040501,0.27223474,10.092621,1
404901490,404901413,0.3295999,4.119394e-06,-4.333383,10.11239,0.20632787,10.174348,1
405000247,405000216,0.32954666,4.1161456e-06,-0.011636674,10.107646,1.4885562e-06,10.060804,1
405099154,405099124,0.3296653,4.1117723e-06,-1.5451051,9.704476,0.027333891,9.6693735,1
405198687,405198659,0.3296473,4.1077237e-06,5.699796,9.42208,0.3831152,9.522294,1
405302026,405301998,0.32957727,4.106666e-06,-4.932225,9.372977,0.28838038,9.4790325,1
405400736,405400705,0.3295414,4.1043195e-06,1.4934559,9.169465,0.02702703,9.132861,1
405504094,405503980,0.32955238,4.102475e-06,0.54193425,8.792293,0.0037114925,8.732522,1
405598426,405598398,0.32961836,4.0971963e-06,-5.140158,8.503518,0.34523264,8.578436,1
405697277,405697246,0.3296402,4.0932655e-06,1.2138637,8.622543,0.018987246,8.586714,1
405802051,405802020,0.329568,4.0906352e-06,3.2920744,8.279986,0.14543441,8.287298,1
405900017,405899989,0.32964095,4.08408e-06,-2.8164668,8.129465,0.10841885,8.124726,1
406004350,406004322,0.329562,4.076698e-06,1.219507,8.296132,0.019918215,8.258816,1
406101938,406101910,0.32945713,4.0705477e-06,0.9659351,8.022216,0.012922873,7.988244,1
406202481,406202453,0.32932952,4.068007e-06,4.5105257,7.8235087,0.28894174,7.876609,1
406299866,406299784,0.32924002,4.067395e-06,0.8779458,8.410205,0.010183248,8.373387,1
406398833,406398805,0.3293538,4.0652762e-06,-0.11120258,8.257073,0.00016640298,8.21759,1
406498061,406498033,0.3294636,4.0585273e-06,-1.4490076,7.965091,0.02928924,7.9357796,1
406602129,406602101,0.32942948,4.049207e-06,3.7810144,7.7714396,0.20439614,7.8101997,1
406700409,406700379,0.3293367,4.039748e-06,1.9918699,7.7575283,0.056827173,7.733889,1
406805020,406804992,0.32916358,4.036446e-06,1.5279138,7.520868,0.034489527,7.475462,1
406902827,406902796,0.32913196,4.034636e-06,-1.8274002,7.4393787,0.049875602,7.415073,1
407002967,407002935,0.32924956,4.033953e-06,-4.0176024,7.4661646,0.24021152,7.5124335,1
407100777,407100743,0.32938498,4.0286736e-06,-1.0383338,7.941282,0.015084845,7.9049964,1
407199558,407199530,0.32941154,4.021616e-06,2.1541564,8.26021,0.062419586,8.240224,1
407298614,407298586,0.32927397,4.0163445e-06,-1.8522687,8.033115,0.047454946,8.008619,1
407402974,407402946,0.32915822,4.0129453e-06,0.7644723,7.7251334,0.008405722,7.6850023,1
407500787,407500759,0.32918507,4.0077016e-06,-5.349171,7.6471295,0.4157498,7.7410064,1
407599480,407599452,0.32912952,4.0025825e-06,1.3281544,7.957746,0.02463001,7.925892,1
407698834,407698807,0.32912022,3.997629e-06,0.66068095,7.8010244,0.0062171225,7.7619925,1
407798883,407798855,0.32906947,3.9930947e-06,-3.2612522,7.689722,0.15367939,7.7073264,1
407900989,407900958,0.32914463,3.9889205e-06,-3.1738505,8.026938,0.1394378,8.034978,1
408001199,408001168,0.3292984,3.981534e-06,-0.4354354,8.216893,0.0025638777,8.172814,1
408098803,408098775,0.32916865,3.9733113e-06,0.8836348,8.210161,0.010566994,8.172933,1
408203602,408203574,0.3291089,3.970684e-06,-0.64345515,7.896003,0.005826218,7.8390346,1
408301347,408301319,0.3289744,3.9668003e-06,3.0662496,7.739122,0.13498354,7.7395263,1
408400231,408400203,0.32917404,3.962274e-06,-1.7507532,7.6320996,0.044623468,7.608892,1
408503786,408503758,0.32911065,3.9578863e-06,-0.044843275,7.307748,3.057515e-05,7.2553964,1
408597743,408597715,0.32900602,3.950094e-06,4.007554,7.219595,0.24717437,7.249758,1
408701213,408701185,0.32915494,3.9435536e-06,-3.9467347,7.191469,0.24066655,7.2424026,1
408801450,408801419,0.32910296,3.934913e-06,1.9038084,7.000124,0.05753051,6.9786043,1
408899486,408899458,0.32923132,3.9271467e-06,-3.0284762,7.075047,0.1440378,7.07938,1
409002908,409002877,0.32910454,3.9230868e-06,2.4750955,7.258299,0.09377921,7.245993,1
409101661,409101631,0.3291389,3.9181054e-06,-3.6761537,7.2429996,0.20731291,7.268613,1
409200514,409200437,0.3290826,3.912939e-06,5.119891,7.3144627,0.39819568,7.3922377,1
409299456,409299378,0.3291684,3.907904e-06,-0.36287808,7.7055497,0.0018987831,7.6692185,1
409405194,409405163,0.32926697,3.9047454e-06,0.8964428,7.4453425,0.011992728,7.406063,1
409501928,409501901,0.32944518,3.896432e-06,-1.4919405,7.2444663,0.03413926,7.202371,1
409600794,409600766,0.32964393,3.887293e-06,-1.0286691,7.0229225,0.01674137,6.989669,1
409699928,409699900,0.32964262,3.8794506e-06,-4.146302,6.8340025,0.27951443,6.8690176,1
409798431,409798401,0.32950392,3.87162e-06,0.98903537,6.819588,0.015937602,6.792646,1
409902047,409901963,0.3295964,3.865343e-06,-5.297007,6.6989636,0.4653835,6.8209,1
410000769,410000742,0.32960224,3.857255e-06,-0.2582751,7.1124353,0.0010420876,7.077187,1
410100284,410100256,0.32972035,3.8499643e-06,1.3066479,6.9347115,0.027355598,6.9102416,1
410198999,410198968,0.32961756,3.8430594e-06,1.0679212,6.7732916,0.018708376,6.7457166,1
410302415,410302387,0.32962698,3.838448e-06,-3.6756387,6.7214947,0.22333524,6.7539344,1
410402574,410402546,0.3295278,3.8333715e-06,-0.1792979,7.1322536,0.00050081935,7.092535,1
410500199,410500169,0.32953197,3.830978e-06,4.437275,7.6044683,0.28768772,7.6610336,1
410598847,410598819,0.329603,3.8290846e-06,0.12739259,7.7404585,0.00023295882,7.7062397,1
410702832,410702804,0.32971218,3.825197e-06,-3.4594033,7.742508,0.17174268,7.757693,1
410801690,410801662,0.32971004,3.8190465e-06,1.262952,7.526192,0.023548098,7.496886,1
410900518,410900491,0.32953623,3.8138182e-06,0.099881895,7.3428884,0.00015096075,7.3055387,1
410999506,410999472,0.32961348,3.8089117e-06,2.7512836,7.124129,0.11805829,7.1254196,1
411098062,411098034,0.32968283,3.8015824e-06,-3.6241777,7.2019353,0.20264095,7.2203784,1
411201517,411201489,0.32975513,3.794985e-06,-1.6229687,7.162238,0.04086288,7.126694,1
411300580,411300496,0.3298688,3.7888956e-06,0.8870865,7.2835784,0.012004515,7.2387843,1
411399517,411399433,0.3299071,3.7834143e-06,0.9408239,6.9416595,0.014168077,6.9123464,1
411498555,411498527,0.33003607,3.7778466e-06,-0.37869436,6.763977,0.002355771,6.729448,1
411597649,411597610,0.33012044,3.7723999e-06,2.6344414,6.643174,0.11608041,6.647635,1
411700833,411700797,0.3301496,3.7675832e-06,-4.8720503,6.8653474,0.3841656,6.956742,1
411799645,411799510,0.33020133,3.7610314e-06,1.5109452,7.071658,0.035870187,7.0512543,1
411898535,411898507,0.33024296,3.7555594e-06,-2.8496544,6.8703074,0.13133053,6.8660145,1
412002141,412002113,0.33013493,3.7523519e-06,2.0996876,6.653347,0.07362524,6.643815,1
412101160,412101132,0.3300338,3.7484174e-06,3.0362337,6.5459504,0.15647867,6.5651417,1
412200212,412200184,0.33001292,3.7473383e-06,-2.0208244,6.6305304,0.06843312,6.614845,1
412298816,412298788,0.32983464,3.7486448e-06,-2.4627638,6.6642604,0.10112326,6.6609483,1
412397604,412397576,0.32992867,3.7482346e-06,-4.080571,6.7923603,0.2723822,6.833029,1
412501105,412501077,0.32998875,3.7458062e-06,-6.486374,7.4653816,0.62619483,7.685491,1
412599980,412599952,0.32997438,3.7411905e-06,3.4595098,8.291365,0.16038384,8.30411,1
412699916,412699888,0.3298737,3.7391592e-06,-0.02699557,8.31627,9.736747e-06,8.271752,1
412798111,412798080,0.32981175,3.7378168e-06,3.1597636,8.097098,0.13700527,8.100952,1
412901613,412901585,0.329899,3.737407e-06,-3.222312,7.9650044,0.14484604,7.9763494,1
413000195,413000167,0.32997563,3.7319378e-06,-0.45165014,7.720968,0.002935554,7.684853,1
413099169,413099139,0.32996526,3.7263173e-06,-0.90992916,7.4747176,0.012307727,7.44272,1
413198038,413198010,0.32988447,3.7230614e-06,1.0335913,7.2952404,0.016271047,7.264814,1
413301567,413301539,0.3299907,3.7220095e-06,-4.3494215,7.2008996,0.29189974,7.270295,1
413400750,413400722,0.32998246,3.7190275e-06,1.3523515,7.3006806,0.027833855,7.2735605,1
413499346,413499318,0.3300331,3.7142229e-06,0.30758238,7.3777165,0.0014248148,7.3431106,1
413598282,413598254,0.32995635,3.7076932e-06,1.1529671,7.111766,0.020768918,7.0849075,1
413701946,413701917,0.3298271,3.7056066e-06,1.5243702,6.804006,0.03794667,6.781625,1
413801982,413801954,0.32976186,3.7054454e-06,-0.047649622,6.6407194,3.79893e-05,6.605712,1
413905024,413904996,0.32975748,3.707207e-06,-0.15415168,6.4024444,0.00041239007,6.368906,1
413998891,413998855,0.32980275,3.7032905e-06,-2.8042624,6.481958,0.1347996,6.4867177,1
414102530,414102503,0.3299804,3.6993113e-06,4.1912637,6.867325,0.2842234,6.938611,1
414202417,414202385,0.33000234,3.694981e-06,-2.6584592,7.1572723,0.10971599,7.153098,1
414299837,414299806,0.33005828,3.688698e-06,1.1260409,7.1776314,0.019628393,7.1493526,1
414399118,414399090,0.32994252,3.684423e-06,3.01363,6.9258657,0.14570124,6.932085,1
414502211,414502178,0.32989162,3.6798374e-06,3.820579,6.997797,0.23176858,7.0423675,1
414601370,414601339,0.3299744,3.6753352e-06,-3.894402,7.33082,0.22987224,7.3634806,1
414700282,414700254,0.3297741,3.6730662e-06,5.0958796,7.6999445,0.37472117,7.772307,1
414799055,414798975,0.3298471,3.6695008e-06,-1.5789686,7.8030033,0.035501175,7.7780404,1
414897867,414897839,0.32978523,3.6673673e-06,-3.6100225,7.5481486,0.191839,7.572507,1
415001315,415001287,0.329807,3.668157e-06,-0.0061900616,7.515215,5.66508e-07,7.463674,1
415100283,415100252,0.32983768,3.6662757e-06,-3.690218,7.511771,0.20142768,7.537773,1
415199533,415199505,0.3296959,3.6644985e-06,3.5688286,7.6157074,0.18582264,7.6308722,1
415303657,415303627,0.32968566,3.6658598e-06,0.5949422,7.398972,0.005315396,7.360473,1
415401934,415401906,0.3298544,3.6633091e-06,-1.8206933,7.191305,0.051218085,7.162959,1
415496023,415495987,0.33002976,3.6595081e-06,-7.255873,7.5480843,0.77499723,7.8412037,1
415599636,415599608,0.32997677,3.6514507e-06,-4.330019,8.409523,0.24772267,8.450181,1
415698435,415698407,0.32981125,3.6490608e-06,-0.53788733,8.689324,0.0036995946,8.650761,1
415801907,415801879,0.32974595,3.6503336e-06,1.3210607,8.693078,0.022306398,8.640045,1
415900763,415900735,0.32974052,3.6498393e-06,0.9952051,8.417866,0.013073164,8.381262,1
416000125,416000097,0.32968614,3.6507063e-06,-1.0337825,8.4826765,0.013998547,8.447708,1
416098816,416098788,0.3296952,3.6530294e-06,-4.491108,8.365452,0.26790145,8.418252,1
416202206,416202122,0.3297072,3.6556403e-06,5.857638,9.431714,0.40421447,9.5894,1
416301026,416300998,0.32964805,3.6571362e-06,1.5641425,10.107217,0.026895432,10.070022,1
416400114,416400086,0.32963932,3.6586807e-06,-2.644207,10.08823,0.07700758,10.072518,1
416499303,416499266,0.32958332,3.658435e-06,3.6469603,9.974356,0.14816126,9.982178,1
416608076,416608048,0.32958913,3.6572262e-06,1.2172194,9.7042,0.016964281,9.6582575,1
416701503,416701476,0.32946292,3.6595186e-06,1.7286814,9.376769,0.035410672,9.341905,1
416800412,416800371,0.3294438,3.6625054e-06,2.089302,9.0191145,0.053776935,8.992423,1
416899272,416899244,0.3294296,3.665214e-06,3.6428943,8.920903,0.16528817,8.931379,1
417002491,417002460,0.32942024,3.6697231e-06,2.3214438,9.196189,0.06511274,9.161741,1
417101432,417101401,0.32949194,3.6727392e-06,-4.9913197,9.541733,0.2901089,9.647949,1
417206546,417206518,0.32959795,3.6752806e-06,1.9325235,10.149686,0.0408841,10.097139,1
417299729,417299698,0.32956877,3.672067e-06,3.1116042,9.943824,0.10818643,9.937536,1
417398459,417398428,0.3295878,3.6696724e-06,0.88422906,9.812163,0.008853649,9.768962,1
417497164,417497136,0.32951936,3.6702943e-06,1.6135819,9.435728,0.030659432,9.402369,1
417600606,417600578,0.3294293,3.6742774e-06,1.9933695,9.120034,0.04841017,9.093177,1
417699824,417699796,0.32942754,3.6749268e-06,2.5916252,8.870997,0.08412585,8.855525,1
417798812,417798784,0.3294266,3.6746733e-06,1.6653008,8.813018,0.034963768,8.781392,1
417902273,417902245,0.32931197,3.6765382e-06,0.047320038,8.505212,2.9252471e-05,8.4434595,1
418001082,418001055,0.3293282,3.6767008e-06,0.84367967,8.336998,0.009486433,8.297875,1
418099735,418099704,0.32934588,3.6760377e-06,0.5204319,8.456884,0.0035585647,8.418118,1
418198647,418198608,0.329362,3.6750241e-06,2.9915175,8.3988495,0.11839157,8.396145,1
418303166,418303139,0.32936382,3.6755464e-06,-1.4756099,8.304175,0.029134268,8.271478,1
418401408,418401368,0.32924405,3.674726e-06,2.2392058,8.211044,0.06784958,8.182123,1
418500242,418500214,0.3292249,3.67342e-06,1.4738408,7.9530745,0.03034755,7.9212384,1
418605179,418605151,0.32923672,3.673571e-06,-5.00294,7.97032,0.34892523,8.102195,1
418702340,418702310,0.32903382,3.6726124e-06,2.7370746,8.109577,0.102643766,8.094562,1
418801508,418801477,0.32896617,3.6723466e-06,5.2807746,7.9410167,0.39019045,8.014734,1
418900210,418900182,0.32899192,3.6714944e-06,-3.6049137,8.239405,0.17524734,8.262215,1
418999563,418999532,0.328994,3.6707515e-06,0.44351804,8.154329,0.002680352,8.113682,1
419098462,419098434,0.32892957,3.6693964e-06,0.72933024,7.955269,0.007429354,7.9167285,1
419201743,419201712,0.32895154,3.6694655e-06,1.1043193,8.17008,0.016585192,8.117492,1
419300729,419300695,0.3289802,3.6683975e-06,-4.2415743,8.037033,0.24872296,8.086282,1
419399262,419399234,0.32930294,3.6664658e-06,-2.2881646,8.181927,0.071101114,8.164348,1
419498573,419498545,0.32948005,3.6718877e-06,-3.025618,31.799828,0.031986073,31.706547,1
419601768,419601737,0.32945848,3.6834263e-06,3.32514,31.552767,0.038934972,31.392338,1
419700818,419700733,0.32941252,3.6938202e-06,2.3470702,30.106731,0.020330407,29.98638,1
419799859,419799831,0.32938763,3.703859e-06,0.39692014,28.684803,0.00061025575,28.55378,1
419898555,419898527,0.3293815,3.7133093e-06,0.10388535,27.329323,4.3877037e-05,27.209003,1
420002040,420002012,0.32931855,3.7243162e-06,1.890728,27.015995,0.014702617,26.844955,1
420101166,420101138,0.32924792,3.7338298e-06,3.6354332,25.850275,0.056807365,25.770674,1
420200085,420200057,0.32922754,3.7430773e-06,-0.33906817,24.723242,0.00051668537,24.616709,1
420298780,420298753,0.32916898,3.752213e-06,1.566545,23.657108,0.011526079,23.550032,1
420397894,420397866,0.32911992,3.7612785e-06,1.2808492,22.565767,0.008077991,22.463974,1
420501598,420501567,0.32906264,3.7715154e-06,2.1407702,21.501966,0.023682056,21.359856,1
420600355,420600327,0.3290012,3.7799532e-06,1.5548143,20.434855,0.013144467,20.342813,1
420699154,420699127,0.32893923,3.788275e-06,1.2354317,19.460186,0.00871461,19.371695,1
420802411,420802368,0.32886812,3.7974653e-06,1.4167347,18.529818,0.012035481,18.40743,1
420901360,420901332,0.32879373,3.8053713e-06,1.3797889,17.607946,0.012013624,17.527327,1
421000518,421000488,0.32871202,3.8129049e-06,1.3945389,16.766985,0.012887355,16.68853,1
421099580,421099552,0.32862517,3.820277e-06,1.5053753,15.96624,0.015770461,15.890308,1
421198546,421198515,0.3285322,3.827429e-06,1.4130551,15.203846,0.014592248,15.130987,1
421301549,421301517,0.32843184,3.8353023e-06,1.5871186,14.476874,0.019333098,14.380221,1
421400465,421400426,0.32832527,3.841841e-06,1.6548065,13.754847,0.022120563,13.694305,1
421499357,421499326,0.32821098,3.8479798e-06,1.6424111,13.098474,0.022882346,13.041218,1
421598819,421598791,0.32808706,3.853966e-06,1.6890538,12.477203,0.025405467,12.416855,1
421702163,421702124,0.32795608,3.8607404e-06,1.7405359,11.85618,0.028390866,11.799448,1
421801191,421801162,0.32781482,3.8659946e-06,1.7373881,11.292312,0.029700812,11.2374325,1
421900010,421899982,0.3276648,3.87076e-06,1.6718138,10.753522,0.028879028,10.702999,1
421998632,421998604,0.32750437,3.875153e-06,1.7060864,10.241297,0.031579453,10.195211,1
422102213,422102100,0.32733595,3.880614e-06,1.8756713,9.753924,0.040076666,9.687813,1
422201026,422200998,0.32715225,3.8842454e-06,1.7697625,9.272022,0.037532978,9.2285795,1
422300244,422300213,0.3269545,3.8874928e-06,1.8793448,8.832693,0.0444301,8.789811,1
422404401,422404365,0.32674748,3.8916287e-06,1.872479,8.3938875,0.04641178,8.350521,1
422497727,422497699,0.3265252,3.8924086e-06,1.9196861,8.009646,0.05112162,7.976044,1
422601414,422601371,0.32628906,3.895726e-06,1.9673344,7.6323204,0.05634524,7.579941,1
422700150,422700122,0.3260381,3.896981e-06,1.9732313,7.254218,0.05963797,7.220998,1
422798993,422798966,0.32577386,3.8977273e-06,2.0233433,6.910989,0.065819785,6.878441,1
422898390,422898351,0.32549235,3.898031e-06,2.0547826,6.582771,0.0712657,6.550631,1
423002295,423002003,0.32519323,3.8990565e-06,2.0607803,6.2712803,0.07524275,6.225616,1
423100587,423100556,0.32487667,3.897943e-06,2.0245492,5.960523,0.07640641,5.9314194,1
423204278,423204247,0.3245406,3.897697e-06,2.1218648,5.677259,0.088115886,5.637072,1
423298433,423298405,0.32418665,3.8939434e-06,2.0949502,5.4074454,0.09018052,5.3820195,1
423401854,423401826,0.32381278,3.8921335e-06,2.125275,5.139885,0.09764147,5.11499,1
423500975,423500944,0.32342035,3.8881976e-06,2.128216,4.8959565,0.10279012,4.871092,1
423599834,423599806,0.32300735,3.8833286e-06,2.1252935,4.662026,0.107651636,4.6391363,1
423698803,423698775,0.32257318,3.8775697e-06,2.1255367,4.4404864,0.11304833,4.4177437,1
423801894,423801866,0.322113,3.8721832e-06,2.1938148,4.2182527,0.12677243,4.1984196,1
423901006,423900978,0.32163438,3.8647004e-06,2.1316807,4.0159173,0.12572366,3.9972835,1
424000088,424000060,0.3211298,3.8560484e-06,2.1158433,3.8247092,0.13005471,3.8057716,1
424098624,424098596,0.32060108,3.846285e-06,2.1386118,3.6425397,0.13951379,3.6242404,1
424202396,424202360,0.32004368,3.836848e-06,2.1049328,3.4682271,0.14194708,3.4424574,1
424287568,0,nan,nan,nan,nan,nan,nan,0
