timestamp,timestamp_sample,q[0],q[1],q[2],q[3],delta_q_reset[0],delta_q_reset[1],delta_q_reset[2],delta_q_reset[3],quat_reset_counter
368121911,368120926,0.99953765,-0.0027262352,-0.0012356925,-0.030258281,0.99999994,-3.8776156e-11,-1.8504574e-10,-0.00032197696,3
368171496,368170408,0.99953777,-0.0027621915,-0.0012365388,-0.03024939,0.99999994,-3.8776156e-11,-1.8504574e-10,-0.00032197696,3
368220860,368219860,0.99953014,-0.0025212986,-0.0013062366,-0.03052051,0.99999994,-3.8776156e-11,-1.8504574e-10,-0.00032197696,3
368270230,368269317,0.9995165,-0.0028182927,-0.0013277715,-0.030939119,0.99999994,-3.8776156e-11,-1.8504574e-10,-0.00032197696,3
368319683,368318780,0.99952793,-0.00281618,-0.0012957443,-0.030567879,0.99999994,-3.8776156e-11,-1.8504574e-10,-0.00032197696,3
368369276,368368243,0.99953485,-0.0027622716,-0.0012591905,-0.03034527,0.99999994,-3.8776156e-11,-1.8504574e-10,-0.00032197696,3
368423157,368422210,0.99952674,-0.0028163015,-0.0012365535,-0.030609483,0.99999994,-3.8776156e-11,-1.8504574e-10,-0.00032197696,3
368472797,368471667,0.99951905,-0.002830277,-0.0013170731,-0.030855589,0.99999994,-3.8776156e-11,-1.8504574e-10,-0.00032197696,3
368522354,368521142,0.9995274,-0.002769769,-0.0013423745,-0.03058694,0.99999994,-3.8776156e-11,-1.8504574e-10,-0.00032197696,3
368571855,368570596,0.99953187,-0.0027016324,-0.001228068,-0.030453784,0.99999994,-3.8776156e-11,-1.8504574e-10,-0.00032197696,3
368621069,368620081,0.9995265,-0.002757196,-0.0012503054,-0.030622233,0.99999994,-3.8776156e-11,-1.8504574e-10,-0.00032197696,3
368670477,368669521,0.99952155,-0.0027942576,-0.0012902704,-0.030777352,0.99999994,-3.8776156e-11,-1.8504574e-10,-0.00032197696,3
368719914,368718997,0.9995273,-0.002826387,-0.0013053089,-0.030585663,0.99999994,-3.8776156e-11,-1.8504574e-10,-0.00032197696,3
368774013,368772943,0.9995312,-0.0027624844,-0.0012145413,-0.030466283,0.99999994,-3.8776156e-11,-1.8504574e-10,-0.00032197696,3
368823304,368822405,0.9995262,-0.0028158217,-0.0012486796,-0.030626878,0.99999994,-3.8776156e-11,-1.8504574e-10,-0.00032197696,3
368872874,368871870,0.99952346,-0.0028791912,-0.0012966801,-0.030705987,0.99999994,-3.8776156e-11,-1.8504574e-10,-0.00032197696,3
368922244,368921333,0.9995288,-0.002870736,-0.0012748701,-0.030535467,0.99999994,-3.8776156e-11,-1.8504574e-10,-0.00032197696,3
368971789,368970796,0.99953055,-0.0028431944,-0.0012124723,-0.030483225,0.99999994,-3.8776156e-11,-1.8504574e-10,-0.00032197696,3
369021180,369020267,0.9995271,-0.0029146506,-0.001256126,-0.030588266,0.99999994,-3.8776156e-11,-1.8504574e-10,-0.00032197696,3
369070750,369069723,0.99952483,-0.0029868644,-0.001305101,-0.03065172,0.99999994,-3.8776156e-11,-1.8504574e-10,-0.00032197696,3
369124600,369123693,0.9995292,-0.0029614978,-0.0012837066,-0.030512271,0.99999994,-3.8776156e-11,-1.8504574e-10,-0.00032197696,3
369174049,369173146,0.9995316,-0.002917804,-0.0012292815,-0.030437466,0.99999994,-3.8776156e-11,-1.8504574e-10,-0.00032197696,3
369223881,369222616,0.99952906,-0.0029522611,-0.0012371597,-0.03052105,0.99999994,-3.8776156e-11,-1.8504574e-10,-0.00032197696,3
369268475,369267577,0.9995274,-0.0029402408,-0.0012566091,-0.030575914,0.99999994,-3.8776156e-11,-1.8504574e-10,-0.00032197696,3
369322488,369321537,0.9995293,-0.0029707914,-0.001188319,-0.030510409,0.99999994,-3.8776156e-11,-1.8504574e-10,-0.00032197696,3
369372051,369371000,0.99953073,-0.0029630475,-0.0011875664,-0.03046541,0.99999994,-3.8776156e-11,-1.8504574e-10,-0.00032197696,3
369421450,369420465,0.9995283,-0.0029982543,-0.0012397207,-0.030540349,0.99999994,-3.8776156e-11,-1.8504574e-10,-0.00032197696,3
369475448,369474424,0.99952793,-0.0029736653,-0.0012644029,-0.0305524,0.99999994,-3.8776156e-11,-1.8504574e-10,-0.00032197696,3
369520466,369519407,0.99952835,-0.002983311,-0.0012133857,-0.030541124,0.99999994,-3.8776156e-11,-1.8504574e-10,-0.00032197696,3
369569800,369568873,0.99952954,-0.0030079603,-0.0012776952,-0.030497102,0.99999994,-3.8776156e-11,-1.8504574e-10,-0.00032197696,3
369619200,369618317,0.9995287,-0.0030031996,-0.0013023147,-0.030523479,0.99999994,-3.8776156e-11,-1.8504574e-10,-0.00032197696,3
369673148,369672277,0.99952877,-0.0029794164,-0.0012813788,-0.030523412,0.99999994,-3.8776156e-11,-1.8504574e-10,-0.00032197696,3
369722665,369721741,0.9995301,-0.002982643,-0.0012626132,-0.03048433,0.99999994,-3.8776156e-11,-1.8504574e-10,-0.00032197696,3
369772111,369771243,0.999531,-0.0029823936,-0.0012670482,-0.03045444,0.99999994,-3.8776156e-11,-1.8504574e-10,-0.00032197696,3
369821616,369820670,0.9995308,-0.0029812276,-0.0012592209,-0.030457914,0.99999994,-3.8776156e-11,-1.8504574e-10,-0.00032197696,3
369871041,369870131,0.99953055,-0.0030028739,-0.0012602248,-0.030464994,0.99999994,-3.8776156e-11,-1.8504574e-10,-0.00032197696,3
369920655,369919594,0.99953234,-0.002971807,-0.0012702496,-0.030408328,0.99999994,-3.8776156e-11,-1.8504574e-10,-0.00032197696,3
369969980,369969060,0.9995333,-0.0029488115,-0.0012897591,-0.030379308,0.99999994,-3.8776156e-11,-1.8504574e-10,-0.00032197696,3
370024158,370023025,0.9995326,-0.0029176718,-0.001254943,-0.030409375,0.99999994,-3.8776156e-11,-1.8504574e-10,-0.00032197696,3
370073422,370072482,0.9995329,-0.0029183507,-0.0012677066,-0.030396791,0.99999994,-3.8776156e-11,-1.8504574e-10,-0.00032197696,3
370123133,370121952,0.9995351,-0.002930679,-0.0012617115,-0.030322375,0.99999994,-3.8776156e-11,-1.8504574e-10,-0.00032197696,3
370172450,370171408,0.99953574,-0.0029353367,-0.0012574975,-0.030300984,0.99999994,-3.8776156e-11,-1.8504574e-10,-0.00032197696,3
370221821,370220872,0.99953395,-0.0029657858,-0.0012716835,-0.03035718,0.99999994,-3.8776156e-11,-1.8504574e-10,-0.00032197696,3
370271234,370270344,0.999534,-0.002957622,-0.0012639259,-0.030355088,0.99999994,-3.8776156e-11,-1.8504574e-10,-0.00032197696,3
370320764,370319802,0.99953705,-0.002938631,-0.0011764617,-0.030262722,0.99999994,-3.8776156e-11,-1.8504574e-10,-0.00032197696,3
370370138,370369262,0.999537,-0.0029214546,-0.0011721487,-0.030264001,0.99999994,-3.8776156e-11,-1.8504574e-10,-0.00032197696,3
370424429,370423229,0.9995348,-0.0029389237,-0.0012749868,-0.030330865,0.99999994,-3.8776156e-11,-1.8504574e-10,-0.00032197696,3
370469118,370468189,0.9995341,-0.0029265336,-0.0012358582,-0.030359803,0.99999994,-3.8776156e-11,-1.8504574e-10,-0.00032197696,3
370523036,370522149,0.9995352,-0.0028915238,-0.0012168807,-0.030324535,0.99999994,-3.8776156e-11,-1.8504574e-10,-0.00032197696,3
370572844,370571612,0.99953413,-0.0029082668,-0.0012483167,-0.03035678,0.99999994,-3.8776156e-11,-1.8504574e-10,-0.00032197696,3
370622161,370621076,0.99953234,-0.002981315,-0.0013426226,-0.030406468,0.99999994,-3.8776156e-11,-1.8504574e-10,-0.00032197696,3
370671476,370670539,0.9995306,-0.002975821,-0.0013677855,-0.030463785,0.99999994,-3.8776156e-11,-1.8504574e-10,-0.00032197696,3
370720915,370720034,0.99953157,-0.002930297,-0.0013120574,-0.03043589,0.99999994,-3.8776156e-11,-1.8504574e-10,-0.00032197696,3
370770463,370769466,0.9995321,-0.0029451218,-0.0013095215,-0.030416382,0.99999994,-3.8776156e-11,-1.8504574e-10,-0.00032197696,3
370819803,370818929,0.99953043,-0.002955486,-0.0013471115,-0.030472292,0.99999994,-3.8776156e-11,-1.8504574e-10,-0.00032197696,3
370873860,370872893,0.9995293,-0.0029300882,-0.0013965141,-0.03050777,0.99999994,-3.8776156e-11,-1.8504574e-10,-0.00032197696,3
370923291,370922358,0.9995306,-0.002899747,-0.0013884312,-0.030466767,0.99999994,-3.8776156e-11,-1.8504574e-10,-0.00032197696,3
370972701,370971817,0.99953073,-0.0028920304,-0.0014087029,-0.030465698,0.99999994,-3.8776156e-11,-1.8504574e-10,-0.00032197696,3
371022211,371021280,0.9995284,-0.0028632241,-0.0014368516,-0.030540897,0.99999994,-3.8776156e-11,-1.8504574e-10,-0.00032197696,3
371071842,371070743,0.99952906,-0.0028351534,-0.0014857464,-0.030520044,0.99999994,-3.8776156e-11,-1.8504574e-10,-0.00032197696,3
371121199,371120207,0.9995311,-0.0027680984,-0.0014975531,-0.030459749,0.99999994,-3.8776156e-11,-1.8504574e-10,-0.00032197696,3
371170701,371169676,0.9995315,-0.0027308997,-0.0014881701,-0.03044868,0.99999994,-3.8776156e-11,-1.8504574e-10,-0.00032197696,3
371224730,371223636,0.9995297,-0.002801693,-0.00152213,-0.030499332,0.99999994,-3.8776156e-11,-1.8504574e-10,-0.00032197696,3
371274030,371273094,0.99953085,-0.0027567034,-0.0015089647,-0.030469546,0.99999994,-3.8776156e-11,-1.8504574e-10,-0.00032197696,3
371323733,371322557,0.99953234,-0.0026941122,-0.0014754577,-0.030426692,0.99999994,-3.8776156e-11,-1.8504574e-10,-0.00032197696,3
371368599,371367524,0.99953425,-0.002668148,-0.0014784526,-0.030362992,0.99999994,-3.8776156e-11,-1.8504574e-10,-0.00032197696,3
371422455,371421490,0.9995329,-0.0026796318,-0.0015226079,-0.030408777,0.99999994,-3.8776156e-11,-1.8504574e-10,-0.00032197696,3
371471844,371470948,0.99953246,-0.0026783678,-0.001497984,-0.030423505,0.99999994,-3.8776156e-11,-1.8504574e-10,-0.00032197696,3
371521310,371520411,0.9995336,-0.0026770364,-0.001491446,-0.030384323,0.99999994,-3.8776156e-11,-1.8504574e-10,-0.00032197696,3
371570765,371569882,0.9995332,-0.0027092493,-0.0015481455,-0.030393897,0.99999994,-3.8776156e-11,-1.8504574e-10,-0.00032197696,3
371620409,371619352,0.9995302,-0.0027062232,-0.0015694727,-0.03049175,0.99999994,-3.8776156e-11,-1.8504574e-10,-0.00032197696,3
371669795,371668819,0.99952924,-0.0027018643,-0.0015123935,-0.030527033,0.99999994,-3.8776156e-11,-1.8504574e-10,-0.00032197696,3
371719337,371718265,0.9995313,-0.0026560402,-0.0014606756,-0.030464754,0.99999994,-3.8776156e-11,-1.8504574e-10,-0.00032197696,3
371773085,371772225,0.9995303,-0.0026515422,-0.0015311597,-0.030494934,0.99999994,-3.8776156e-11,-1.8504574e-10,-0.00032197696,3
371823000,371821706,0.9995278,-0.0026733014,-0.0015606838,-0.030569943,0.99999994,-3.8776156e-11,-1.8504574e-10,-0.00032197696,3
371872401,371871167,0.9995278,-0.0026645125,-0.001542779,-0.030574774,0.99999994,-3.8776156e-11,-1.8504574e-10,-0.00032197696,3
371921528,371920615,0.9995285,-0.0026870128,-0.0015432202,-0.030546384,0.99999994,-3.8776156e-11,-1.8504574e-10,-0.00032197696,3
371970983,371970079,0.9995276,-0.002701914,-0.0015655579,-0.030575257,0.99999994,-3.8776156e-11,-1.8504574e-10,-0.00032197696,3
372020636,372019547,0.9995261,-0.0027062302,-0.0015703712,-0.03062686,0.99999994,-3.8776156e-11,-1.8504574e-10,-0.00032197696,3
372070030,372069005,0.99952686,-0.0026502768,-0.0015391336,-0.03060511,0.99999994,-3.8776156e-11,-1.8504574e-10,-0.00032197696,3
372124413,372122969,0.9995272,-0.0025844849,-0.0015580654,-0.03060081,0.99999994,-3.8776156e-11,-1.8504574e-10,-0.00032197696,3
372173308,372172429,0.9995271,-0.0025594353,-0.0015791917,-0.0306051,0.99999994,-3.8776156e-11,-1.8504574e-10,-0.00032197696,3
372222755,372221909,0.999526,-0.0025446478,-0.00155957,-0.030641256,0.99999994,-3.8776156e-11,-1.8504574e-10,-0.00032197696,3
372272425,372271356,0.9995271,-0.0025319173,-0.0015401855,-0.030609371,0.99999994,-3.8776156e-11,-1.8504574e-10,-0.00032197696,3
372321789,372320820,0.9995276,-0.0025196362,-0.0015659984,-0.030593416,0.99999994,-3.8776156e-11,-1.8504574e-10,-0.00032197696,3
372371263,372370283,0.99952626,-0.002556105,-0.0015857839,-0.03063143,0.99999994,-3.8776156e-11,-1.8504574e-10,-0.00032197696,3
372420630,372419746,0.9995263,-0.0025312332,-0.0015279956,-0.030635782,0.99999994,-3.8776156e-11,-1.8504574e-10,-0.00032197696,3
372474633,372473706,0.9995286,-0.0025536583,-0.0015329148,-0.03055786,0.99999994,-3.8776156e-11,-1.8504574e-10,-0.00032197696,3
372524419,372523174,0.99952763,-0.0026151482,-0.0015708624,-0.030581765,0.99999994,-3.8776156e-11,-1.8504574e-10,-0.00032197696,3
372569182,372568137,0.99952483,-0.0026806798,-0.001587358,-0.030667149,0.99999994,-3.8776156e-11,-1.8504574e-10,-0.00032197696,3
372622940,372622097,0.9995265,-0.0026831944,-0.0015782993,-0.030613584,0.99999994,-3.8776156e-11,-1.8504574e-10,-0.00032197696,3
372672610,372671567,0.9995288,-0.0027264324,-0.0015808808,-0.030533664,0.99999994,-3.8776156e-11,-1.8504574e-10,-0.00032197696,3
372722028,372721031,0.9995277,-0.0027371193,-0.0015974136,-0.030570269,0.99999994,-3.8776156e-11,-1.8504574e-10,-0.00032197696,3
372771500,372770487,0.99952745,-0.0027513218,-0.0015959665,-0.030576255,0.99999994,-3.8776156e-11,-1.8504574e-10,-0.00032197696,3
372820865,372819979,0.9995291,-0.002757848,-0.0015506002,-0.03052166,0.99999994,-3.8776156e-11,-1.8504574e-10,-0.00032197696,3
372870316,372869414,0.9995303,-0.0027965244,-0.0016093674,-0.030478029,0.99999994,-3.8776156e-11,-1.8504574e-10,-0.00032197696,3
372919824,372918878,0.9995292,-0.0028408514,-0.0016629965,-0.030505642,0.99999994,-3.8776156e-11,-1.8504574e-10,-0.00032197696,3
372973886,372972838,0.99953,-0.0027758274,-0.0016465497,-0.030487396,0.99999994,-3.8776156e-11,-1.8504574e-10,-0.00032197696,3
373023422,373022318,0.9995327,-0.0027600268,-0.0016045752,-0.030403208,0.99999994,-3.8776156e-11,-1.8504574e-10,-0.00032197696,3
373072769,373071765,0.99953294,-0.0027780498,-0.0016328893,-0.030390343,0.99999994,-3.8776156e-11,-1.8504574e-10,-0.00032197696,3
373122105,373121229,0.99953014,-0.0028003512,-0.0016452605,-0.030482378,0.99999994,-3.8776156e-11,-1.8504574e-10,-0.00032197696,3
373171669,373170700,0.9995299,-0.0027958166,-0.0016460049,-0.030489713,0.99999994,-3.8776156e-11,-1.8504574e-10,-0.00032197696,3
373221037,373220159,0.99953175,-0.002736777,-0.001621117,-0.030434633,0.99999994,-3.8776156e-11,-1.8504574e-10,-0.00032197696,3
373270556,373269619,0.9995319,-0.0027638008,-0.0016472903,-0.030424625,0.99999994,-3.8776156e-11,-1.8504574e-10,-0.00032197696,3
373324679,373323579,0.9995301,-0.0028373096,-0.0016367701,-0.030480413,0.99999994,-3.8776156e-11,-1.8504574e-10,-0.00032197696,3
373373927,373373043,0.99953085,-0.0028486755,-0.0016541444,-0.0304501,0.99999994,-3.8776156e-11,-1.8504574e-10,-0.00032197696,3
373423879,373422513,0.9995333,-0.0028765514,-0.0016413083,-0.030370858,0.99999994,-3.8776156e-11,-1.8504574e-10,-0.00032197696,3
373468379,373467473,0.99953103,-0.0028637673,-0.001615824,-0.03044539,0.99999994,-3.8776156e-11,-1.8504574e-10,-0.00032197696,3
373522353,373521432,0.9995305,-0.0029203543,-0.0016441698,-0.030457558,0.99999994,-3.8776156e-11,-1.8504574e-10,-0.00032197696,3
373571804,373570897,0.99953175,-0.0029315955,-0.0016385621,-0.030416535,0.99999994,-3.8776156e-11,-1.8504574e-10,-0.00032197696,3
373621351,373620366,0.99953467,-0.0029337883,-0.0015872831,-0.030323027,0.99999994,-3.8776156e-11,-1.8504574e-10,-0.00032197696,3
373675292,373674320,0.9995364,-0.002888737,-0.0015559733,-0.030270914,0.99999994,-3.8776156e-11,-1.8504574e-10,-0.00032197696,3
373720314,373719291,0.99953383,-0.0029340426,-0.001596864,-0.030348027,0.99999994,-3.8776156e-11,-1.8504574e-10,-0.00032197696,3
373769764,373768773,0.9995346,-0.0029734506,-0.0016106768,-0.030319318,0.99999994,-3.8776156e-11,-1.8504574e-10,-0.00032197696,3
373819220,373818214,0.9995366,-0.0029839901,-0.0015918148,-0.030252803,0.99999994,-3.8776156e-11,-1.8504574e-10,-0.00032197696,3
373873031,373872174,0.9995364,-0.0029325532,-0.0015667087,-0.03026386,0.99999994,-3.8776156e-11,-1.8504574e-10,-0.00032197696,3
373922563,373921638,0.99953467,-0.002978559,-0.0016271048,-0.030317154,0.99999994,-3.8776156e-11,-1.8504574e-10,-0.00032197696,3
373972032,373971142,0.9995345,-0.00295116,-0.0016501521,-0.030319959,0.99999994,-3.8776156e-11,-1.8504574e-10,-0.00032197696,3
374021414,374020565,0.9995356,-0.002956578,-0.0016651206,-0.03028548,0.99999994,-3.8776156e-11,-1.8504574e-10,-0.00032197696,3
374070879,374070029,0.99953514,-0.0029315155,-0.0016362144,-0.030303717,0.99999994,-3.8776156e-11,-1.8504574e-10,-0.00032197696,3
374120400,374119499,0.99953467,-0.002878533,-0.001592588,-0.030327339,0.99999994,-3.8776156e-11,-1.8504574e-10,-0.00032197696,3
374170001,374168956,0.9995346,-0.0028752163,-0.0016066747,-0.030327508,0.99999994,-3.8776156e-11,-1.8504574e-10,-0.00032197696,3
374224003,374222919,0.99953496,-0.0028489435,-0.0016460855,-0.030314844,0.99999994,-3.8776156e-11,-1.8504574e-10,-0.00032197696,3
374273279,374272388,0.99953645,-0.002847233,-0.0016225567,-0.030269433,0.99999994,-3.8776156e-11,-1.8504574e-10,-0.00032197696,3
374322780,374321843,0.9995363,-0.0028349936,-0.001560476,-0.030278537,0.99999994,-3.8776156e-11,-1.8504574e-10,-0.00032197696,3
374372162,374371314,0.99953616,-0.002866774,-0.0016168815,-0.030277673,0.99999994,-3.8776156e-11,-1.8504574e-10,-0.00032197696,3
374421782,374420770,0.9995356,-0.0029329862,-0.0016616301,-0.030287076,0.99999994,-3.8776156e-11,-1.8504574e-10,-0.00032197696,3
374471141,374470234,0.9995361,-0.0029294898,-0.0016478634,-0.030271193,0.99999994,-3.8776156e-11,-1.8504574e-10,-0.00032197696,3
374520827,374519698,0.9995371,-0.002958262,-0.0016423707,-0.030235073,0.99999994,-3.8776156e-11,-1.8504574e-10,-0.00032197696,3
374574696,374573657,0.9995376,-0.0029587522,-0.0016350874,-0.030219695,0.99999994,-3.8776156e-11,-1.8504574e-10,-0.00032197696,3
374624254,374623121,0.99953777,-0.0029850893,-0.0016893657,-0.030209081,0.99999994,-3.8776156e-11,-1.8504574e-10,-0.00032197696,3
374669210,374668088,0.9995368,-0.0029759705,-0.0016718707,-0.0302436,0.99999994,-3.8776156e-11,-1.8504574e-10,-0.00032197696,3
374722895,374722050,0.9995355,-0.0029031483,-0.0016232004,-0.030297462,0.99999994,-3.8776156e-11,-1.8504574e-10,-0.00032197696,3
374772475,374771512,0.9995371,-0.0029130029,-0.0016000443,-0.03024389,0.99999994,-3.8776156e-11,-1.8504574e-10,-0.00032197696,3
374822032,374820991,0.9995399,-0.0029009387,-0.0016413109,-0.030147575,0.99999994,-3.8776156e-11,-1.8504574e-10,-0.00032197696,3
374871445,374870453,0.99953973,-0.002912017,-0.0016562847,-0.030153483,0.99999994,-3.8776156e-11,-1.8504574e-10,-0.00032197696,3
374920851,374919944,0.9995359,-0.0029206497,-0.0016517113,-0.030277193,0.99999994,-3.8776156e-11,-1.8504574e-10,-0.00032197696,3
374970304,374969366,0.99953157,-0.0028919787,-0.0016811724,-0.030423807,0.99999994,-3.8776156e-11,-1.8504574e-10,-0.00032197696,3
375019785,375018833,0.9995338,-0.0029185866,-0.0016175244,-0.030351602,0.99999994,-3.8776156e-11,-1.8504574e-10,-0.00032197696,3
375069193,375068299,0.99954087,-0.0028263037,-0.0015593161,-0.030128634,0.99999994,-3.8776156e-11,-1.8504574e-10,-0.00032197696,3
375123213,375122269,0.99953383,-0.0027274247,-0.001662388,-0.030365441,0.99999994,-3.8776156e-11,-1.8504574e-10,-0.00032197696,3
375172613,375171717,0.99953806,-0.0028099206,-0.0015774228,-0.030221893,0.99999994,-3.8776156e-11,-1.8504574e-10,-0.00032197696,3
375222166,375221182,0.99953485,-0.0026824272,-0.0015947206,-0.030338908,0.99999994,-3.8776156e-11,-1.8504574e-10,-0.00032197696,3
375271584,375270644,0.9995375,-0.0025989264,-0.0015303927,-0.03026179,0.99999994,-3.8776156e-11,-1.8504574e-10,-0.00032197696,3
375320987,375320108,0.99953884,-0.0025849831,-0.0016016485,-0.030214699,0.99999994,-3.8776156e-11,-1.8504574e-10,-0.00032197696,3
375370598,375369572,0.99953943,-0.0025323979,-0.0016048927,-0.030200846,0.99999994,-3.8776156e-11,-1.8504574e-10,-0.00032197696,3
375424662,375423540,0.99953634,-0.002331676,-0.0015585022,-0.030319346,0.99999994,-3.8776156e-11,-1.8504574e-10,-0.00032197696,3
375473884,375472995,0.99953717,-0.0023881434,-0.0014753183,-0.030293947,0.99999994,-3.8776156e-11,-1.8504574e-10,-0.00032197696,3
375523488,375522459,0.9995374,-0.0023948117,-0.0015787374,-0.030280573,0.99999994,-3.8776156e-11,-1.8504574e-10,-0.00032197696,3
375568320,375567426,0.99954444,-0.0021804352,-0.0015652339,-0.030064072,0.99999994,-3.8776156e-11,-1.8504574e-10,-0.00032197696,3
375622381,375621392,0.9995514,-0.0020942553,-0.0013387186,-0.029847736,0.99999994,-3.8776156e-11,-1.8504574e-10,-0.00032197696,3
375671743,375670850,0.99955195,-0.0018937535,-0.0010661681,-0.02985361,0.99999994,-3.8776156e-11,-1.8504574e-10,-0.00032197696,3
375721506,375720313,0.9995473,-0.0019845217,-0.0011907466,-0.029996261,0.99999994,-3.8776156e-11,-1.8504574e-10,-0.00032197696,3
375770702,375769781,0.9995452,-0.00210414,-0.0014297371,-0.030050922,0.99999994,-3.8776156e-11,-1.8504574e-10,-0.00032197696,3
375820161,375819241,0.99954265,-0.002548564,-0.0018670597,-0.030078016,0.99999994,-3.8776156e-11,-1.8504574e-10,-0.00032197696,3
375869842,375868732,0.9995423,-0.0030392625,-0.0023377656,-0.030008435,0.99999994,-3.8776156e-11,-1.8504574e-10,-0.00032197696,3
375919073,375918168,0.9995388,-0.0035194873,-0.0032460168,-0.02998898,0.99999994,-3.8776156e-11,-1.8504574e-10,-0.00032197696,3
375973215,375972128,0.9995313,-0.003484411,-0.0047929958,-0.03003393,0.99999994,-3.8776156e-11,-1.8504574e-10,-0.00032197696,3
376022592,376021592,0.9995243,-0.003137333,-0.0064232238,-0.030002126,0.99999994,-3.8776156e-11,-1.8504574e-10,-0.00032197696,3
376071959,376071077,0.99951005,-0.0031826247,-0.00796195,-0.03010359,0.99999994,-3.8776156e-11,-1.8504574e-10,-0.00032197696,3
376121900,376120528,0.99949986,-0.0036347636,-0.00840766,-0.030267283,0.99999994,-3.8776156e-11,-1.8504574e-10,-0.00032197696,3
376170868,376169983,0.9994867,-0.0040340004,-0.008842962,-0.030527674,0.99999994,-3.8776156e-11,-1.8504574e-10,-0.00032197696,3
376220361,376219447,0.9994793,-0.0041720658,-0.00871139,-0.03078935,0.99999994,-3.8776156e-11,-1.8504574e-10,-0.00032197696,3
376269857,376268910,0.99946886,-0.0036341453,-0.00861376,-0.031220436,0.99999994,-3.8776156e-11,-1.8504574e-10,-0.00032197696,3
376324095,376322876,0.99946374,-0.0009346815,-0.0086705,-0.031562354,0.99999994,-3.8776156e-11,-1.8504574e-10,-0.00032197696,3
376373266,376372334,0.99945617,0.0013476855,-0.008241719,-0.03190259,0.99999994,-3.8776156e-11,-1.8504574e-10,-0.00032197696,3
376422734,376421798,0.99944454,0.0030024925,-0.007814411,-0.03225784,0.99999994,-3.8776156e-11,-1.8504574e-10,-0.00032197696,3
376472336,376471262,0.9994376,0.0035465246,-0.007410405,-0.03251372,0.99999994,-3.8776156e-11,-1.8504574e-10,-0.00032197696,3
376521742,376520726,0.9994341,0.00298533,-0.0068244874,-0.032803368,0.99999994,-3.8776156e-11,-1.8504574e-10,-0.00032197696,3
376571119,376570189,0.9994333,0.0018666739,-0.0062211165,-0.033030223,0.99999994,-3.8776156e-11,-1.8504574e-10,-0.00032197696,3
376620713,376619653,0.99943274,0.0009989357,-0.006579242,-0.033013333,0.99999994,-3.8776156e-11,-1.8504574e-10,-0.00032197696,3
376674537,376673613,0.99942064,0.0010957248,-0.00825553,-0.03300123,0.99999994,-3.8776156e-11,-1.8504574e-10,-0.00032197696,3
376724422,376723082,0.99940294,0.0009532825,-0.010083898,-0.033033308,0.99999994,-3.8776156e-11,-1.8504574e-10,-0.00032197696,3
376769023,376768043,0.99938726,0.0014500952,-0.011663723,-0.032971337,0.99999994,-3.8776156e-11,-1.8504574e-10,-0.00032197696,3
376822839,376822004,0.9993704,0.0015435438,-0.012912912,-0.033011895,0.99999994,-3.8776156e-11,-1.8504574e-10,-0.00032197696,3
376872441,376871468,0.9993632,0.0018937704,-0.01317184,-0.033109374,0.99999994,-3.8776156e-11,-1.8504574e-10,-0.00032197696,3
376921832,376920935,0.99936485,0.0025008153,-0.013063182,-0.03306241,0.99999994,-3.8776156e-11,-1.8504574e-10,-0.00032197696,3
376971356,376970405,0.99936587,0.0032262362,-0.013115379,-0.03294921,0.99999994,-3.8776156e-11,-1.8504574e-10,-0.00032197696,3
377020799,377019898,0.9993587,0.004890241,-0.01341336,-0.032838736,0.99999994,-3.8776156e-11,-1.8504574e-10,-0.00032197696,3
377070206,377069323,0.9993542,0.0065528085,-0.013416797,-0.032685652,0.99999994,-3.8776156e-11,-1.8504574e-10,-0.00032197696,3
377119668,377118786,0.9993445,0.008025756,-0.013622261,-0.03256701,0.99999994,-3.8776156e-11,-1.8504574e-10,-0.00032197696,3
377173642,377172747,0.9993326,0.0090257,-0.014040344,-0.032494415,0.99999994,-3.8776156e-11,-1.8504574e-10,-0.00032197696,3
377223154,377222224,0.99932325,0.009739387,-0.014439887,-0.032399908,0.99999994,-3.8776156e-11,-1.8504574e-10,-0.00032197696,3
377272574,377271674,0.99932426,0.010061742,-0.014295452,-0.032334685,0.99999994,-3.8776156e-11,-1.8504574e-10,-0.00032197696,3
377322022,377321138,0.99933934,0.00987158,-0.013336729,-0.03233757,0.99999994,-3.8776156e-11,-1.8504574e-10,-0.00032197696,3
377371577,377370601,0.9993572,0.00918306,-0.0125352405,-0.032307945,0.99999994,-3.8776156e-11,-1.8504574e-10,-0.00032197696,3
377421089,377420065,0.9993722,0.008429115,-0.012157468,-0.032193035,0.99999994,-3.8776156e-11,-1.8504574e-10,-0.00032197696,3
377470473,377469529,0.9993847,0.0075502307,-0.011944098,-0.032103054,0.99999994,-3.8776156e-11,-1.8504574e-10,-0.00032197696,3
377524704,377523493,0.9993939,0.0069410554,-0.011970908,-0.031945266,0.99999994,-3.8776156e-11,-1.8504574e-10,-0.00032197696,3
377573836,377572953,0.9993897,0.007685879,-0.012588124,-0.03166761,0.99999994,-3.8776156e-11,-1.8504574e-10,-0.00032197696,3
377623426,377622417,0.9993831,0.008543203,-0.012904544,-0.031528253,0.99999994,-3.8776156e-11,-1.8504574e-10,-0.00032197696,3
377668410,377667394,0.99938035,0.009046899,-0.013086673,-0.031398073,0.99999994,-3.8776156e-11,-1.8504574e-10,-0.00032197696,3
377722292,377721344,0.9993837,0.008995828,-0.013126647,-0.03129231,0.99999994,-3.8776156e-11,-1.8504574e-10,-0.00032197696,3
377771711,377770808,0.9993898,0.008792873,-0.012981444,-0.031212691,0.99999994,-3.8776156e-11,-1.8504574e-10,-0.00032197696,3
377821195,377820272,0.9994,0.008139878,-0.012743888,-0.031160962,0.99999994,-3.8776156e-11,-1.8504574e-10,-0.00032197696,3
377870758,377869742,0.99941087,0.0070961732,-0.012587277,-0.031130524,0.99999994,-3.8776156e-11,-1.8504574e-10,-0.00032197696,3
377925012,377923702,0.9994211,0.0055334414,-0.012592523,-0.031118639,0.99999994,-3.8776156e-11,-1.8504574e-10,-0.00032197696,3
377969637,377968686,0.999432,0.0041077044,-0.012482723,-0.031034628,0.99999994,-3.8776156e-11,-1.8504574e-10,-0.00032197696,3
378019061,378018127,0.99943644,0.0026743526,-0.012673111,-0.030968713,0.99999994,-3.8776156e-11,-1.8504574e-10,-0.00032197696,3
378073085,378072091,0.99942636,0.0014466402,-0.013579832,-0.030992618,0.99999994,-3.8776156e-11,-1.8504574e-10,-0.00032197696,3
378122529,378121551,0.9994126,0.00036017693,-0.014168972,-0.031202516,0.99999994,-3.8776156e-11,-1.8504574e-10,-0.00032197696,3
378171915,378171029,0.99939895,-0.0006315676,-0.0147152515,-0.031383462,0.99999994,-3.8776156e-11,-1.8504574e-10,-0.00032197696,3
378221551,378220479,0.99938995,-0.0015459798,-0.014835846,-0.03157833,0.99999994,-3.8776156e-11,-1.8504574e-10,-0.00032197696,3
378270808,378269943,0.9993854,-0.0024144496,-0.014498547,-0.031823978,0.99999994,-3.8776156e-11,-1.8504574e-10,-0.00032197696,3
378320263,378319406,0.99938726,-0.0032148995,-0.013959857,-0.031936444,0.99999994,-3.8776156e-11,-1.8504574e-10,-0.00032197696,3
378369816,378368870,0.99939114,-0.0036619182,-0.013121715,-0.032121588,0.99999994,-3.8776156e-11,-1.8504574e-10,-0.00032197696,3
378423920,378422830,0.9993866,-0.00497671,-0.012125904,-0.032475457,0.99999994,-3.8776156e-11,-1.8504574e-10,-0.00032197696,3
378473163,378472294,0.99938166,-0.0058908127,-0.011947875,-0.032539576,0.99999994,-3.8776156e-11,-1.8504574e-10,-0.00032197696,3
378522738,378521758,0.99937385,-0.0064369757,-0.011888136,-0.032698274,0.99999994,-3.8776156e-11,-1.8504574e-10,-0.00032197696,3
378572097,378571229,0.9993672,-0.0065137227,-0.011800457,-0.032919,0.99999994,-3.8776156e-11,-1.8504574e-10,-0.00032197696,3
378671132,378670156,0.9993747,-0.0050399345,-0.010672623,-0.033330467,0.99999994,-3.8776156e-11,-1.8504574e-10,-0.00032197696,3
378720536,378719613,0.9993784,-0.00479127,-0.00964114,-0.033572137,0.99999994,-3.8776156e-11,-1.8504574e-10,-0.00032197696,3
378774576,378773574,0.99938416,-0.0049090898,-0.008897058,-0.03358804,0.99999994,-3.8776156e-11,-1.8504574e-10,-0.00032197696,3
378824196,378823041,0.99938136,-0.005404079,-0.008537528,-0.03368966,0.99999994,-3.8776156e-11,-1.8504574e-10,-0.00032197696,3
378868948,378868004,0.9993765,-0.0059822784,-0.008268213,-0.03380286,0.99999994,-3.8776156e-11,-1.8504574e-10,-0.00032197696,3
378922956,378921972,0.99936736,-0.006572574,-0.008186189,-0.03398392,0.99999994,-3.8776156e-11,-1.8504574e-10,-0.00032197696,3
378972266,378971429,0.99935746,-0.0070872516,-0.007972504,-0.03421884,0.99999994,-3.8776156e-11,-1.8504574e-10,-0.00032197696,3
379021894,379020893,0.9990596,-0.0075536645,-0.0074061425,-0.042048644,0.9999708,-1.0820796e-09,-1.4640423e-09,-0.0076455344,4
379071403,379070357,0.99903965,-0.007674782,-0.0069609853,-0.042572103,0.9999708,-1.0820796e-09,-1.4640423e-09,-0.0076455344,4
379120859,379119859,0.9990356,-0.0072778594,-0.006520076,-0.04280841,0.9999708,-1.0820796e-09,-1.4640423e-09,-0.0076455344,4
379170181,379169285,0.9990368,-0.006975225,-0.006003727,-0.042905238,0.9999708,-1.0820796e-09,-1.4640423e-09,-0.0076455344,4
379219689,379218748,0.9990471,-0.0070639816,-0.0056622797,-0.042697456,0.9999708,-1.0820796e-09,-1.4640423e-09,-0.0076455344,4
379269137,379268212,0.99906796,-0.0071564736,-0.005357978,-0.042229418,0.9999708,-1.0820796e-09,-1.4640423e-09,-0.0076455344,4
379323101,379322182,0.9990905,-0.0074505047,-0.0048064888,-0.041709892,0.9999708,-1.0820796e-09,-1.4640423e-09,-0.0076455344,4
379372594,379371638,0.9991238,-0.007831214,-0.0044723377,-0.0408696,0.9999708,-1.0820796e-09,-1.4640423e-09,-0.0076455344,4
379422049,379421100,0.99915683,-0.0076540536,-0.004003452,-0.0401376,0.9999708,-1.0820796e-09,-1.4640423e-09,-0.0076455344,4
379471528,379470567,0.9991862,-0.00734106,-0.0037321365,-0.03948644,0.9999708,-1.0820796e-09,-1.4640423e-09,-0.0076455344,4
379521061,379520028,0.9992057,-0.006659715,-0.0044118958,-0.03904176,0.9999708,-1.0820796e-09,-1.4640423e-09,-0.0076455344,4
379570427,379569492,0.9992105,-0.0064795963,-0.004914701,-0.03888807,0.9999708,-1.0820796e-09,-1.4640423e-09,-0.0076455344,4
379624684,379623456,0.9992138,-0.0070861676,-0.004339342,-0.038765356,0.9999708,-1.0820796e-09,-1.4640423e-09,-0.0076455344,4
379674070,379672916,0.9992087,-0.007998498,-0.0032415031,-0.038828805,0.9999708,-1.0820796e-09,-1.4640423e-09,-0.0076455344,4
379723363,379722405,0.9992027,-0.008839313,-0.0022108736,-0.038870122,0.9999708,-1.0820796e-09,-1.4640423e-09,-0.0076455344,4
379768285,379767348,0.9991955,-0.009286614,-0.0016503314,-0.038980052,0.9999708,-1.0820796e-09,-1.4640423e-09,-0.0076455344,4
379822188,379821308,0.9991828,-0.0095576,-0.00108726,-0.03925725,0.9999708,-1.0820796e-09,-1.4640423e-09,-0.0076455344,4
379871650,379870772,0.9991787,-0.009481149,-0.0012518878,-0.039377153,0.9999708,-1.0820796e-09,-1.4640423e-09,-0.0076455344,4
379921264,379920239,0.9991764,-0.009182138,-0.0016299399,-0.039492697,0.9999708,-1.0820796e-09,-1.4640423e-09,-0.0076455344,4
379970690,379969700,0.99916464,-0.009599998,-0.002028803,-0.039670084,0.9999708,-1.0820796e-09,-1.4640423e-09,-0.0076455344,4
380020106,380019171,0.9991529,-0.010233981,-0.0024031175,-0.03978879,0.9999708,-1.0820796e-09,-1.4640423e-09,-0.0076455344,4
380069509,380068639,0.99914604,-0.010488843,-0.0028798874,-0.039860748,0.9999708,-1.0820796e-09,-1.4640423e-09,-0.0076455344,4
380119023,380118092,0.9991382,-0.010819861,-0.0032312444,-0.03994308,0.9999708,-1.0820796e-09,-1.4640423e-09,-0.0076455344,4
380172920,380172052,0.99913454,-0.011005236,-0.003964408,-0.039916962,0.9999708,-1.0820796e-09,-1.4640423e-09,-0.0076455344,4
380222565,380221522,0.99913406,-0.01116706,-0.004967983,-0.039770722,0.9999708,-1.0820796e-09,-1.4640423e-09,-0.0076455344,4
380271856,380270983,0.99913114,-0.011825937,-0.005775722,-0.039545264,0.9999708,-1.0820796e-09,-1.4640423e-09,-0.0076455344,4
380321312,380320453,0.9991416,-0.011712354,-0.0064663477,-0.039207816,0.9999708,-1.0820796e-09,-1.4640423e-09,-0.0076455344,4
380370863,380369909,0.99916065,-0.01090956,-0.006826643,-0.038888924,0.9999708,-1.0820796e-09,-1.4640423e-09,-0.0076455344,4
380420454,380419372,0.9991783,-0.009764714,-0.0072551495,-0.038664445,0.9999708,-1.0820796e-09,-1.4640423e-09,-0.0076455344,4
380469778,380468836,0.9991897,-0.008901878,-0.0077294363,-0.038484775,0.9999708,-1.0820796e-09,-1.4640423e-09,-0.0076455344,4
380523903,380522796,0.999192,-0.008691768,-0.007747862,-0.03846834,0.9999708,-1.0820796e-09,-1.4640423e-09,-0.0076455344,4
380573126,380572260,0.9991966,-0.008660119,-0.007676552,-0.03837224,0.9999708,-1.0820796e-09,-1.4640423e-09,-0.0076455344,4
380622636,380621724,0.99919593,-0.008994105,-0.007286407,-0.038388014,0.9999708,-1.0820796e-09,-1.4640423e-09,-0.0076455344,4
380672111,380671188,0.99920183,-0.008799923,-0.0070450758,-0.038324267,0.9999708,-1.0820796e-09,-1.4640423e-09,-0.0076455344,4
380721831,380720652,0.9992075,-0.007813492,-0.0068706204,-0.03841982,0.9999708,-1.0820796e-09,-1.4640423e-09,-0.0076455344,4
380771096,380770122,0.9992052,-0.006854994,-0.00675159,-0.038685422,0.9999708,-1.0820796e-09,-1.4640423e-09,-0.0076455344,4
380820745,380819586,0.99920404,-0.005973941,-0.006504416,-0.03890202,0.9999708,-1.0820796e-09,-1.4640423e-09,-0.0076455344,4
380874498,380873544,0.9992059,-0.005040492,-0.0058641788,-0.03908721,0.9999708,-1.0820796e-09,-1.4640423e-09,-0.0076455344,4
380924634,380923011,0.99921656,-0.0039329994,-0.0044968524,-0.039123476,0.9999708,-1.0820796e-09,-1.4640423e-09,-0.0076455344,4
380968955,380967972,0.9992232,-0.0028126,-0.0033603068,-0.039165772,0.9999708,-1.0820796e-09,-1.4640423e-09,-0.0076455344,4
381022824,381021988,0.99922854,-0.001262738,-0.002900552,-0.039146688,0.9999708,-1.0820796e-09,-1.4640423e-09,-0.0076455344,4
381072241,381071397,0.9992238,0.00021865353,-0.0030929986,-0.039270036,0.9999708,-1.0820796e-09,-1.4640423e-09,-0.0076455344,4
381121769,381120863,0.99921674,0.0006638627,-0.003745321,-0.039388824,0.9999708,-1.0820796e-09,-1.4640423e-09,-0.0076455344,4
381171319,381170324,0.99921,0.00045936747,-0.0045774844,-0.039475262,0.9999708,-1.0820796e-09,-1.4640423e-09,-0.0076455344,4
381220976,381219809,0.9992027,1.4945628e-05,-0.0049066436,-0.039620597,0.9999708,-1.0820796e-09,-1.4640423e-09,-0.0076455344,4
381270290,381269253,0.9992014,-0.0006042473,-0.0045565073,-0.03969369,0.9999708,-1.0820796e-09,-1.4640423e-09,-0.0076455344,4
381319599,381318717,0.99920064,-0.00085214665,-0.0046865577,-0.03969284,0.9999708,-1.0820796e-09,-1.4640423e-09,-0.0076455344,4
381369065,381368181,0.99919504,-0.0004188106,-0.0053534843,-0.039754108,0.9999708,-1.0820796e-09,-1.4640423e-09,-0.0076455344,4
381423165,381422136,0.9991866,0.0006812316,-0.006202426,-0.0398402,0.9999708,-1.0820796e-09,-1.4640423e-09,-0.0076455344,4
381472632,381471605,0.99917907,0.0016531212,-0.0066456483,-0.039928835,0.9999708,-1.0820796e-09,-1.4640423e-09,-0.0076455344,4
381521942,381521069,0.9991778,0.0019488961,-0.0064086276,-0.03998495,0.9999708,-1.0820796e-09,-1.4640423e-09,-0.0076455344,4
381571453,381570533,0.99918467,0.0013206947,-0.005686018,-0.03995146,0.9999708,-1.0820796e-09,-1.4640423e-09,-0.0076455344,4
381620852,381619997,0.9992028,0.0007657799,-0.0048728674,-0.03961846,0.9999708,-1.0820796e-09,-1.4640423e-09,-0.0076455344,4
381670505,381669461,0.9992194,0.00072535384,-0.0048496015,-0.039197788,0.9999708,-1.0820796e-09,-1.4640423e-09,-0.0076455344,4
381724730,381723427,0.99922854,0.00049698347,-0.0057965666,-0.038840603,0.9999708,-1.0820796e-09,-1.4640423e-09,-0.0076455344,4
381773830,381772886,0.99922943,0.0010072377,-0.0075638443,-0.03850055,0.9999708,-1.0820796e-09,-1.4640423e-09,-0.0076455344,4
381823443,381822354,0.9992246,0.0016434079,-0.009159981,-0.038258925,0.9999708,-1.0820796e-09,-1.4640423e-09,-0.0076455344,4
381872811,381871821,0.99922156,0.001626287,-0.0102657825,-0.03805772,0.9999708,-1.0820796e-09,-1.4640423e-09,-0.0076455344,4
381922189,381921279,0.9992231,0.0014251381,-0.01083541,-0.03786639,0.9999708,-1.0820796e-09,-1.4640423e-09,-0.0076455344,4
381971617,381970742,0.99922603,0.00062354427,-0.011139893,-0.03772108,0.9999708,-1.0820796e-09,-1.4640423e-09,-0.0076455344,4
382021109,382020213,0.9992309,1.2901131e-05,-0.011360742,-0.037532065,0.9999708,-1.0820796e-09,-1.4640423e-09,-0.0076455344,4
382070699,382069670,0.99923086,-0.00060816307,-0.011811788,-0.03738737,0.9999708,-1.0820796e-09,-1.4640423e-09,-0.0076455344,4
382124895,382123635,0.99923664,-0.0012606754,-0.012078473,-0.037130266,0.9999708,-1.0820796e-09,-1.4640423e-09,-0.0076455344,4
382169508,382168629,0.9992471,-0.0012639433,-0.011726936,-0.036964,0.9999708,-1.0820796e-09,-1.4640423e-09,-0.0076455344,4
382218978,382218063,0.9992585,-0.0008918196,-0.01137273,-0.036773905,0.9999708,-1.0820796e-09,-1.4640423e-09,-0.0076455344,4
382273073,382272027,0.99927,-0.0008123408,-0.0104874,-0.03672874,0.9999708,-1.0820796e-09,-1.4640423e-09,-0.0076455344,4
382322485,382321489,0.999283,-0.00089395756,-0.009662999,-0.036597162,0.9999708,-1.0820796e-09,-1.4640423e-09,-0.0076455344,4
382371834,382370948,0.99929506,-0.0010230395,-0.008910513,-0.036455214,0.9999708,-1.0820796e-09,-1.4640423e-09,-0.0076455344,4
382421301,382420416,0.9992994,-0.000895066,-0.008567179,-0.036422532,0.9999708,-1.0820796e-09,-1.4640423e-09,-0.0076455344,4
382470816,382469934,0.9992967,-0.00075565773,-0.008811182,-0.036439188,0.9999708,-1.0820796e-09,-1.4640423e-09,-0.0076455344,4
382520202,382519344,0.99929345,-0.0006963234,-0.008818838,-0.036530577,0.9999708,-1.0820796e-09,-1.4640423e-09,-0.0076455344,4
382569812,382568808,0.9992973,-0.0008489686,-0.008316221,-0.036539875,0.9999708,-1.0820796e-09,-1.4640423e-09,-0.0076455344,4
382623885,382622772,0.99930453,-0.0010177022,-0.0076533384,-0.036482595,0.9999708,-1.0820796e-09,-1.4640423e-09,-0.0076455344,4
382673170,382672233,0.9993071,-0.00090482,-0.007739391,-0.03639481,0.9999708,-1.0820796e-09,-1.4640423e-09,-0.0076455344,4
382722600,382721701,0.99930435,-0.0006661624,-0.007891413,-0.036444232,0.9999708,-1.0820796e-09,-1.4640423e-09,-0.0076455344,4
382772128,382771161,0.99930584,0.0002442161,-0.008131074,-0.03635427,0.9999708,-1.0820796e-09,-1.4640423e-09,-0.0076455344,4
382821520,382820640,0.9993022,0.0009901874,-0.00803093,-0.03646497,0.9999708,-1.0820796e-09,-1.4640423e-09,-0.0076455344,4
382870929,382870090,0.9992971,0.001799849,-0.007599917,-0.036664516,0.9999708,-1.0820796e-09,-1.4640423e-09,-0.0076455344,4
382920787,382919553,0.9992905,0.001893108,-0.0069056773,-0.03697731,0.9999708,-1.0820796e-09,-1.4640423e-09,-0.0076455344,4
382974453,382973514,0.99928325,0.0014976733,-0.006537539,-0.03725653,0.9999708,-1.0820796e-09,-1.4640423e-09,-0.0076455344,4
383024119,383022986,0.9992785,0.00033807164,-0.0061975163,-0.037471265,0.9999708,-1.0820796e-09,-1.4640423e-09,-0.0076455344,4
383068949,383067945,0.999274,-0.0007063119,-0.005889743,-0.037632767,0.9999708,-1.0820796e-09,-1.4640423e-09,-0.0076455344,4
383122864,383121909,0.99926996,-0.0015669799,-0.005132767,-0.037826683,0.9999708,-1.0820796e-09,-1.4640423e-09,-0.0076455344,4
383172491,383171371,0.99926734,-0.0013111171,-0.005207837,-0.037894912,0.9999708,-1.0820796e-09,-1.4640423e-09,-0.0076455344,4
383221728,383220835,0.9992622,-0.0006872106,-0.005765869,-0.037966754,0.9999708,-1.0820796e-09,-1.4640423e-09,-0.0076455344,4
383271239,383270299,0.9992521,-7.542736e-05,-0.006297222,-0.03815396,0.9999708,-1.0820796e-09,-1.4640423e-09,-0.0076455344,4
383320744,383319764,0.999246,0.00053433306,-0.0064513893,-0.038284276,0.9999708,-1.0820796e-09,-1.4640423e-09,-0.0076455344,4
383370166,383369227,0.9992443,0.0011123831,-0.0062284195,-0.03835183,0.9999708,-1.0820796e-09,-1.4640423e-09,-0.0076455344,4
383419601,383418691,0.9992442,0.00087379146,-0.0057170116,-0.03844082,0.9999708,-1.0820796e-09,-1.4640423e-09,-0.0076455344,4
383469028,383468159,0.9992497,0.0002703994,-0.0054128948,-0.03834873,0.9999708,-1.0820796e-09,-1.4640423e-09,-0.0076455344,4
383522978,383522129,0.99925375,0.00017163467,-0.0055827657,-0.0382208,0.9999708,-1.0820796e-09,-1.4640423e-09,-0.0076455344,4
383572509,383571590,0.9992546,1.6112386e-05,-0.005549361,-0.03820481,0.9999708,-1.0820796e-09,-1.4640423e-09,-0.0076455344,4
383622174,383621045,0.99925435,-2.4418705e-05,-0.005459277,-0.038224433,0.9999708,-1.0820796e-09,-1.4640423e-09,-0.0076455344,4
383671430,383670509,0.9992563,-0.00015533518,-0.004862741,-0.03825187,0.9999708,-1.0820796e-09,-1.4640423e-09,-0.0076455344,4
383720910,383719986,0.9992589,-0.00018455481,-0.0040404727,-0.038281504,0.9999708,-1.0820796e-09,-1.4640423e-09,-0.0076455344,4
383770564,383769445,0.99926174,-7.2490504e-05,-0.0030884466,-0.0382956,0.9999708,-1.0820796e-09,-1.4640423e-09,-0.0076455344,4
383824590,383823401,0.9992654,0.00065521605,-0.002753165,-0.038220685,0.9999708,-1.0820796e-09,-1.4640423e-09,-0.0076455344,4
383873705,383872862,0.9992669,0.0012163344,-0.0023093005,-0.038195938,0.9999708,-1.0820796e-09,-1.4640423e-09,-0.0076455344,4
383923699,383922330,0.9992699,0.0012397722,-0.0018103152,-0.038142547,0.9999708,-1.0820796e-09,-1.4640423e-09,-0.0076455344,4
383968142,383967294,0.9992721,0.0012547286,-0.0015030296,-0.038097788,0.9999708,-1.0820796e-09,-1.4640423e-09,-0.0076455344,4
384022280,384021264,0.99927,0.0013623879,-0.0014656897,-0.038152047,0.9999708,-1.0820796e-09,-1.4640423e-09,-0.0076455344,4
384071788,384070719,0.9992659,0.0012147569,-0.0016765718,-0.038253948,0.9999708,-1.0820796e-09,-1.4640423e-09,-0.0076455344,4
384121123,384120187,0.9992668,0.0006980698,-0.0019489757,-0.03823035,0.9999708,-1.0820796e-09,-1.4640423e-09,-0.0076455344,4
384170626,384169648,0.99927074,0.00033578026,-0.0022490262,-0.03811671,0.9999708,-1.0820796e-09,-1.4640423e-09,-0.0076455344,4
384220060,384219112,0.9992762,-0.0003309198,-0.0027125152,-0.037941914,0.9999708,-1.0820796e-09,-1.4640423e-09,-0.0076455344,4
384269618,384268584,0.9992855,-0.000567637,-0.0030195555,-0.037669748,0.9999708,-1.0820796e-09,-1.4640423e-09,-0.0076455344,4
384318900,384318040,0.99929166,-0.00072905095,-0.0036520485,-0.037447937,0.9999708,-1.0820796e-09,-1.4640423e-09,-0.0076455344,4
384372972,384372001,0.99929225,-0.0010669108,-0.0046368632,-0.03731547,0.9999708,-1.0820796e-09,-1.4640423e-09,-0.0076455344,4
384422396,384421465,0.9992888,-0.0015460195,-0.005476259,-0.037276663,0.9999708,-1.0820796e-09,-1.4640423e-09,-0.0076455344,4
384471931,384470934,0.9992816,-0.0024810077,-0.006128218,-0.03731935,0.9999708,-1.0820796e-09,-1.4640423e-09,-0.0076455344,4
384521298,384520399,0.9992783,-0.0033988648,-0.006185204,-0.037323974,0.9999708,-1.0820796e-09,-1.4640423e-09,-0.0076455344,4
384570775,384569858,0.9992835,-0.0037723593,-0.0057556615,-0.03721915,0.9999708,-1.0820796e-09,-1.4640423e-09,-0.0076455344,4
384620251,384619334,0.9992895,-0.0039653936,-0.0050337124,-0.037143376,0.9999708,-1.0820796e-09,-1.4640423e-09,-0.0076455344,4
384669764,384668787,0.9992983,-0.0039460934,-0.0044450555,-0.036983505,0.9999708,-1.0820796e-09,-1.4640423e-09,-0.0076455344,4
384723871,384722754,0.99931055,-0.0035814336,-0.0045589027,-0.03667153,0.9999708,-1.0820796e-09,-1.4640423e-09,-0.0076455344,4
384773347,384772212,0.9993132,-0.0040157884,-0.004455589,-0.036568217,0.9999708,-1.0820796e-09,-1.4640423e-09,-0.0076455344,4
384822834,384821683,0.99931467,-0.004728896,-0.0045840195,-0.036427516,0.9999708,-1.0820796e-09,-1.4640423e-09,-0.0076455344,4
384872138,384871140,0.99931246,-0.005529264,-0.0048753493,-0.03633588,0.9999708,-1.0820796e-09,-1.4640423e-09,-0.0076455344,4
384921524,384920608,0.99930674,-0.00616948,-0.0052238363,-0.036341883,0.9999708,-1.0820796e-09,-1.4640423e-09,-0.0076455344,4
384971027,384970069,0.9993045,-0.006176068,-0.00545595,-0.036368143,0.9999708,-1.0820796e-09,-1.4640423e-09,-0.0076455344,4
385020444,385019533,0.9993023,-0.0063772746,-0.005421281,-0.036398917,0.9999708,-1.0820796e-09,-1.4640423e-09,-0.0076455344,4
385074419,385073496,0.9993024,-0.0066567766,-0.0050544073,-0.036398917,0.9999708,-1.0820796e-09,-1.4640423e-09,-0.0076455344,4
385124170,385122978,0.99929786,-0.007264474,-0.0049541793,-0.036421634,0.9999708,-1.0820796e-09,-1.4640423e-09,-0.0076455344,4
385168854,385167926,0.99929214,-0.0077410713,-0.005003132,-0.036472473,0.9999708,-1.0820796e-09,-1.4640423e-09,-0.0076455344,4
385218333,385217398,0.99929184,-0.007883485,-0.0046960525,-0.036491726,0.9999708,-1.0820796e-09,-1.4640423e-09,-0.0076455344,4
385272193,385271351,0.99929714,-0.0073331525,-0.0047584563,-0.03645524,0.9999708,-1.0820796e-09,-1.4640423e-09,-0.0076455344,4
385321661,385320816,0.99930185,-0.006644453,-0.004948755,-0.036432467,0.9999708,-1.0820796e-09,-1.4640423e-09,-0.0076455344,4
385371226,385370280,0.99930376,-0.0058732596,-0.0052660424,-0.03646807,0.9999708,-1.0820796e-09,-1.4640423e-09,-0.0076455344,4
385420643,385419744,0.9993054,-0.004901389,-0.0056203166,-0.03651127,0.9999708,-1.0820796e-09,-1.4640423e-09,-0.0076455344,4
385470174,385469208,0.99930954,-0.0042138514,-0.005616992,-0.03648549,0.9999708,-1.0820796e-09,-1.4640423e-09,-0.0076455344,4
385519684,385518673,0.99931175,-0.0038209413,-0.005875499,-0.03642927,0.9999708,-1.0820796e-09,-1.4640423e-09,-0.0076455344,4
385569176,385568148,0.999308,-0.003556604,-0.00644014,-0.036461476,0.9999708,-1.0820796e-09,-1.4640423e-09,-0.0076455344,4
385623235,385622100,0.99930084,-0.003391597,-0.0071935607,-0.036532298,0.9999708,-1.0820796e-09,-1.4640423e-09,-0.0076455344,4
385672503,385671562,0.999293,-0.0033555438,-0.007810069,-0.036624707,0.9999708,-1.0820796e-09,-1.4640423e-09,-0.0076455344,4
385722354,385721027,0.9992865,-0.0035366123,-0.008092339,-0.03672338,0.9999708,-1.0820796e-09,-1.4640423e-09,-0.0076455344,4
385771665,385770493,0.99928063,-0.0040776883,-0.007859792,-0.03687789,0.9999708,-1.0820796e-09,-1.4640423e-09,-0.0076455344,4
385820933,385819962,0.99927866,-0.0047620847,-0.0075321104,-0.03691498,0.9999708,-1.0820796e-09,-1.4640423e-09,-0.0076455344,4
385870332,385869420,0.99928075,-0.00551017,-0.007138545,-0.036834396,0.9999708,-1.0820796e-09,-1.4640423e-09,-0.0076455344,4
385924258,385923397,0.99927574,-0.006329674,-0.007052608,-0.03685403,0.9999708,-1.0820796e-09,-1.4640423e-09,-0.0076455344,4
385973872,385972845,0.9992716,-0.0064814026,-0.008159569,-0.036711603,0.9999708,-1.0820796e-09,-1.4640423e-09,-0.0076455344,4
386023258,386022309,0.99926424,-0.0061461064,-0.009442367,-0.036661796,0.9999708,-1.0820796e-09,-1.4640423e-09,-0.0076455344,4
386068399,386067277,0.9992577,-0.00606966,-0.010216534,-0.03664677,0.9999708,-1.0820796e-09,-1.4640423e-09,-0.0076455344,4
386122120,386121239,0.99925077,-0.006205325,-0.010694617,-0.03667514,0.9999708,-1.0820796e-09,-1.4640423e-09,-0.0076455344,4
386171613,386170702,0.99924594,-0.0064210077,-0.01091254,-0.036706693,0.9999708,-1.0820796e-09,-1.4640423e-09,-0.0076455344,4
386221247,386220180,0.9992379,-0.007041224,-0.011004898,-0.036781564,0.9999708,-1.0820796e-09,-1.4640423e-09,-0.0076455344,4
386270588,386269631,0.99923486,-0.007614516,-0.010834375,-0.036803767,0.9999708,-1.0820796e-09,-1.4640423e-09,-0.0076455344,4
386325218,386323615,0.9992272,-0.008250433,-0.010728718,-0.03690336,0.9999708,-1.0820796e-09,-1.4640423e-09,-0.0076455344,4
386369436,386368562,0.9992212,-0.008882647,-0.01068201,-0.036932506,0.9999708,-1.0820796e-09,-1.4640423e-09,-0.0076455344,4
386418879,386418025,0.9992159,-0.009406898,-0.010673379,-0.03694778,0.9999708,-1.0820796e-09,-1.4640423e-09,-0.0076455344,4
386472923,386471985,0.999217,-0.009592683,-0.010727505,-0.036856793,0.9999708,-1.0820796e-09,-1.4640423e-09,-0.0076455344,4
386522390,386521450,0.99921197,-0.009839834,-0.010892139,-0.036878675,0.9999708,-1.0820796e-09,-1.4640423e-09,-0.0076455344,4
386571967,386570914,0.9991953,-0.0105801225,-0.011724983,-0.03687145,0.9999708,-1.0820796e-09,-1.4640423e-09,-0.0076455344,4
386621345,386620389,0.99918103,-0.010887649,-0.01248244,-0.036919195,0.9999708,-1.0820796e-09,-1.4640423e-09,-0.0076455344,4
386670863,386669843,0.9991742,-0.010793362,-0.013107935,-0.036914006,0.9999708,-1.0820796e-09,-1.4640423e-09,-0.0076455344,4
386720598,386719308,0.9991765,-0.010182874,-0.012980759,-0.037069146,0.9999708,-1.0820796e-09,-1.4640423e-09,-0.0076455344,4
386769758,386768779,0.99918157,-0.009333251,-0.0124279875,-0.03734472,0.9999708,-1.0820796e-09,-1.4640423e-09,-0.0076455344,4
386823907,386822740,0.9991874,-0.008806223,-0.011062816,-0.037746463,0.9999708,-1.0820796e-09,-1.4640423e-09,-0.0076455344,4
386873059,386872197,0.99919343,-0.008619145,-0.009963181,-0.037934985,0.9999708,-1.0820796e-09,-1.4640423e-09,-0.0076455344,4
386922549,386921662,0.99918556,-0.0091114165,-0.009295841,-0.038193792,0.9999708,-1.0820796e-09,-1.4640423e-09,-0.0076455344,4
386972059,386971126,0.9991692,-0.009804178,-0.009130993,-0.03849109,0.9999708,-1.0820796e-09,-1.4640423e-09,-0.0076455344,4
387021514,387020596,0.9991534,-0.010050806,-0.009250855,-0.03880682,0.9999708,-1.0820796e-09,-1.4640423e-09,-0.0076455344,4
387070923,387070063,0.9991422,-0.010105432,-0.009277408,-0.03907119,0.9999708,-1.0820796e-09,-1.4640423e-09,-0.0076455344,4
387120425,387119520,0.99913484,-0.010137345,-0.009126265,-0.039289642,0.9999708,-1.0820796e-09,-1.4640423e-09,-0.0076455344,4
387174419,387173481,0.99913347,-0.009781522,-0.008838359,-0.0394791,0.9999708,-1.0820796e-09,-1.4640423e-09,-0.0076455344,4
387224224,387222953,0.99913675,-0.009024515,-0.0088080205,-0.039583404,0.9999708,-1.0820796e-09,-1.4640423e-09,-0.0076455344,4
387268912,387267913,0.99913913,-0.008427603,-0.009004953,-0.039609265,0.9999708,-1.0820796e-09,-1.4640423e-09,-0.0076455344,4
387322824,387321874,0.9991295,-0.008335063,-0.009706572,-0.039706435,0.9999708,-1.0820796e-09,-1.4640423e-09,-0.0076455344,4
387372193,387371339,0.99912333,-0.008094956,-0.01038997,-0.039738156,0.9999708,-1.0820796e-09,-1.4640423e-09,-0.0076455344,4
387421878,387420803,0.9991123,-0.0080876015,-0.010838409,-0.039896592,0.9999708,-1.0820796e-09,-1.4640423e-09,-0.0076455344,4
387471216,387470268,0.9990998,-0.008053127,-0.011151204,-0.04012946,0.9999708,-1.0820796e-09,-1.4640423e-09,-0.0076455344,4
387520727,387519738,0.9990921,-0.007921268,-0.011470667,-0.040258694,0.9999708,-1.0820796e-09,-1.4640423e-09,-0.0076455344,4
387570072,387569197,0.9990906,-0.007757378,-0.0112989135,-0.040375706,0.9999708,-1.0820796e-09,-1.4640423e-09,-0.0076455344,4
387619558,387618661,0.9990895,-0.00784603,-0.010862038,-0.040507685,0.9999708,-1.0820796e-09,-1.4640423e-09,-0.0076455344,4
387669011,387668136,0.999085,-0.00795241,-0.010612765,-0.040662363,0.9999708,-1.0820796e-09,-1.4640423e-09,-0.0076455344,4
387722991,387722087,0.999082,-0.008042401,-0.0103334235,-0.040790487,0.9999708,-1.0820796e-09,-1.4640423e-09,-0.0076455344,4
387772450,387771551,0.9990826,-0.008306336,-0.009819524,-0.040847465,0.9999708,-1.0820796e-09,-1.4640423e-09,-0.0076455344,4
387821906,387821022,0.9990866,-0.008630035,-0.009200457,-0.04082683,0.9999708,-1.0820796e-09,-1.4640423e-09,-0.0076455344,4
387871418,387870483,0.9990949,-0.008796748,-0.0086225625,-0.040715717,0.9999708,-1.0820796e-09,-1.4640423e-09,-0.0076455344,4
387920901,387919951,0.999106,-0.008917823,-0.008177279,-0.040507935,0.9999708,-1.0820796e-09,-1.4640423e-09,-0.0076455344,4
387970310,387969427,0.9991162,-0.009467643,-0.007781463,-0.040208627,0.9999708,-1.0820796e-09,-1.4640423e-09,-0.0076455344,4
388024594,388023395,0.9991306,-0.0092011085,-0.007721281,-0.03992199,0.9999708,-1.0820796e-09,-1.4640423e-09,-0.0076455344,4
388073826,388072835,0.9991326,-0.00914356,-0.008038574,-0.039823815,0.9999708,-1.0820796e-09,-1.4640423e-09,-0.0076455344,4
388123363,388122305,0.99913657,-0.008856111,-0.008556103,-0.03968023,0.9999708,-1.0820796e-09,-1.4640423e-09,-0.0076455344,4
388168339,388167274,0.9991412,-0.008252967,-0.0088963825,-0.03962007,0.9999708,-1.0820796e-09,-1.4640423e-09,-0.0076455344,4
388222178,388221228,0.99914384,-0.0075232163,-0.009187194,-0.039631058,0.9999708,-1.0820796e-09,-1.4640423e-09,-0.0076455344,4
388271667,388270693,0.9991531,-0.006813404,-0.009390057,-0.03947983,0.9999708,-1.0820796e-09,-1.4640423e-09,-0.0076455344,4
388321042,388320163,0.99916416,-0.006068414,-0.009208964,-0.039361067,0.9999708,-1.0820796e-09,-1.4640423e-09,-0.0076455344,4
388370549,388369622,0.9991732,-0.005823206,-0.00859412,-0.039308596,0.9999708,-1.0820796e-09,-1.4640423e-09,-0.0076455344,4
388420110,388419094,0.9991822,-0.0056129894,-0.0077633695,-0.039283924,0.9999708,-1.0820796e-09,-1.4640423e-09,-0.0076455344,4
388469420,388468563,0.9991882,-0.0051073562,-0.007287116,-0.0392911,0.9999708,-1.0820796e-09,-1.4640423e-09,-0.0076455344,4
388518858,388518015,0.9991905,-0.0049862172,-0.0067515057,-0.039344512,0.9999708,-1.0820796e-09,-1.4640423e-09,-0.0076455344,4
388572974,388571976,0.9991936,-0.0050986186,-0.0060610697,-0.03936457,0.9999708,-1.0820796e-09,-1.4640423e-09,-0.0076455344,4
388622359,388621483,0.9991996,-0.0052005188,-0.0054417066,-0.039288007,0.9999708,-1.0820796e-09,-1.4640423e-09,-0.0076455344,4
388671786,388670911,0.99920493,-0.0050301948,-0.0057157124,-0.039135832,0.9999708,-1.0820796e-09,-1.4640423e-09,-0.0076455344,4
388721275,388720370,0.99921167,-0.004566766,-0.006158407,-0.038953844,0.9999708,-1.0820796e-09,-1.4640423e-09,-0.0076455344,4
388770911,388769835,0.99920774,-0.004680683,-0.0065162117,-0.038981255,0.9999708,-1.0820796e-09,-1.4640423e-09,-0.0076455344,4
388820149,388819299,0.99920166,-0.005303586,-0.0068700938,-0.03899567,0.9999708,-1.0820796e-09,-1.4640423e-09,-0.0076455344,4
388869780,388868774,0.9991951,-0.0056669414,-0.007041604,-0.039083686,0.9999708,-1.0820796e-09,-1.4640423e-09,-0.0076455344,4
388924097,388922729,0.9991878,-0.00611813,-0.0067025926,-0.03926163,0.9999708,-1.0820796e-09,-1.4640423e-09,-0.0076455344,4
388973254,388972190,0.9991911,-0.006409995,-0.0060169916,-0.039242703,0.9999708,-1.0820796e-09,-1.4640423e-09,-0.0076455344,4
389022510,389021654,0.9991972,-0.006480132,-0.00564084,-0.039131466,0.9999708,-1.0820796e-09,-1.4640423e-09,-0.0076455344,4
389072034,389071119,0.9992028,-0.0064328685,-0.005643468,-0.038996257,0.9999708,-1.0820796e-09,-1.4640423e-09,-0.0076455344,4
389121719,389120619,0.9992062,-0.0061795283,-0.00580202,-0.03892502,0.9999708,-1.0820796e-09,-1.4640423e-09,-0.0076455344,4
389170888,389170048,0.9992059,-0.005732747,-0.0064807683,-0.03889469,0.9999708,-1.0820796e-09,-1.4640423e-09,-0.0076455344,4
389220431,389219512,0.99920243,-0.0058639147,-0.0069613336,-0.03888122,0.9999708,-1.0820796e-09,-1.4640423e-09,-0.0076455344,4
389274478,389273474,0.9992037,-0.0058086687,-0.0067539816,-0.038892485,0.9999708,-1.0820796e-09,-1.4640423e-09,-0.0076455344,4
389324059,389322943,0.999204,-0.005668579,-0.0066416822,-0.038926486,0.9999708,-1.0820796e-09,-1.4640423e-09,-0.0076455344,4
389368836,389367928,0.99920726,-0.005686952,-0.00665987,-0.03883557,0.9999708,-1.0820796e-09,-1.4640423e-09,-0.0076455344,4
389422810,389421868,0.9992169,-0.0055438485,-0.006830762,-0.038578197,0.9999708,-1.0820796e-09,-1.4640423e-09,-0.0076455344,4
389472180,389471332,0.9992218,-0.005699891,-0.0066788634,-0.038455985,0.9999708,-1.0820796e-09,-1.4640423e-09,-0.0076455344,4
389521841,389520803,0.99923176,-0.005286937,-0.006858287,-0.038223535,0.9999708,-1.0820796e-09,-1.4640423e-09,-0.0076455344,4
389571284,389570274,0.99923927,-0.004592053,-0.006886963,-0.038111612,0.9999708,-1.0820796e-09,-1.4640423e-09,-0.0076455344,4
389620636,389619730,0.99924165,-0.0047096564,-0.006813747,-0.03804665,0.9999708,-1.0820796e-09,-1.4640423e-09,-0.0076455344,4
389670115,389669191,0.99924064,-0.0052754176,-0.0066355346,-0.038030367,0.9999708,-1.0820796e-09,-1.4640423e-09,-0.0076455344,4
389719733,389718655,0.9992362,-0.0060765604,-0.0063676303,-0.038072817,0.9999708,-1.0820796e-09,-1.4640423e-09,-0.0076455344,4
389769054,389768120,0.9992315,-0.00646664,-0.006155388,-0.038167994,0.9999708,-1.0820796e-09,-1.4640423e-09,-0.0076455344,4
389822950,389822081,0.9992247,-0.006517989,-0.0059661153,-0.038367577,0.9999708,-1.0820796e-09,-1.4640423e-09,-0.0076455344,4
389872456,389871546,0.9992204,-0.0064900657,-0.006055312,-0.038469374,0.9999708,-1.0820796e-09,-1.4640423e-09,-0.0076455344,4
389921960,389921011,0.99921995,-0.0062487717,-0.0060600224,-0.038520075,0.9999708,-1.0820796e-09,-1.4640423e-09,-0.0076455344,4
389971507,389970475,0.9992174,-0.005877874,-0.005815486,-0.03868113,0.9999708,-1.0820796e-09,-1.4640423e-09,-0.0076455344,4
390020874,390019940,0.99921006,-0.005630909,-0.0054929834,-0.038954977,0.9999708,-1.0820796e-09,-1.4640423e-09,-0.0076455344,4
390070411,390069404,0.9992031,-0.0051279976,-0.0051499163,-0.03924845,0.9999708,-1.0820796e-09,-1.4640423e-09,-0.0076455344,4
390124701,390123407,0.9991927,-0.0049761017,-0.0046660216,-0.039590888,0.9999708,-1.0820796e-09,-1.4640423e-09,-0.0076455344,4
390173671,390172831,0.9991858,-0.004699275,-0.0049326,-0.039768267,0.9999708,-1.0820796e-09,-1.4640423e-09,-0.0076455344,4
390223345,390222295,0.9991713,-0.0046262485,-0.005548711,-0.04005537,0.9999708,-1.0820796e-09,-1.4640423e-09,-0.0076455344,4
390272651,390271764,0.99915045,-0.0048929355,-0.0061886357,-0.040450282,0.9999708,-1.0820796e-09,-1.4640423e-09,-0.0076455344,4
390322157,390321225,0.9991395,-0.004995906,-0.0062228045,-0.04070119,0.9999708,-1.0820796e-09,-1.4640423e-09,-0.0076455344,4
390371559,390370689,0.9991331,-0.0051274695,-0.0057208403,-0.04091673,0.9999708,-1.0820796e-09,-1.4640423e-09,-0.0076455344,4
390421051,390420154,0.99913454,-0.004893183,-0.0052211424,-0.040977247,0.9999708,-1.0820796e-09,-1.4640423e-09,-0.0076455344,4
390470569,390469619,0.99912953,-0.004317006,-0.005320396,-0.041149914,0.9999708,-1.0820796e-09,-1.4640423e-09,-0.0076455344,4
390524707,390523580,0.99912304,-0.0038253772,-0.006764227,-0.04114517,0.9999708,-1.0820796e-09,-1.4640423e-09,-0.0076455344,4
390569463,390568563,0.9991058,-0.0040820423,-0.00823004,-0.04127118,0.9999708,-1.0820796e-09,-1.4640423e-09,-0.0076455344,4
390618972,390618013,0.99908733,-0.005096937,-0.009643671,-0.041299228,0.9999708,-1.0820796e-09,-1.4640423e-09,-0.0076455344,4
390673063,390671980,0.9990723,-0.0067284894,-0.01016404,-0.041303266,0.9999708,-1.0820796e-09,-1.4640423e-09,-0.0076455344,4
390722567,390721475,0.9990675,-0.008174884,-0.009816932,-0.04124397,0.9999708,-1.0820796e-09,-1.4640423e-09,-0.0076455344,4
390771785,390770903,0.99906677,-0.009498631,-0.009114222,-0.041139264,0.9999708,-1.0820796e-09,-1.4640423e-09,-0.0076455344,4
390821311,390820368,0.99907005,-0.010458487,-0.008771111,-0.040898692,0.9999708,-1.0820796e-09,-1.4640423e-09,-0.0076455344,4
390870764,390869836,0.99907655,-0.0108977435,-0.008499347,-0.040681858,0.9999708,-1.0820796e-09,-1.4640423e-09,-0.0076455344,4
390920347,390919298,0.9990888,-0.011464148,-0.008071253,-0.040311668,0.9999708,-1.0820796e-09,-1.4640423e-09,-0.0076455344,4
390969737,390968775,0.9991064,-0.012073467,-0.0069818203,-0.039900064,0.9999708,-1.0820796e-09,-1.4640423e-09,-0.0076455344,4
391023613,391022723,0.99912924,-0.012620945,-0.0062344465,-0.039277457,0.9999708,-1.0820796e-09,-1.4640423e-09,-0.0076455344,4
391073230,391072188,0.9991501,-0.012708565,-0.006039728,-0.038744345,0.9999708,-1.0820796e-09,-1.4640423e-09,-0.0076455344,4
391122743,391121660,0.9991637,-0.01298926,-0.006277942,-0.03825951,0.9999708,-1.0820796e-09,-1.4640423e-09,-0.0076455344,4
391172066,391171125,0.99917907,-0.013117326,-0.006440799,-0.037784304,0.9999708,-1.0820796e-09,-1.4640423e-09,-0.0076455344,4
391221469,391220609,0.99919593,-0.013225299,-0.0061631477,-0.03734658,0.9999708,-1.0820796e-09,-1.4640423e-09,-0.0076455344,4
391270895,391270055,0.9992113,-0.013494466,-0.0057964567,-0.036891885,0.9999708,-1.0820796e-09,-1.4640423e-09,-0.0076455344,4
391320767,391319512,0.99922484,-0.013680066,-0.0052040806,-0.036544405,0.9999708,-1.0820796e-09,-1.4640423e-09,-0.0076455344,4
391374413,391373512,0.99923724,-0.014051251,-0.00511018,-0.036077037,0.9999708,-1.0820796e-09,-1.4640423e-09,-0.0076455344,4
391424085,391422942,0.9992439,-0.014520415,-0.0058021247,-0.035597574,0.9999708,-1.0820796e-09,-1.4640423e-09,-0.0076455344,4
391468790,391467906,0.9992527,-0.014619204,-0.0065323943,-0.035181493,0.9999708,-1.0820796e-09,-1.4640423e-09,-0.0076455344,4
391523028,391521879,0.999269,-0.014339647,-0.0072429846,-0.034689873,0.9999708,-1.0820796e-09,-1.4640423e-09,-0.0076455344,4
