timestamp,timestamp_sample,xyz[0],xyz[1],xyz[2]
368091514,368090965,1.2274023,2.8527126,-0.5006694
368112490,368111933,-1.7717298,-2.4956367,1.6836115
368131972,368131422,0.30641153,-0.14880079,-3.6484852
368154473,368153909,-0.40801206,-1.4977833,2.1160467
368172468,368171895,-0.24845225,0.21661723,1.2305557
368193430,368192873,-0.5288139,0.94099665,-0.5716498
368212923,368212362,2.3307078,0.81394464,-3.3942173
368232411,368231847,-4.5276265,0.75819737,0.5078642
368253397,368252832,2.155479,-0.4079161,0.031084226
368274362,368273813,0.18793707,1.1214379,1.8606081
368295346,368294798,-1.6365389,2.4949226,1.2058936
368311845,368311287,0.94091195,-0.62535876,-2.5489123
368334333,368333774,0.32263592,-0.52366936,0.6740066
368352312,368351759,0.49063048,-0.2969584,0.058274128
368371822,368371242,-0.9687372,0.5331151,-0.25152388
368392774,368392225,1.2764124,-1.402148,-1.1349257
368413764,368413210,-1.8970665,0.68067145,0.23353449
368434747,368434198,0.8083052,-0.19634661,-0.11730942
368452750,368452188,1.2303808,-1.1765745,-0.22225572
368473800,368473185,-0.6293104,1.7019644,1.5276346
368494710,368494150,0.3732721,-1.486058,-0.44899654
368514200,368513639,0.6639995,0.5094359,-0.5734118
368533681,368533121,-1.5088866,0.28459287,1.530704
368554706,368554106,1.4634151,-0.617759,-1.918783
368572672,368572113,-1.4014543,0.91255873,0.5327528
368592175,368591582,-0.010148725,-0.29534978,-0.37360018
368613118,368612566,0.80436945,-0.22588468,-0.7631708
368634103,368633551,-1.0628196,0.39219502,1.1890199
368652090,368651541,0.63158745,-1.0597394,-0.8081054
368673073,368672522,0.050026245,0.5264254,0.88854945
368694073,368693513,-0.19068795,-0.04736949,0.35599685
368712055,368711502,1.1120566,-0.16979988,-0.9901179
368733026,368732476,-1.195187,0.5323246,1.3940672
368754001,368753457,0.66180456,-0.6462118,-1.7742814
368774997,368774442,-0.5137399,0.6328187,0.6309221
368792981,368792428,0.1376036,-0.5135219,-0.02733525
368812464,368811914,0.81882286,-0.48798338,-1.1671515
368833451,368832898,-1.1306616,0.7111449,1.5690974
368854435,368853883,0.760373,-0.41788974,-1.3937573
368872431,368871870,-0.3124555,0.5235578,1.0349032
368893406,368892854,0.05528506,-0.12429717,0.17912929
368914394,368913838,0.2605355,0.39331222,-0.610246
368932369,368931825,-0.23552154,0.54174644,1.2247247
368953359,368952810,0.34271106,-0.88347876,-1.9208133
368972847,368972299,-0.0023769916,-0.3221315,1.0896037
368995337,368994785,-0.2918351,-0.40317544,-0.50636137
369011810,369011266,0.2240303,-0.28347462,-1.2726576
369032795,369032251,0.33435416,0.5753454,1.448432
369055285,369054741,0.4415664,-0.51577526,-1.8981472
369071772,369071227,-0.51683694,0.6237899,1.6929116
369092751,369092206,0.22918466,0.68829787,-0.39392748
369112242,369111692,0.28086218,-0.5030364,-0.7893193
369134721,369134177,-0.0007083448,0.6220105,1.1904168
369152713,369152162,-0.20610966,-0.36917266,-2.1180744
369173691,369173146,0.004960423,0.073731124,1.7427653
369193199,369192658,-0.2961347,0.16325949,-1.1420778
369212673,369212118,0.10721103,-0.50069386,-0.24390882
369233672,369233109,0.4422313,0.7068738,0.8643718
369254651,369254087,0.6284821,-0.14487903,-1.3266538
369275622,369275071,-0.36233708,0.34104055,1.3756995
369292109,369291559,-0.2927252,-0.028500782,-0.36299044
369313087,369312543,-0.08431086,-0.6787185,0.008892411
369334120,369333534,0.6327707,0.16014996,0.8552882
369355066,369354512,0.05811023,-0.06946876,-1.4752845
369373096,369372504,0.11811547,-0.03657402,1.0299202
369394028,369393484,-0.4762019,0.56321126,-0.8268049
369413538,369412997,0.06402871,-0.17322998,-0.0044291555
369433006,369432455,0.08664652,0.018763574,0.7802911
369453999,369453444,0.45583284,-0.67029035,-1.0273563
369474976,369474424,0.5558662,-0.06362096,1.2295716
369491486,369490939,-1.1745378,0.86178136,-0.18980333
369512449,369511896,0.27874935,-0.26104856,-0.5265776
369533433,369532881,-0.3525056,0.07699605,0.45749032
369552925,369552366,-0.0077130157,0.051097203,-0.97269326
369572481,369571858,0.7537532,-0.81469524,0.8730915
369593389,369592836,-1.1430956,0.28259102,-0.20626974
369614365,369613821,1.259223,-0.22566825,-0.2988311
369632359,369631815,-0.8185779,0.9417439,0.7306046
369653336,369652792,0.73889196,0.15484865,-0.84307575
369674367,369673781,0.43544108,-0.26928344,1.0009981
369692307,369691763,-1.2307762,0.06177256,-0.024434553
369711792,369711249,1.0722191,-0.15355669,-0.64781976
369734291,369733735,-1.0619855,0.32481715,0.44266096
369755289,369754733,0.78795767,0.0008322969,-0.7794629
369771787,369771243,0.7013525,-0.22775595,0.6204732
369792771,369792230,-1.381765,0.2831756,-0.22492605
369813758,369813181,1.5396819,-0.62515736,-0.11737785
369834710,369834158,-1.3244133,0.36636955,0.38515782
369852743,369852144,0.58382976,-0.36170143,-0.73146826
369873719,369873135,-0.20494063,-0.08005246,0.9359858
369894701,369894113,-1.0486295,1.0707585,-0.4756078
369912655,369912100,1.0423394,-0.8643903,-0.07707662
369933640,369933085,-1.3034959,0.044652257,0.3903341
369954613,369954069,1.2654443,0.4722008,-1.0132939
369975597,369975053,0.5722704,0.07841925,0.7698513
369992116,369991542,-1.5111251,0.9110505,-0.28746465
370013106,370012529,0.94547427,-0.60053635,-0.14075436
370034054,370033511,-1.3316221,-1.0252343,0.43750635
370052049,370051492,1.5425981,0.33757505,-0.609655
370073026,370072482,-0.18559165,0.15646283,0.764405
370094025,370093470,-0.15000851,1.0810423,-0.47748464
370114994,370114450,0.16634497,-0.702306,0.43907607
370132991,370132437,-0.650822,-0.40446892,0.16483045
370153967,370153422,0.7550309,-0.10210917,-0.6897862
370174974,370174420,-0.6652951,-0.51827455,0.68663955
370192947,370192395,0.020352377,0.48015904,-0.7492465
370212431,370211878,-0.124655925,-0.36711922,0.33273098
370233454,370232869,-0.2456569,-0.14207815,0.048285145
370254400,370253843,0.1717745,0.7846852,-0.17827454
370272403,370271834,-0.23282208,-0.75150555,0.9067131
370293365,370292819,0.50162303,0.7382986,-0.72883534
370311364,370310809,-0.34155527,-0.118755706,0.55680907
370332388,370331788,0.15908162,-1.0042317,-0.12634388
370353330,370352774,-0.15875435,0.3330588,0.077561535
370374305,370373758,-0.6228452,-0.008555537,-0.046140783
370395288,370394743,0.5208361,0.66776353,-0.8431317
370411781,370411232,-0.63299334,-0.07418622,1.161662
370434265,370433722,-0.25527686,0.13688874,-0.90900767
370455250,370454699,0.37453306,-0.02166497,0.88371974
370471775,370471199,0.3096344,-0.17440979,0.33494756
370492717,370492171,0.036921743,0.99687934,-0.74435574
370513709,370513165,-0.06875103,-1.0533112,1.3455707
370533194,370532648,-0.38287562,-0.19902502,-1.2858659
370552690,370552130,-0.19100116,0.05085225,0.6773014
370573654,370573111,0.0034187764,-0.6831076,-0.3562968
370594654,370594099,0.12679476,1.1839867,-0.51161313
370615631,370615080,0.38722858,-0.6984109,1.2557178
370633611,370633067,-0.5324382,0.66294,-1.8137866
370654595,370654051,0.21343382,-0.49715257,1.7240645
370672592,370672038,0.23776446,-1.3354992,-0.37443337
370692129,370691524,0.08167996,1.4352808,-0.6622201
370713057,370712508,0.44301888,-0.53426105,1.4880381
370735543,370734999,-0.241481,0.0017131777,-1.7291281
370753524,370752981,0.058691796,-0.23217382,1.9156682
370773052,370772476,0.16506085,-0.086471975,-1.2172085
370794040,370793448,-0.14863335,0.82080656,0.343434
370814977,370814433,0.7531869,-0.5986836,0.1072109
370832979,370832430,-1.0263278,0.30282158,-1.4207361
370853957,370853404,0.71606606,-0.59910256,1.9301934
370874940,370874394,0.20367691,-0.48860428,-1.5983924
370891447,370890898,-0.15927212,0.33938012,0.86689866
370912435,370911867,0.2716842,-0.4911571,0.09856741
370933402,370932845,-0.96508473,0.031420093,-0.6918102
370954378,370953828,1.461288,-0.80848587,1.1623839
370972361,370971817,-0.9408063,-0.28787306,-1.555805
370993406,370992808,0.35152045,0.7480179,1.1584017
371014336,371013792,0.2629745,-0.3731939,-0.9856024
371032316,371031772,-0.60933864,0.5719638,-0.021862183
371053308,371052757,0.87971574,-0.44948953,0.6112333
371072786,371072242,-0.3539553,-0.26410335,-1.1263523
371095275,371094726,0.2317126,0.37951118,1.253159
371113261,371112712,0.13007541,-0.36297533,-0.76800764
371134256,371133699,-0.5959567,0.83751774,0.27342686
371155233,371154681,0.9268772,-0.31129494,-0.36651316
371171726,371171179,-0.16856872,-0.6888441,-0.88460416
371192705,371192153,-0.736427,0.75999343,1.248846
371213699,371213141,-0.0047834856,-0.19291739,-0.81781876
371234666,371234123,0.81501806,0.01981128,0.4558546
371252659,371252109,0.43803287,-0.14030698,0.30187243
371273638,371273094,-0.19459099,-0.07522432,-0.6952566
371294635,371294078,-0.10412749,0.50640607,0.8318721
371312623,371312065,0.19301818,-0.1788509,-0.4445631
371333682,371333056,0.20242187,0.44057307,0.16276138
371354583,371354034,-0.5564041,-0.46963352,0.17591244
371375562,371375018,0.14409293,0.07672177,-0.78847283
371392055,371391510,-0.0355993,0.9158774,0.42439297
371413035,371412491,-0.19181696,-0.5261439,0.17540134
371434019,371433475,-0.32678324,0.8870884,-0.4479112
371452060,371451483,-0.1536327,-0.022465356,0.8177995
371473050,371472453,0.5633155,-1.223031,-0.93951505
371493986,371493439,0.4493351,0.1915039,0.9760691
371514963,371514416,-0.07765036,-0.37840244,0.28918317
371532957,371532402,-0.27421138,0.7497555,-1.3973808
371553936,371553392,-0.7850645,0.1335135,1.3642511
371571940,371571394,-0.03312397,-1.002017,-1.5626416
371595921,371595359,0.0514875,0.25882858,1.4071065
371612470,371611872,-0.63149387,-0.38498354,0.86757463
371633416,371632858,0.1027751,1.1045359,-1.6255101
371651388,371650821,-0.50422806,0.18492658,2.0316327
371672379,371671799,0.3158399,-0.7055488,-2.0986092
371693328,371692784,0.009923587,0.46238562,1.8981043
371714312,371713768,0.27545002,-1.0727931,-0.03371936
371732299,371731755,0.114057355,0.51155955,-2.1389244
371753284,371752740,0.31591412,-0.12912513,2.0467343
371774301,371773724,0.5190266,0.03042019,-2.809597
371792266,371791712,-0.22764817,0.12853749,1.9621087
371813246,371812695,0.18922366,-0.8094254,-0.15265307
371834223,371833679,-0.16990334,0.82932204,-1.3484526
371855223,371854664,0.5785508,0.21090494,1.8743379
371873194,371872651,-0.18087909,-0.20517638,-2.6710012
371892705,371892140,-0.32727662,0.546868,2.4439216
371913672,371913125,-0.17019737,-1.6075555,-0.9795353
371934649,371934105,-0.002734964,0.6701375,-0.73723555
371952652,371952101,0.2927133,-0.10664726,2.4975855
371973650,371973076,-0.33159202,0.30177557,-3.1931822
371994610,371994059,-0.57016796,0.25298154,3.3595703
372012593,372012048,0.31388602,-0.6748215,-1.5583262
372033578,372033032,-0.40451923,0.11607493,0.13772179
372054562,372054017,0.83256,0.3451441,1.2834878
372075573,372075017,-0.15360902,0.6053589,-2.5627363
372092033,372091489,-0.5900072,0.20570198,3.7878008
372113032,372112477,0.65877134,-1.0977517,-2.795754
372134002,372133458,-0.5189139,0.8888542,1.117652
372152022,372151475,0.255412,0.4309348,1.2986289
372172977,372172429,-0.4974862,0.4219681,-3.0008771
372192472,372191916,-0.5004877,0.46570224,4.1070075
372214942,372214398,0.8010889,-1.7701279,-3.7012608
372232964,372232417,-0.37244308,0.69753355,2.6154191
372253929,372253380,1.0722755,-0.3085064,-1.001939
372274907,372274354,-0.9810573,0.4963266,-1.0668079
372291425,372290872,0.08038082,0.63636464,4.1090717
372312380,372311826,0.6915434,-0.81376195,-4.072332
372333396,372332811,-0.8068213,0.9322359,3.3975105
372354346,372353802,1.1890306,-0.41607776,-2.5245647
372372326,372371782,-0.4075102,-0.40783834,-0.93447053
372393317,372392766,0.16662726,1.2531455,2.4943595
372414296,372413751,-0.3657534,-1.7782723,-2.9135716
372432298,372431743,-0.11513521,0.76988405,3.4565375
372453278,372452722,1.5078038,-0.6770398,-2.8434656
372474251,372473706,-1.0206267,0.63565177,1.1686414
372492245,372491693,0.28685725,0.5413704,1.7038122
372513265,372512679,-0.5534235,-1.3022271,-2.6990035
372534213,372533662,-0.21178493,0.64946944,3.02854
372552196,372551649,1.9130723,-1.2606596,-2.262037
372571700,372571159,-1.3527998,-0.09285172,0.9102766
372592670,372592119,0.83163524,1.2433394,0.5069384
372613651,372613104,-0.21383259,-0.9129605,-1.4620969
372633150,372632590,0.06291762,0.8943601,2.7152598
372652624,372652075,1.1237652,-0.84174603,-2.4028533
372673606,372673062,-1.7404294,0.078583956,1.6739321
372694588,372694044,0.24247016,0.22312067,-0.93342936
372712574,372712031,-0.89969635,-1.1661403,-1.343505
372733575,372733019,0.4266249,1.1181568,1.9772108
372754544,372754000,0.1860425,-0.7339578,-1.9417062
372772531,372771987,-0.7004069,0.5759918,0.9995976
372792043,372791479,-0.2079514,0.9891573,-0.08513595
372813000,372812457,-0.04372187,-1.5158186,-0.3061718
372833989,372833441,0.8128593,0.82362473,1.05455
372851986,372851435,-0.2731181,-0.35407835,-1.3414484
372872961,372872412,-0.08144527,0.1342747,0.5497283
372893953,372893401,-0.44759604,0.10077757,-0.3318515
372914941,372914390,0.3309364,-1.4288821,-0.36520758
372932932,372932368,0.4858058,1.3580356,0.8519316
372953929,372953359,0.25359192,0.02920171,-0.5015035
372974891,372974337,0.4636176,0.35560927,0.19670805
372992870,372992324,-0.79839385,0.101266965,0.52061963
373012394,373011825,-0.17998086,-1.1396259,-0.6360535
373033344,373032794,0.1768545,0.65600896,1.0580508
373055860,373055277,0.08425582,-0.461767,-1.1091514
373073813,373073264,-0.005719747,0.9243283,-0.31017894
373093304,373092754,-0.8680176,0.24908182,0.54234886
373114285,373113742,0.7322451,-1.2161685,-1.0737671
373132290,373131747,0.06521938,0.6217629,1.8040394
373153257,373152705,0.53540564,-1.4900644,-0.80931574
373172743,373172191,-0.31132057,0.8832126,-0.23218003
373192245,373191681,-0.5191091,0.2880267,1.198722
373213220,373212661,0.81083167,-0.44952336,-1.9083005
373234208,373233645,-0.8704978,1.0474095,2.734538
373255192,373254630,0.32431486,-0.6455876,-2.6267867
373273220,373272623,0.28599474,0.45349798,0.33524147
373292647,373292103,-1.4475569,1.3136662,0.6096441
373313636,373313087,0.268556,-0.4078739,-1.9680941
373334664,373334080,-0.5096459,-0.27989152,3.7564864
373352618,373352059,1.1692752,-1.947738,-2.8888142
373373587,373373043,-0.19976407,0.7742782,1.7849114
373393078,373392528,-0.3008491,1.2062619,-0.33407003
373412574,373412023,-0.29328838,-0.30099317,-2.1099463
373433550,373432999,-0.41255045,0.4686071,3.819901
373454539,373453995,0.047475804,-0.69976604,-4.162835
373475527,373474968,-0.29001385,0.14835118,3.880375
373492000,373491455,-0.0849626,0.67787683,-0.9803161
373512984,373512440,-0.1720342,0.0036940342,-0.87729913
373532472,373531926,-0.3890683,0.34680447,3.463309
373554993,373554409,-0.08745966,0.25350118,-3.2889042
373572978,373572404,-0.41859734,0.3047099,3.4732332
373593935,373593388,1.3541083,-1.1881895,-2.3340702
373611918,373611367,-0.33007953,-0.10860162,-0.17389968
373632911,373632351,0.5823454,0.40832564,1.3707591
373653889,373653338,-0.92173404,0.4144323,-2.3100975
373674871,373674320,-0.33613592,0.48867545,2.5843241
373691445,373690838,0.8342911,-0.94865453,-1.5312928
373712345,373711793,-0.21312787,0.064118296,0.44598222
373733321,373732777,-0.23429039,0.8149542,0.28580782
373752820,373752263,-0.5407327,0.5150944,-0.89837396
373772340,373771753,0.72854453,-0.17766073,1.1561364
373793277,373792733,-0.73501205,-0.20252682,-0.62172014
373814266,373813722,0.25373203,-0.30889958,0.103899606
373832255,373831711,0.567033,0.40171766,-0.2619486
373853238,373852694,-0.77952725,-0.1971616,0.67730683
373874254,373873673,1.6230007,0.688175,-0.92629385
373895206,373894658,-1.6135339,1.0498097,0.9416677
373913207,373912645,0.30185938,-0.872172,-0.91689676
373934184,373933629,0.36609665,-0.46796566,0.70625687
373955176,373954614,-1.1709967,-0.7950187,0.53886294
373973157,373972601,1.8307829,0.31439266,-2.0197737
373992630,373992086,-1.2011513,1.5400356,2.4247448
374013614,374013071,1.0415758,-0.4252047,-2.5171087
374034620,374034059,-0.78818965,-0.41681945,1.8492342
374052606,374052059,-0.75643635,-0.23439932,0.1636963
374073599,374073058,0.592468,0.64694285,-1.7102702
374094589,374094025,-0.51060766,0.32600176,2.6947765
374112559,374112004,1.4277023,-0.7526522,-3.2380292
374133527,374132982,-1.0002631,-0.1327238,2.7701728
374154519,374153972,-0.37480065,-0.6374714,-1.2749592
374175535,374174980,0.33354983,0.24345747,0.013904332
374191983,374191439,-0.76115495,0.9485356,3.131779
374212968,374212424,1.9753484,-0.93087816,-3.9350834
374233955,374233408,-1.4048089,-0.066979915,3.7205794
374251959,374251408,-0.22944927,-0.27007958,-1.1023531
374274433,374273879,-0.23219824,0.5848299,-0.14617723
374292417,374291866,-0.790399,1.1810018,2.9105468
374314918,374314349,1.2466432,-0.66154695,-3.8435025
374332931,374332335,-0.8060941,-0.786333,4.1679425
374353864,374353320,0.12596594,-0.8266478,-2.8173695
374374855,374374304,-0.29600456,-0.33043024,1.4909143
374392831,374392287,-0.14502268,1.4260683,1.8629767
374412327,374411777,1.3089293,-0.1359924,-3.9813435
374433305,374432761,-1.2447166,0.005600123,4.429161
374454291,374453747,0.58590996,-0.78245723,-3.778006
374472343,374471738,-0.37210366,-0.7214648,1.4872446
374493262,374492717,-0.25344723,1.0567235,0.61496454
374514246,374513702,0.40260765,0.18439846,-2.7388258
374535236,374534686,-0.3859573,1.0110377,3.439278
374553217,374552673,0.17468527,-0.2016819,-3.8407624
374574205,374573657,-0.27803156,-0.67826873,3.2406452
374593696,374593152,-0.13605575,0.12591755,-0.68405133
374613189,374612629,-0.08567876,0.14933658,-1.8845389
374634170,374633614,0.05955114,0.84598005,3.1770186
374652173,374651613,-0.53454256,0.4340164,-4.127032
374671676,374671103,0.21415727,-1.0499253,2.8440363
374692641,374692082,-0.5387863,-0.24484134,-1.4083675
374713599,374713055,0.7964571,0.17041041,0.15695432
374733103,374732547,0.012163204,0.7859845,2.1307428
374752590,374752030,-1.0568197,0.74906087,-3.5653384
374773595,374773011,0.22441867,-0.5528934,3.892224
374794540,374793995,-0.66171014,0.4536957,-4.18987
374814026,374813481,0.60782015,-0.9695718,3.79059
374833536,374832980,-0.81129086,0.5304332,-2.5751908
374854502,374853951,0.35036302,0.22503048,1.9419723
374872482,374871938,0.64280224,-0.53389823,0.45796186
374892046,374891428,-0.6108116,1.2190052,-1.479311
374912952,374912408,0.8037471,-1.5227371,1.5470746
374935451,374934892,-0.14616732,1.2656664,-0.40196738
374951976,374951389,1.0986348,-2.0509706,4.0134354
374972964,374972364,-0.65059614,0.11071981,-3.2459512
374993945,374993348,0.3099408,-1.500773,2.9278197
375014885,375014333,-0.041790854,0.18727984,-1.635205
375032869,375032320,0.8136179,-1.1128691,3.4353888
375053855,375053304,-0.44068298,0.39135748,-2.0705128
375074840,375074289,1.1930028,-1.6362855,-0.12275136
375091359,375090818,-0.9656597,0.46920916,-2.5044806
375112323,375111774,1.6109259,-1.33473,-0.8031775
375134791,375134247,-2.0006797,2.9673858,3.4858782
375154274,375153730,0.27163786,-2.061412,-4.0495753
375172261,375171717,-1.5912311,2.6183012,4.336199
375193296,375192707,0.6420169,-2.7936456,-4.407831
375214237,375213687,0.15308686,0.64645165,2.7115448
375232211,375231667,0.5902786,-1.3446271,-2.242598
375253221,375252669,1.0169598,-1.4597437,-1.3432723
375272704,375272163,-1.8067943,4.3893485,3.8558133
375295176,375294632,0.93965423,-6.7191687,-4.476678
375313177,375312613,-0.9076083,4.496031,2.9732895
375334162,375333603,1.0935799,0.58007556,-0.46261504
375355149,375354583,1.0283358,-4.2904973,-1.621323
375371633,375371092,-2.5905955,4.173967,2.1891623
375392599,375392055,2.860282,-5.2473826,-0.42370996
375413603,375413045,-0.8801909,0.7143554,-0.08212473
375434585,375434032,-1.7031697,2.5316105,-0.7551721
375452573,375452022,2.0605721,-3.7282193,1.9046708
375473539,375472995,-0.7954495,0.90388143,-1.1105516
375493025,375492481,-0.7776468,1.6043955,-1.0646565
375512511,375511967,0.6062664,-1.6065308,1.6837387
375533497,375532951,0.9936509,-0.9692113,0.8484354
375554480,375553936,-0.79351074,2.20781,-1.2273344
375575464,375574921,-0.7952216,1.5039216,-1.22917
375591952,375591409,0.74245304,-1.6649799,1.82474
375612939,375612395,0.4866223,-1.1079537,0.18713647
375633930,375633386,-1.1113129,2.7222147,-1.0022086
375651970,375651414,0.098917834,0.31175187,-0.46943563
375672901,375672349,1.3469315,-2.185871,0.69299746
375693885,375693333,1.2919791,-2.2669902,0.7867677
375713390,375712830,-1.3663571,0.67396593,0.06890126
375732888,375732305,-1.9818887,1.1879703,-0.7346342
375753833,375753289,-0.7550873,0.7397065,-0.40495905
375774825,375774274,0.98665136,-0.93816215,0.1689124
375792806,375792261,2.1678786,-2.4201968,0.30738866
375812301,375811755,-1.7935674,-0.27135473,0.54438925
375834774,375834230,-2.5142176,1.4231255,0.44502455
375852774,375852217,-2.3959825,1.7984803,-0.17978162
375872293,375871712,0.38856548,2.0404322,-0.64146644
375893259,375892704,2.5133142,-0.28455764,-1.5944643
375914222,375913679,2.841762,0.3346007,-1.3409146
375932207,375931662,2.7664263,-1.8378187,-0.2635779
375953187,375952643,0.8794056,-2.7549255,-0.17613338
375974198,375973634,-0.5029695,-3.784358,0.094228394
375992174,375991614,-0.67316633,-2.3535614,0.2839452
376013150,376012599,-0.8657133,-1.3539928,-0.26905158
376034138,376033583,-1.773103,-1.4956259,-0.29627326
376055117,376054568,-1.2594934,-1.6310426,-0.66392434
376071619,376071077,-3.8892117,-0.18067053,-0.3058645
376092630,376092044,-3.0914774,-1.2937028,-0.67575526
376113569,376113025,-2.9876838,0.44296068,-0.5215385
376134554,376134010,-1.1175543,-2.4037058,-0.3583482
376152553,376151996,-3.6966577,-1.6763934,0.14654543
376173533,376172983,-2.2955697,-2.0913424,0.3789591
376194544,376193972,-1.5280306,-1.3206714,1.3123381
376212511,376211970,-2.3633685,-0.65199876,0.22100113
376233481,376232937,-2.4547184,-0.8066884,0.68039614
376254488,376253942,-0.47063372,-0.4077213,1.1120659
376275462,376274913,-0.03771056,-0.68012637,1.2527664
376293455,376292893,-3.9152524,3.929924,-2.185629
376312933,376312389,-4.8713207,4.364789,-1.997069
376333953,376333363,-4.6593404,3.9971054,-1.9482381
376351912,376351357,-0.22042082,2.2393963,-0.77233875
376372878,376372334,0.45346147,1.2787061,-0.42753616
376392364,376391820,2.8000717,0.95357585,-0.008960363
376414850,376414304,1.7281804,1.0610764,-0.22823152
376432847,376432290,3.2802424,-1.142768,1.1883743
376453831,376453280,2.3051093,-1.5741557,0.78466445
376474811,376474259,0.46184397,-3.072143,0.9771419
376491319,376490778,-5.159681,-1.0170184,0.45722973
376513803,376513262,-4.8833385,-1.2024161,0.9284606
376534767,376534222,-4.5878887,1.2496874,0.6373254
376555752,376555200,-4.797993,2.958616,0.8267212
376572232,376571688,0.55912626,3.8581345,-1.9565767
376593217,376592672,0.7828127,2.3354995,-1.7710611
376612710,376612158,3.8117545,-1.9971404,-1.712109
376632219,376631655,6.253191,-5.468547,0.56198466
376653172,376652629,6.280492,-5.862385,0.9253758
376674157,376673613,6.716429,-6.119614,1.5895965
376693671,376693127,3.6231604,-3.9961367,1.798862
376713137,376712588,-0.37398243,0.18664469,1.6183248
376734113,376733569,-2.335583,1.0174705,0.4715928
376755113,376754554,-4.312313,2.0199146,0.27827373
376771637,376771063,-3.4105797,1.9485635,-0.3429443
376792629,376792029,-2.8583705,1.1609056,0.027910007
376813560,376813010,-1.0074741,2.3049064,-0.11697179
376833051,376832500,4.0849614,1.825251,-0.49433705
376852532,376851982,5.018853,-0.04680934,-0.9948992
376873517,376872970,3.3044865,-1.757488,-1.0019637
376896048,376895507,2.4673958,-2.1396124,-0.9822989
376913981,376913437,1.7267568,-4.048231,-0.017030641
376933467,376932922,0.15743159,-1.7142369,0.7142632
376954457,376953907,-0.29762277,-0.025172254,0.56973624
376975458,376974892,-1.3720635,1.3120933,1.1005263
376993489,376992879,-0.8189819,3.968552,-0.75382894
377012920,377012365,-0.54251224,4.2368593,-1.2742444
377035413,377034855,-1.5298206,4.5123305,-1.1773137
377053387,377052835,1.5321517,-0.8757989,0.12073716
377072914,377072322,2.5387316,-3.0629158,0.9035704
377093856,377093310,3.370969,-3.375641,1.128657
377114834,377114290,2.6516113,-3.4712186,1.0003545
377132826,377132276,-1.0426459,-0.4419302,0.092999056
377153815,377153263,-1.8815708,0.4232949,-0.59561145
377174828,377174245,-2.7705107,0.13058722,-0.982191
377192779,377192232,-2.910126,0.948956,-1.1471229
377213761,377213217,-1.8899584,1.0403552,-0.504043
377234746,377234202,-0.39455238,2.1634378,0.21371166
377255745,377255190,0.84393126,2.4800844,0.50440973
377272225,377271674,3.9893696,-0.13148578,0.60156965
377293209,377292659,3.3351793,-0.8804594,0.53235704
377314191,377313643,1.2732612,-2.2100594,0.67910314
377332253,377331657,-4.2664194,-3.4146311,0.7261673
377353162,377352615,-4.3092904,-3.131348,0.4465202
377372651,377372101,-4.8723125,1.7895585,-0.45772177
377395158,377394584,-5.233639,1.4977525,-0.17002265
377413127,377412571,-1.9490385,4.330282,-2.0767238
377434108,377433555,-1.2617508,4.8672233,-1.8647124
377455099,377454540,-0.45625287,3.4974034,-2.3042736
377471586,377471043,4.759877,-4.324603,0.91687256
377492556,377492012,5.9893265,-4.3667765,1.7799207
377513541,377512997,6.9181376,-4.761255,2.072847
377534546,377533993,6.94705,-5.460024,1.9554319
377552521,377551969,-0.024049275,-1.5692301,2.1862133
377573497,377572953,-2.0203416,-0.32465684,1.9510648
377594490,377593938,-2.5922873,-0.28948072,1.1781652
377612502,377611930,-5.706479,3.9199882,-0.93543077
377633465,377632909,-5.0857368,3.552582,-1.1237068
377654445,377653894,-4.6032367,3.3982868,-1.2817428
377675435,377674878,-4.23335,2.9863136,-0.54501784
377691925,377691380,1.6792922,-0.5675076,-0.45628017
377712911,377712358,2.4786863,-0.81078047,-0.23699561
377733907,377733358,3.1836739,-0.5841397,-0.07144972
377751925,377751348,3.4604135,-1.102126,-0.14365406
377772897,377772313,1.2004011,-0.7298027,-0.8083983
377793836,377793292,-0.20107222,-1.2024195,-0.33154237
377813339,377812797,-0.9951151,-1.8917054,-0.33711964
377832814,377832263,-0.83651125,-1.173681,0.37276033
377853800,377853248,-0.47631323,-0.78381103,0.49599263
377874784,377874232,-0.33487633,-0.05378317,0.74417704
377892764,377892219,-0.9246446,2.9681995,0.9357272
377913748,377913204,-0.26582444,3.205883,0.4545739
377934736,377934188,0.2737928,3.7810678,0.2602477
377952727,377952175,1.7240824,2.923497,-1.0720558
377972219,377971661,1.5938817,1.7538457,-0.29382196
377993201,377992646,1.1867975,0.07211358,-0.42131647
378014175,378013630,1.6160852,1.4938995,-0.7642086
378032174,378031630,1.3668739,-1.1220752,0.58215845
378053148,378052601,2.2047446,-0.77446884,0.64479476
378074161,378073586,2.2658277,-1.3384854,0.76043785
378095131,378094589,1.8909249,-1.7000694,0.73968536
378113109,378112558,2.135251,-3.7278593,2.0038574
378134090,378133542,1.7412043,-3.0965154,1.5461035
378155083,378154528,1.9619715,-2.335466,1.23649
378173060,378172514,-2.2503111,0.375883,-0.39164576
378192545,378192000,-4.0466037,1.431926,-1.4260737
378213557,378212990,-4.3164897,1.3572453,-1.0672791
378234513,378233969,-3.830612,-0.6020378,-1.137599
378252511,378251956,-0.6092456,2.3053026,-0.37514108
378273527,378272945,-0.78796154,3.9432437,-0.7206689
378294502,378293933,-0.5954252,4.546954,-1.1797016
378312483,378311916,4.23995,3.711741,-1.2289819
378333459,378332913,3.2876344,3.8547397,-1.3998599
378354460,378353912,1.864198,2.6148698,-1.2271336
378375443,378374873,1.3069086,1.4225531,-1.2148938
378391907,378391356,5.1594424,-5.095812,2.2395048
378412908,378412342,5.334244,-5.471048,2.3502998
378433867,378433323,5.6194167,-5.266724,2.7371316
378451857,378451309,-1.0675225,-0.88678765,1.5629659
378472838,378472294,-2.0808415,-0.14069884,1.0189306
378493845,378493285,-3.6391106,0.22408633,0.061968405
378514807,378514263,-4.452698,1.1763393,-0.11745704
378532815,378532250,-3.6455069,2.3612375,-1.6177527
378553779,378553235,-2.7495513,1.0543302,-1.21748
378574771,378574220,-1.4305559,0.75314456,-0.8609029
378634720,378634176,1.88652,3.4875119,-1.5825677
378655717,378655161,1.243212,1.8591553,-1.6827308
378672195,378671649,3.4446151,-4.3730803,1.391342
378693185,378692638,4.4601564,-4.90663,1.5853412
378714162,378713617,3.901463,-3.8273437,2.1251235
378732165,378731611,1.2707645,-0.2611408,1.8308386
378753133,378752589,0.13111623,0.19939964,1.0988725
378774118,378773574,-1.6921465,1.6867949,0.64560753
378792105,378791560,-5.7608633,3.2709959,-1.024581
378813114,378812552,-5.263348,2.761876,-0.78904617
378834074,378833530,-4.3003993,2.274758,-0.8926316
378855064,378854515,-3.0931416,1.127067,-0.33553055
378871570,378871023,0.50134265,-0.075120434,0.34446576
378892583,378891991,0.288391,0.4512759,0.2941458
378913521,378912972,-0.3732359,1.3576494,-0.08473029
378934501,378933957,-1.0769606,2.2289,-0.35776272
378952527,378951945,-0.13706286,-0.11258189,-1.0646243
378973548,378972932,-0.30818182,-0.99302953,-0.42216355
378994470,378993912,-0.2454685,-2.6573274,-0.010550509
379012456,379011900,1.7002937,-4.50282,0.8246271
379033436,379032884,2.2420309,-3.3130705,0.32920828
379054421,379053869,1.2714647,-2.141092,1.2864307
379072422,379071860,-2.4258618,3.6442158,-0.9672229
379091927,379091347,-2.6912816,4.5597954,-1.5081054
379112872,379112326,-2.493009,2.8621156,-1.6419514
379135361,379134817,-3.3122501,1.655234,-1.6897002
379153340,379152797,1.6349064,1.5331973,-0.07371931
379172878,379172287,3.4540524,0.76880014,0.73407584
379193811,379193267,3.2883213,1.5887706,0.50782615
379214796,379214252,2.3987029,1.5967083,0.21807362
379232795,379232238,3.0458207,0.80336386,0.5455534
379253773,379253223,3.2406666,0.58745235,0.14707066
379274765,379274208,3.7870152,-0.93927306,0.3683149
379292739,379292195,0.99493676,-5.527385,1.2953428
379313733,379313179,1.7315512,-5.8201785,1.7717967
379334711,379334164,1.2851171,-4.2852983,2.0483663
379355737,379355149,1.3372328,-2.6718502,2.274218
379372181,379371638,-5.2645493,2.5799918,-0.9829767
379393196,379392622,-4.876931,1.1606325,-0.90145844
379414150,379413606,-4.7088523,0.32780433,-0.6726245
379432146,379431593,-5.4791527,2.662332,-1.1274041
379453122,379452577,-4.6698895,0.9888803,-0.96019346
379472610,379472063,-4.170909,0.28292307,-0.8072334
379495093,379494547,-4.6659365,0.31120428,-0.058147147
379513088,379512534,-3.5529757,-0.5506948,-0.13189916
379534063,379533518,-2.9448702,0.035114247,-0.058981717
379555054,379554503,-2.79205,1.583171,0.13617584
379571548,379571004,2.0024412,1.3970417,-0.7553144
379592531,379591984,1.0731161,1.3410583,-0.89278305
379613506,379612961,0.9056755,-0.89532727,-0.94488156
379634497,379633953,1.1913372,-3.4549,-0.6053738
379652483,379651932,0.5219441,-2.4001226,0.36420015
379673468,379672916,0.16432695,-0.50443715,0.17354563
379694451,379693901,-0.5381144,2.1051645,0.18447603
379712442,379711888,-1.0356323,5.557302,-0.9945473
379733436,379732872,-0.27611098,4.040988,-1.1143408
379754424,379753857,0.7088409,2.0579438,-0.7203948
379775403,379774843,2.0410154,-0.22256239,-0.29141828
379791914,379791358,3.6962905,-3.7762063,1.6916674
379812865,379812322,3.0901792,-2.9242084,1.8363416
379833854,379833299,1.8322797,-2.03222,1.3929839
379851856,379851287,-3.9624486,-0.61955,-0.63080525
379872847,379872271,-5.3081226,-0.28663993,-0.76429665
379893800,379893256,-5.380185,0.41841817,-0.8262069
379913309,379912768,-3.746828,0.029342905,-1.2184342
379932796,379932233,-1.1768807,0.2971873,-0.7757658
379953756,379953212,-1.3936182,0.82887787,-1.0450342
379974762,379974197,-1.0143657,1.5483464,-0.87336946
379992729,379992183,1.1369575,3.549824,-0.45842385
380013719,380013168,1.4914503,2.8464508,-0.67741185
380034715,380034155,2.0392585,1.2346485,-0.62021405
380052693,380052147,5.1412735,-2.2765355,0.1885654
380072211,380071625,4.9666867,-4.148564,1.5317911
380093157,380092610,5.742359,-4.22797,1.592261
380115667,380115116,5.894317,-4.2312274,1.4570429
380133639,380133081,1.6324664,-0.9080736,1.2360117
380153106,380152562,-2.3786426,1.6214781,0.5874616
380174138,380173583,-3.4921892,2.3987162,-0.14280704
380192082,380191538,-4.5528893,3.6485543,-0.9628675
380213072,380212523,-3.5157187,2.6788285,-0.95600396
380234051,380233507,-3.0872145,1.6084148,-0.6142645
380255043,380254492,-0.9941864,1.5822798,-0.40157136
380271527,380270983,0.85069674,0.14189789,0.42529932
380292557,380291968,1.097546,0.60446084,0.38996997
380313493,380312949,0.92381316,1.1358821,0.091325976
380334478,380333934,0.6204092,1.5195763,0.25563803
380352471,380351921,1.2206208,1.2031361,0.49149024
380373505,380372906,1.4948947,2.4589143,0.15495077
380394456,380393890,1.5353426,3.0052783,-0.11329948
380412456,380411911,0.9267455,1.819992,-0.42263395
380433422,380432862,0.90550447,2.035159,-0.5816048
380454408,380453847,0.71914536,2.6103108,-0.5618029
380475389,380474831,0.69016814,2.813061,-1.219593
380491868,380491319,0.81102026,-2.6118917,1.1272979
380512868,380512310,1.8783841,-2.3257306,1.3764504
380533832,380533289,3.14058,-2.9799712,1.6723914
380551825,380551281,-0.027413623,-3.0151103,1.832333
380572804,380572260,0.38995564,-2.7462156,1.9153122
380592290,380591746,-1.3273147,-0.042301644,1.7460011
380614774,380614230,1.6885203,-1.3282093,1.8921214
380632774,380632218,-2.3902323,0.68519306,0.38130736
380653745,380653201,-2.5445688,1.1979537,0.5169696
380674735,380674186,-2.2862017,1.7599905,0.53537875
380692752,380692179,-3.323128,0.79154277,-0.5517978
380713713,380713157,-2.4535146,-0.36842212,-0.55426157
380734697,380734142,-2.5794156,-0.33969873,0.20152801
380755692,380755127,-2.3584,-0.30692187,0.38411155
380772170,380771615,0.38075915,2.0912085,-0.28270522
380793144,380792599,-0.7734006,2.9097843,-0.84223473
380812633,380812089,0.005073036,-0.26854935,-0.7729852
380835118,380834569,-0.49377862,-0.21151872,-0.9158866
380853113,380852556,0.9878962,-4.33914,0.16775769
380874094,380873544,2.3829792,-5.587716,0.51388013
380892072,380891527,0.35268486,0.9408451,0.36799362
380913067,380912512,-1.4182312,3.139337,0.5349377
380934041,380933497,-1.9837286,3.0390146,-0.51723343
380955033,380954489,-3.5870059,2.8583064,-1.0074683
380971512,380970968,-0.26794478,2.3106055,-1.4535335
380992530,380991969,0.61993456,0.6313425,-1.532677
381013483,381012939,0.75861436,0.38943818,-1.8659925
381032978,381032425,4.2342076,-1.0305055,-0.62346375
381052520,381051911,4.8864174,-0.80952764,0.07742087
381073458,381072895,3.9928617,0.32613936,0.37292373
381094445,381093880,3.4499335,0.7709807,0.4134593
381112424,381111867,0.5289781,0.4272794,0.70847535
381133408,381132852,0.3433573,-0.62262094,0.47678724
381154396,381153836,0.3398681,-1.8573304,0.29686677
381172388,381171824,-1.0247873,-2.8681905,0.67137504
381191896,381191309,-1.2678274,-0.29422727,1.3452826
381212845,381212294,-1.3645551,1.7658622,1.5990093
381233823,381233279,-1.7687076,3.989799,1.0771273
381253331,381252765,-4.2407193,5.5525594,-0.6632313
381272827,381272250,-3.8833969,2.9670017,-1.2991984
381293782,381293235,-1.6411856,0.96547747,-0.8963626
381314764,381314220,0.0992469,-1.9844563,-1.008105
381332787,381332207,3.1203797,-5.016984,0.44999355
381353748,381353199,1.9875598,-2.8569946,1.584948
381374736,381374177,0.60931814,0.08221771,0.67050225
381392709,381392163,-0.6779295,1.3627671,-1.2146949
381413709,381413148,0.06585128,0.43531463,-0.84149987
381434687,381434132,0.9099039,0.16489889,0.11606389
381455711,381455133,1.6368264,1.3554381,1.1961453
381472155,381471605,-1.0238161,0.7181995,0.14084867
381493134,381492590,-3.0764716,-0.7104687,-0.32889503
381514119,381513575,-2.7616546,-2.6692746,0.10472701
381532106,381531562,-2.424527,-1.4309684,-0.09593268
381553105,381552553,-2.9126332,1.4825237,-0.12084351
381572578,381572032,-2.3691266,5.440067,-1.1494136
381595061,381594517,-2.479227,5.8357162,-1.569863
381613061,381612503,2.1788266,0.6675628,-1.1426647
381634032,381633488,3.3092935,-2.2490873,-0.73569214
381655024,381654480,3.7848246,-4.0580673,-0.21913852
381671501,381670958,4.540424,-4.0874357,2.23813
381692490,381691945,4.235092,-3.1629784,1.7026646
381713476,381712930,3.6777883,-1.6449871,1.9328233
381734470,381733923,2.583024,-0.7814578,1.5717571
381752460,381751904,-3.0628293,1.0264328,0.3077813
381773438,381772886,-3.5659573,1.4166385,0.1546959
381792925,381792379,-4.1428485,1.210675,-0.58651674
381812430,381811866,-3.1783473,-0.41486385,-0.6435571
381833398,381832843,-2.787344,-0.086669885,-0.3218071
381854371,381853827,-2.112042,0.9987256,0.34032997
381873857,381873313,-1.2097764,1.814611,0.2235063
381891857,381891300,-1.1145171,1.9385754,-0.5829697
381912839,381912285,-2.2055328,1.5973285,-0.6482611
381933814,381933270,-2.4172933,-0.012089908,-0.77496225
381951859,381951277,-1.1078584,-3.1939096,-0.77603847
381972834,381972255,-0.90528774,-3.0687556,-0.21671744
381993777,381993226,-0.15449308,-2.6957972,-0.09826679
382013270,382012728,-0.086515024,0.027339134,0.23142396
382032749,382032198,-0.72612625,3.9347093,-0.019871317
382053741,382053189,-1.595574,4.8574834,-0.5059113
382074718,382074167,-1.7296591,5.897655,-1.0391475
382092711,382092154,2.9184892,0.57056427,-0.46011415
382113697,382113139,4.5015826,-1.3860676,-0.3281263
382134697,382134130,5.793123,-3.0947998,0.46674398
382152669,382152118,1.8515023,-3.1256766,2.1399546
382172191,382171603,-1.9771225,-0.6047506,1.3888124
382193133,382192581,-3.8920007,0.5167788,0.5644778
382214117,382213566,-5.3935804,1.3921773,-0.19361341
382232137,382231584,-3.483736,3.1773198,-1.642951
382253103,382252562,-2.1264274,2.076786,-1.81382
382274109,382273538,-0.36737114,1.1505162,-1.627559
382295059,382294507,1.0054824,0.493868,-1.1220553
382313049,382312494,3.208359,-0.9634544,0.15594597
382334058,382333479,3.7175162,-0.07388305,0.36748117
382355057,382354496,4.1884403,-0.37877765,-0.21789338
382371492,382370948,1.5860577,-1.9165398,-0.36445728
382392535,382391943,0.9736324,-1.5214888,-0.31956068
382413465,382412921,1.5323067,-2.2266033,-0.06710721
382434465,382433923,1.5999477,-2.7035758,-0.10330131
382452450,382451893,0.3283679,-1.507499,0.9327144
382473467,382472877,-0.22656152,0.07782989,1.4442347
382494425,382493863,-0.3018015,1.3735168,1.4082658
382512425,382511876,-1.8854988,4.5422916,0.10645474
382533394,382532834,-0.9302396,4.1982346,-0.28829938
382554366,382553822,-0.23599637,3.8644245,-0.2610182
382575349,382574804,0.39321885,3.7809324,-0.8215519
382593360,382592790,1.5042012,-1.078451,0.15580171
382612848,382612280,2.3457696,-3.1549244,0.79244757
382633808,382633261,2.6776457,-2.7865171,0.87555784
382651792,382651248,1.4539703,-3.5546494,1.3108813
382672777,382672233,2.37771,-1.666455,1.3288805
382692264,382691719,2.2338204,-1.1962357,1.8422828
382714783,382714202,3.4175289,-1.0828025,0.9414911
382732746,382732190,2.6758966,-1.5868062,1.8227067
382753718,382753174,3.4886172,-0.60167587,1.5730582
382774717,382774166,4.521138,-0.43426937,0.7580113
382792713,382792149,2.6224797,0.56496453,1.2473788
382813685,382813130,2.9364607,1.4140947,0.9250368
382834671,382834115,3.0440226,1.5265565,0.34761894
382855655,382855100,2.3194666,1.9764502,0.1934189
382872146,382871598,0.44043753,-0.6764459,0.3971368
382893117,382892573,1.637993,-1.6545534,0.3169416
382912605,382912059,1.765553,-2.9808125,0.41314498
382932124,382931547,1.5132009,-3.2007492,0.7147442
382953073,382952529,1.6741322,-2.5832982,1.2523265
382974058,382973514,1.51514,-1.8959159,1.4080199
382995043,382994499,0.17970279,0.79340714,1.4114535
383013035,383012486,-3.5795193,4.5879436,-0.2479731
383034035,383033473,-3.1681252,4.154468,-0.46708092
383055029,383054488,-2.0494795,5.0200872,-1.052879
383071538,383070943,0.34869045,-3.0020998,-0.010118356
383092472,383091929,2.1179104,-4.737968,0.35580844
383113479,383112913,2.4651144,-4.219655,0.8904054
383131454,383130900,0.31694105,-1.6091032,1.5708253
383152446,383151885,-0.51515234,-0.5892612,0.6991064
383173467,383172869,-1.5807357,0.34783718,0.16164166
383194419,383193854,-3.0003417,-0.17080605,0.042074274
383212394,383211841,-2.6284423,-0.6671667,-1.4908938
383233370,383232826,-1.7848806,-0.90255785,-1.5145777
383254355,383253811,-0.19327305,-1.5018135,-1.1629555
383272349,383271806,2.6025956,1.4325709,-0.24957077
383291868,383291284,1.7525419,4.539063,-0.13763042
383314320,383313767,0.24250138,5.294815,-0.39939278
383333833,383333260,0.9235742,4.503446,-0.80717134
383351784,383351240,2.9916122,-1.8149557,0.39208308
383372783,383372236,4.2261014,-4.635213,0.24698818
383393772,383393216,5.0469975,-6.0077066,1.2826089
383413237,383412694,3.5828342,-3.658947,1.7048283
383432739,383432181,0.8430757,-1.0186342,2.345183
383453733,383453173,0.10281175,0.36080813,1.9068135
383474748,383474193,-1.1274024,1.5074285,1.5428771
383492695,383492138,-6.1609383,3.6860335,-0.5798425
383513678,383513123,-5.0265584,3.4109173,-0.556695
383534663,383534108,-3.6303768,2.92589,-1.0901649
383555662,383555096,-2.01804,0.9859715,-0.70659655
383572141,383571590,1.2147812,-0.5656171,-0.18854305
383593124,383592569,1.3934339,0.10073176,0.060748443
383614100,383613551,1.1975005,1.6055259,0.48142567
383632082,383631537,-0.54520416,0.94006735,-0.4438891
383654566,383654021,-0.8602271,0.70109063,-0.6177009
383672552,383672008,-1.0852873,-2.6781166,-0.4044101
383695036,383694491,-1.063603,-3.1340241,-0.331823
383713032,383712479,0.6264832,-3.7670646,-0.13480897
383734007,383733463,0.5611951,-3.0472598,0.23459022
383755023,383754482,-0.43364,-1.6263882,0.7020796
383771480,383770936,-1.9021009,5.594044,-0.46728837
383792470,383791926,-2.665836,5.4598837,-1.0299435
383813456,383812906,-1.9649531,5.1292934,-1.3586252
383834444,383833887,-0.6397585,3.9438376,-1.5736818
383852437,383851877,3.911373,-0.18566711,-0.7149651
383873415,383872862,4.7847314,-1.216049,-0.631113
383894407,383893854,4.6605425,-0.6748025,-0.124188356
383912388,383911834,4.7885714,-1.7221782,1.557151
383933387,383932838,3.5484247,-2.0275156,1.6795787
383954348,383953804,2.902173,-1.2486571,1.662786
383975333,383974789,1.9022851,-0.46237308,1.2822063
383991832,383991277,-4.1251583,-0.32999334,0.21449529
384012829,384012261,-3.6156242,-2.0713413,-0.19930446
384032299,384031748,-3.061279,-2.0490503,-0.033980332
384051837,384051263,-1.4333518,1.6772174,0.046869524
384072766,384072222,-0.709457,3.4836102,-0.47100943
384093757,384093213,-1.3005232,4.6010294,-0.66353774
384114753,384114212,-1.6760327,3.2025247,-1.1025851
384132741,384132179,2.331515,-2.302016,-1.2552845
384153721,384153166,2.5685694,-4.6796956,-0.2669556
384174709,384174168,3.3013453,-5.7586145,0.4609007
384192688,384192131,3.36505,-2.3355496,1.1387112
384213688,384213120,2.947279,-0.36026093,1.4723839
384234657,384234101,1.0579734,0.14882453,1.4888029
384252660,384252104,-2.5849085,3.1601875,0.11113944
384272157,384271574,-3.1866722,4.1024017,-0.5938926
384293107,384292559,-2.0500126,3.674036,-0.7742717
384314095,384313543,-0.42586496,2.3399665,-0.8977769
384332107,384331562,2.6676326,-2.0789266,0.11155412
384353074,384352522,2.6483762,-2.3365982,0.21568121
384374072,384373505,3.1816785,-2.1969204,0.8828087
384395037,384394485,2.433616,-0.60444534,1.0568999
384413022,384412475,-2.3964005,0.28094625,-0.50814724
384434001,384433457,-3.7855065,-0.60388345,-0.87476593
384454996,384454449,-4.278769,-0.9304619,-1.3333133
384472972,384472429,-1.3929038,0.65911293,-0.38283873
384492480,384491918,2.6277144,3.0746279,0.5731456
384513451,384512899,3.662963,4.329777,0.3669949
384534446,384533887,4.60463,3.1055229,-0.014634339
384552429,384551871,3.5370507,-1.8834872,0.376569
384573476,384572860,2.8498483,-3.3873208,0.6358895
384594429,384593877,1.8713539,-5.093368,1.0737664
384613883,384613330,-0.71461326,-3.6988215,1.2495421
384633360,384632812,-1.9573864,-1.1535411,1.5926391
384654349,384653797,-1.9029881,-1.2457788,0.756222
384672393,384671795,-5.425671,3.6595404,-0.42112797
384691820,384691270,-5.5047393,4.0167265,-1.5443647
384712803,384712255,-5.066935,2.8182702,-1.695602
384735287,384734738,-5.465994,4.251739,-0.96179116
384751778,384751227,-0.023156477,-0.88500154,-1.3955764
384774261,384773711,-0.73687226,-0.27872258,-1.378172
384793752,384793203,0.023222161,-2.986201,-0.5136399
384814734,384814182,0.25357375,-3.6170852,0.089331225
384832716,384832168,2.1125073,-2.1760824,1.0473108
384853707,384853153,2.3356388,-1.6049793,0.9722356
384874697,384874153,1.3526558,-0.7455098,0.7845968
384892685,384892130,-2.4235513,1.9132822,-0.9444009
384913679,384913113,-2.322414,1.9659994,-0.858186
384934660,384934095,-1.7464982,1.6078819,-1.2913735
384955629,384955079,-0.531596,1.3282005,-1.3220464
384972117,384971568,2.3425236,0.0753769,0.63867605
384993097,384992552,2.1499648,-0.31387052,1.191082
385014091,385013545,1.9803338,-0.029760204,1.4039112
385035072,385034522,1.9702235,-0.047640406,1.0332662
385053053,385052509,-1.3299757,-0.7839319,0.5751464
385074039,385073496,-2.289451,-1.4306871,0.00592147
385095040,385094493,-3.023813,-3.1974156,-0.018485362
385113010,385112466,-3.3498006,-1.3162442,-1.0637522
385134009,385133455,-2.1158826,0.25610766,-0.67565554
385154987,385154443,-1.3222438,2.2017715,-0.6969504
385171495,385170934,2.7373366,3.2634277,-0.65152115
385192470,385191909,2.8130887,2.270865,-0.68719286
385213448,385212893,3.3860972,1.1577564,-0.77947265
385234431,385233878,3.7343194,-0.5611312,-0.30459672
385252427,385251865,3.6400495,-5.3147078,0.8950619
385273466,385272856,2.9190314,-5.1901326,1.5087036
385294427,385293862,0.977055,-2.9339366,2.1245131
385312366,385311822,-3.6649897,3.5144174,0.30198857
385333358,385332810,-5.2055736,5.786722,-1.0909231
385354336,385353792,-4.6502194,4.4055204,-1.7398787
385375332,385374777,-1.0032033,-0.07463987,-1.7622072
385391859,385391265,5.8593745,-4.6906543,0.26635998
385412800,385412250,3.1327682,-1.9892397,1.5252265
385435277,385434733,2.059631,-1.0084943,1.7700868
385451766,385451222,-4.4902,3.5969486,0.25229475
385472780,385472206,-2.4096832,3.1709645,-0.70200586
385493752,385493197,-0.89671755,1.7101501,-1.2090367
385514722,385514178,0.071015485,-0.77133644,-0.48828095
385532707,385532163,1.4243463,-2.1285272,0.343235
385553692,385553148,0.91983855,-0.90568775,0.5987559
385574765,385574168,0.35558808,-0.38912323,0.073076844
385592683,385592120,-2.0650275,0.8912592,-0.85672843
385613659,385613104,-1.872082,0.31826037,-0.7699317
385634650,385634089,-0.7734421,-0.54909784,-0.27090368
385655631,385655074,0.7931236,-0.02169869,0.86543083
385672115,385671562,0.6881727,1.4681759,0.5611362
385693093,385692547,0.19503602,0.5974523,-0.063946664
385714104,385713563,-0.8246324,0.25290868,-0.8112643
385732066,385731521,-2.018513,-1.58651,-0.84264886
385754547,385754003,-1.9806345,-3.0094185,-0.7428339
385772545,385771990,-2.945112,2.3117406,0.44470257
385795018,385794474,-3.783803,4.484317,0.017261114
385813012,385812461,2.8677874,3.679358,-0.5018267
385833990,385833446,3.7571874,2.5129528,-0.83297324
385854976,385854432,4.2538853,1.1265018,-0.5937675
385871470,385870919,2.496586,-5.6326537,1.3705322
385892463,385891907,2.1849089,-4.2656293,1.5848714
385913477,385912890,2.0649,-3.8835578,1.7500478
385934431,385933876,1.9390038,-3.781083,1.7036244
385952423,385951861,-2.1737854,-0.8864057,0.54912084
385973402,385972845,-4.0061626,1.410834,0.10013397
385994403,385993844,-4.5219383,1.419874,-0.37692896
386012390,386011817,-4.28561,2.7626462,-1.8335694
386033346,386032802,-3.5993009,3.4476752,-2.0632784
386054331,386053787,-2.742934,2.5081718,-2.1082187
386072332,386071788,1.3444129,-1.0596389,-0.96258026
386093310,386092759,1.7502314,-1.0338364,-0.38712212
386114287,386113744,1.849709,-1.308634,0.09340727
386132280,386131731,3.4951968,-0.31629732,1.2252146
386151791,386151213,1.3303406,0.75720274,0.64708865
386172756,386172212,0.7528662,0.0814229,-0.047983106
386193754,386193212,0.14943841,-0.018009821,-0.10294812
386214723,386214179,0.32168043,-0.056797683,-0.39534062
386232707,386232158,-0.17283882,-0.20229852,0.30456048
386253687,386253143,0.42513618,0.46638677,0.47345197
386274681,386274137,-0.08297204,1.359205,0.96225244
386292670,386292115,-0.48353815,2.2961154,0.17058672
386313658,386313100,-0.1976355,1.4775993,-0.35870156
386334689,386334089,-0.4065532,0.764226,-0.5355069
386352619,386352075,-0.37731034,-3.451903,-0.15147085
386372148,386371558,-0.92916983,-4.452953,0.004690028
386393087,386392543,-0.604968,-5.0638576,0.62576854
386415574,386415027,1.0808823,-5.5851297,0.79647213
386432068,386431522,-1.5940409,-0.28374177,0.8698616
386453058,386452500,-1.5828612,-0.56051636,1.1148894
386474062,386473491,-1.7612821,-1.7089152,1.3968002
386492037,386491484,-3.2487266,1.5336927,-0.6286746
386513001,386512457,-3.643423,-0.068275884,-0.08912481
386534001,386533439,-2.8573532,-1.2618243,0.21529798
386555023,386554451,-1.4258255,-2.4706793,1.0699707
386571466,386570914,-3.5087476,0.21511444,-1.1361003
386592475,386591899,-3.120793,-0.5680032,-0.057341035
386613436,386612884,-1.6235932,-1.8076125,0.2344229
386634423,386633869,1.1436706,-1.1332992,1.1395339
386653922,386653368,1.0789317,0.048992813,0.7710101
386673443,386672844,1.5484277,-0.44100493,0.7998995
386694391,386693828,2.613077,0.013368349,0.44647577
386712362,386711813,0.15568689,-1.2881742,0.36568758
386733364,386732804,1.3319544,-0.6904162,0.19712432
386754327,386753783,2.8450813,-1.652431,0.15129904
386775317,386774768,3.2565174,-1.8925264,-0.0053922785
386791805,386791256,0.50492233,-4.301972,0.7717345
386812799,386812244,1.9070694,-3.154786,1.1275699
386835276,386834732,4.6541033,-3.805281,1.1413329
386851760,386851213,-1.9357115,2.05388,1.1186591
386872741,386872197,-2.994726,3.6408231,0.62328035
386893744,386893188,-3.4851542,4.079807,0.11701483
386914711,386914167,-3.7934556,4.0420785,-0.251112
386932699,386932155,-1.7536455,0.5641688,-1.3427823
386953683,386953139,-0.61794406,-0.62771785,-0.78736836
386973181,386972626,1.3801149,-1.9139668,0.14471415
386992706,386992117,2.9024014,-1.5302564,0.9514176
387013651,387013096,2.5994728,-0.59944326,1.0650392
387034636,387034081,0.7767019,1.38115,0.8322378
387055618,387055069,-0.0678972,0.8582381,-0.08416885
387072098,387071554,-1.2138901,-2.4250972,-1.0711488
387093089,387092539,-0.49058232,-3.1640718,-0.7893482
387112569,387112025,0.05135698,-1.9351991,-0.39893886
387135067,387134509,0.3159192,-3.4373937,-0.18597992
387153041,387152496,-0.16456476,1.9616567,-0.1231108
387175538,387174987,-1.9088144,2.6370454,-0.034473903
387193511,387192967,-1.9979792,5.115904,-1.2057426
387213011,387212456,0.23859155,3.6289299,-1.5447929
387233982,387233438,0.35968205,2.1655936,-0.99956554
387254967,387254423,0.9495738,0.46652985,-1.2954443
387271475,387270917,5.065476,-2.2616007,1.1136066
387292448,387291896,5.2134104,-1.414927,1.2158849
387313433,387312880,4.98097,-0.88466036,1.3238369
387332922,387332367,3.2205281,0.21452817,1.8925967
387352415,387351852,-0.28723434,0.22871365,1.2882341
387373418,387372844,-0.9008913,0.1512225,0.8378138
387394362,387393817,-1.0207343,-0.6247649,0.7147909
387412353,387411810,-2.8385475,-3.1002803,-1.0065775
387433338,387432794,-2.709407,-2.919255,-0.2139759
387454323,387453779,-2.6219132,-0.37521103,0.7491931
387475313,387474764,-2.4865117,3.364263,0.8107037
387491802,387491252,-1.4122206,3.5217612,-1.212294
387514280,387513736,-1.9051721,1.9542465,-1.8410534
387535266,387534721,0.95042634,-2.3166502,-1.2851249
387551753,387551209,4.4514008,-2.8563552,2.260887
387572738,387572194,1.3463377,1.1233251,2.0533879
387593725,387593179,-1.6056314,4.750858,0.44180942
387614716,387614164,-1.6414039,2.0841992,-1.0377246
387632698,387632151,-0.42950833,-2.4907525,-0.38101453
387652203,387651662,0.2311196,-1.3427862,0.7950523
387674676,387674122,-0.9331757,0.67983896,0.591646
387692675,387692118,1.4346932,0.603468,-0.8749178
387713653,387713096,2.0367699,0.48448646,0.22442912
387734646,387734078,-0.70479196,2.0862846,1.3602351
387755641,387755069,-1.6856722,0.9705382,0.64668643
387772095,387771551,-0.59763944,-2.5588608,-1.7995794
387793084,387792536,-0.48219684,-0.4780875,-0.25511134
387814066,387813522,-0.5492198,1.4170005,0.4289349
387832054,387831508,-0.7934272,4.509559,0.13671118
387853037,387852493,1.011665,3.4212627,-0.50872093
387874041,387873486,3.2152069,0.38015252,-0.34308547
387895018,387894463,5.5629363,-3.481872,0.19378158
387912994,387912450,2.4459271,-5.0063024,1.7582985
387933979,387933435,0.35623595,-2.3362074,2.0503693
387955000,387954420,0.07633313,-0.96242493,1.2079502
387971456,387970908,-5.1415553,0.5227811,-1.4907762
387992451,387991893,-4.7968454,0.6205013,-1.2756151
388013430,388012878,-4.1092677,-0.35596335,-1.3440094
388034432,388033862,-4.067899,-1.1458832,-1.3460094
388052404,388051850,-0.58647376,-0.22532533,-1.3427876
388073387,388072835,-0.0049089496,1.5691427,-0.64733267
388092874,388092321,1.2981015,3.0736575,0.06634814
388112358,388111807,2.1322012,4.0296082,-0.21809234
388133340,388132792,1.9930243,3.3504102,-0.6811737
388154323,388153776,1.8247217,1.8422145,-0.645509
388175313,388174761,2.2504165,0.026407603,-0.9294487
388193293,388192748,5.0812473,-4.6651945,0.88259566
388212778,388212234,5.2023945,-4.0040026,1.4233993
388235270,388234719,5.9782996,-3.75683,1.4560885
388251757,388251212,-4.002198,3.3578413,0.7218755
388272754,388272213,-5.433394,4.3612323,-0.078143105
388293761,388293214,-6.03439,4.408037,-0.5878596
388314724,388314162,-5.1189303,3.634976,-1.3403527
388332696,388332149,-1.5914282,-0.9515169,-0.5175126
388353694,388353139,-0.39092043,-1.6395409,-0.12954983
388374667,388374123,0.96950126,-1.4583192,0.54803896
388392702,388392106,3.1990254,0.41981864,0.7831185
388413660,388413094,1.9943992,-0.28704214,-0.45719856
388434638,388434075,0.6621173,-1.352464,-1.0970528
388452610,388452066,0.68416256,-2.7413278,-0.6550096
388472134,388471553,1.445863,-1.5617889,0.69409037
388493077,388492534,1.1688478,0.68128645,0.879319
388515569,388515018,0.8355822,1.8708508,1.0269659
388533556,388533005,-0.88435286,4.506063,0.19444744
388553049,388552494,-0.16064835,1.4278797,-0.3295519
388574050,388573476,1.2430749,-0.5594971,-0.2914622
388592022,388591481,2.2755356,-5.7690334,1.0053005
388612995,388612448,2.4040618,-5.641424,1.3152391
388633977,388633433,1.4456981,-4.426104,1.3271338
388654971,388654427,0.31972638,-1.9867109,1.5314918
388673000,388672408,-3.867001,0.8592423,-0.40846837
388692459,388691897,-5.375912,0.68067634,-1.4758017
388713432,388712876,-5.308387,0.28640485,-1.4307275
388734413,388733860,-4.4148493,-0.37524348,-1.6218053
388752400,388751847,0.47736382,0.14462017,-1.1896403
388773433,388772833,0.35169774,0.9738204,-0.75857013
388794362,388793818,0.66580224,1.3956192,-0.51530045
388812360,388811805,3.3256397,2.491943,0.6702318
388833349,388832794,3.1265192,2.736391,0.3294738
388854349,388853783,3.324477,1.799759,-0.33498955
388875317,388874760,4.231802,-2.09245,-0.7058889
388891798,388891248,0.41418645,-3.7940001,0.9590536
388912801,388912242,-0.45668808,-1.3062909,1.5670544
388935268,388934724,0.6982758,0.39587423,2.2024536
388951749,388951205,-5.7243404,5.198003,-0.95706785
388972740,388972190,-4.828775,3.1236825,-1.4772946
388993747,388993181,-3.3698916,1.0174731,-1.3585123
389014709,389014160,-1.4651136,-0.93459386,-1.1469182
389032691,389032147,2.5631144,-3.6242301,0.36698413
389053676,389053132,3.4353511,-2.7113059,1.0924708
389073179,389072638,3.2715228,-1.3958825,0.76854277
389092655,389092104,1.1274933,0.2266859,0.03362071
389113644,389113089,-0.68581223,0.020343088,-0.406756
389134636,389134074,-1.8710929,-0.53316975,-0.8177002
389155604,389155059,-1.8038453,-0.7098048,-1.1378412
389172106,389171553,0.34177607,-1.106633,-0.14953907
389193082,389192532,1.2719294,-0.022804148,0.3518585
389214068,389213517,1.2348816,2.7134514,0.94365084
389235051,389234502,1.715486,3.4065588,0.33368954
389253040,389252489,1.9314786,3.7141056,0.5751258
389274025,389273474,1.7363642,2.7408123,0.027078336
389295009,389294459,2.6220644,0.39684916,-0.25661287
389313013,389312453,2.9587765,-5.752919,0.42964974
389333985,389333431,2.3696158,-6.035475,1.2987098
389354967,389354416,1.2096865,-4.4726377,1.4330348
389371510,389370908,-4.886657,3.7281284,-0.071906336
389392462,389391905,-6.0339255,2.731029,-1.004381
389413440,389412874,-6.351383,1.916364,-1.2719636
389434427,389433859,-6.378848,2.6498966,-0.9640299
389452415,389451850,-2.5879352,2.64075,-1.7197896
389473401,389472835,-1.9712515,-0.16584173,-1.8280681
389494378,389493816,-1.5327704,-1.3708967,-1.3978686
389512352,389511803,2.0568924,-0.37783447,-0.22671588
389533354,389532793,1.9540403,-0.27370632,0.24972734
389554324,389553774,2.9498777,-0.12376719,0.58833754
389572305,389571761,2.5596178,1.0784515,0.07624016
389593293,389592745,1.4470052,0.5007847,-0.38162082
389614274,389613731,0.4248613,-0.6479508,-1.152382
389635260,389634715,0.102967836,-1.1035537,-0.8552564
389651755,389651203,1.299088,-2.091997,0.2525019
389672777,389672188,2.4023511,-2.2024024,0.19674727
389693720,389693174,2.3787198,-0.080186725,0.99682593
389714710,389714158,1.7661328,2.0366895,0.9210202
389732690,389732146,-0.7241469,3.9512444,0.069036245
389753675,389753131,-0.7045361,3.706347,-0.14867151
389774660,389774116,0.11598569,2.3042579,-0.7850697
389792652,389792103,2.743097,-4.1420984,0.035058748
389813654,389813088,3.3602924,-4.2828407,0.9769643
389834680,389834080,2.0410514,-3.1566494,1.487714
389855644,389855064,0.31583706,-0.99922407,1.2587879
389872090,389871546,-3.9770255,1.0500638,-0.9932671
389893075,389892531,-3.8103328,0.33744633,-1.6856003
389914060,389913516,-3.1057298,-0.8821492,-1.6184793
389932055,389931503,1.3370745,0.3716126,-0.45709908
389953032,389952488,1.8558418,1.1963068,0.14805853
389974063,389973473,2.4845185,2.3992045,0.01682484
389995035,389994461,2.063724,3.940408,0.19621389
390012989,390012445,3.132682,2.8434484,-0.31012556
390033981,390033430,3.7881784,0.9145505,-0.6030026
390054973,390054415,4.289327,-1.3948237,-0.32354546
390071459,390070904,2.4581897,-4.6198907,1.1366631
390092441,390091889,3.1658185,-4.078592,1.4566859
390113430,390112876,1.8836054,-1.6552025,2.35902
390134425,390133862,1.3997511,-0.6426778,1.7964499
390152408,390151846,-6.7228923,2.859819,-0.08076636
390173388,390172831,-7.943226,3.4917228,0.16779463
390194360,390193816,-7.043437,3.828527,-0.6607005
390212352,390211803,-0.94451207,-0.37437782,-1.5250468
390233331,390232788,0.77108234,-1.8098823,-0.8411039
390254324,390253780,1.6789937,-1.2870531,0.32708475
390272312,390271764,2.503913,1.4753989,0.37107992
390293289,390292745,1.9370565,1.2858329,-0.37817952
390314279,390313730,-0.17765948,-0.27568427,-0.8083867
390335265,390334715,-0.8629094,-2.6244996,-0.7251556
390351798,390351209,0.5102772,-2.2947695,0.3509192
390372765,390372217,0.5714812,-0.13183299,0.40489924
390393724,390393180,0.5272323,1.6323457,-0.05318728
390414715,390414158,-0.7909686,2.3114974,-0.4319612
390432695,390432151,-1.9715567,3.5326533,-1.7392685
390453678,390453130,-3.5204825,1.8475795,-1.7530795
390474659,390474115,-4.409452,1.0006459,-1.7769431
390492665,390492102,0.51406825,1.722333,-1.7716323
390513646,390513087,-0.13597369,1.727939,-1.9572822
390534649,390534097,-0.8183507,0.6331942,-1.9473021
390552621,390552067,0.51750296,-2.87428,-1.024265
390572141,390571549,0.4445979,-2.2688205,-0.2075925
390593124,390592538,0.7063526,-1.083174,0.43649417
390614061,390613517,1.1919496,0.4923002,0.81343234
390632064,390631503,0.80899626,1.7995584,0.64483815
390653039,390652488,-0.44132718,1.0441396,-0.04218431
