timestamp,timestamp_sample,xyz[0],xyz[1],xyz[2]
368091517,368090965,0.015796244,0.05159353,0.0073880414
368112493,368111933,-0.005917694,0.026233498,0.057322495
368131975,368131422,0.017624607,0.014296486,-0.01457437
368151460,368150907,-0.012026204,-0.01318849,-0.0026498844
368172470,368171895,-0.010300543,-0.00043403765,0.02297336
368193433,368192873,-0.010120982,0.008270006,0.013209863
368212925,368212362,0.030320946,0.006768895,-0.037993643
368232413,368231847,-0.040987443,0.0047492282,-0.04410209
368253400,368252832,-0.010456102,0.009948724,-0.020122057
368271387,368270819,0.018193377,-0.004309105,0.0073829386
368290873,368290310,-0.009090874,0.007900964,0.032586273
368311847,368311287,0.008901099,-0.0003985163,-0.0041393014
368332824,368332270,-0.00041866675,0.008826275,0.010198954
368352315,368351759,0.01128265,-0.009030868,0.011992243
368371825,368371242,-0.007311924,0.014398829,0.00393045
368392777,368392225,0.013697179,-0.008268936,-0.014478586
368413767,368413210,-0.013618648,-0.002081507,-0.010987203
368431751,368431200,-0.01175583,0.0037368918,-0.008200882
368452753,368452188,0.011909934,-0.019813672,-0.016691178
368473802,368473185,-0.0046618814,0.016031716,0.0076985606
368491716,368491156,-0.008664958,-0.004875903,0.014579819
368514202,368513639,0.010870583,0.0023732046,0.00024988002
368533684,368533121,-0.009082092,0.0065448135,0.027874436
368554712,368554106,0.013523458,-0.0018453564,-0.0075999405
368572675,368572113,0.0023035435,0.0042528496,0.000565139
368592178,368591582,-0.01117727,0.005828724,-0.0015906326
368613120,368612566,0.0072870855,-0.0049791173,-0.019962803
368631121,368630562,-0.011248302,0.0060787373,-0.00045552547
368652093,368651541,0.0010990049,-0.009992484,-0.011403654
368671586,368671031,0.005665422,-0.0007789675,-0.0028751956
368694075,368693513,-0.007174614,0.0021731793,0.013602766
368712058,368711502,0.013202356,-0.0010117078,-0.0028751187
368731584,368730977,-0.0070981653,0.008996018,0.019926
368754004,368753457,0.0019469801,-0.0030052792,-0.0056489883
368775000,368774442,0.0060307416,0.00484037,0.00011616945
368792983,368792428,-0.009187274,-0.00080873806,0.0012368797
368812466,368811914,0.0126142,-0.006719291,-0.020647015
368833454,368832898,-0.013014324,0.0063721305,0.0060033435
368851456,368850903,0.003999025,-0.005912579,-0.011636247
368872434,368871870,-0.0022366284,-0.00021929201,0.0013733839
368893408,368892854,-0.0025830106,0.00331573,0.012169791
368914397,368913838,0.0024249433,-0.0012510773,-0.0015543513
368932378,368931825,0.0009706002,0.011971148,0.017183758
368953362,368952810,0.0036241668,-0.0031952173,-0.009990083
368974341,368973794,-0.0014021867,-0.00021691411,0.0028828091
368990839,368990290,-0.007881705,0.0031618206,0.0049633617
369011813,369011266,-0.0014209175,-0.004250427,-0.021484919
369032798,369032251,0.00012172572,0.0030426579,0.00967805
369053817,369053235,0.0021890127,-0.0046124794,-0.018651372
369071774,369071227,-0.0072711925,-0.0030043696,0.0067215655
369092753,369092206,9.920448e-06,0.007191248,0.008387765
369112245,369111692,0.005185767,-0.0036951266,-0.009543858
369131739,369131181,0.0021544076,0.007178984,0.021126853
369152716,369152162,-0.0016575526,0.0035140822,-0.013777097
369173693,369173146,0.0011617267,-0.00044481654,0.010955492
369193202,369192658,-0.0023663999,0.0018752642,-0.0040769298
369212676,369212118,0.00090453867,-0.0049615544,-0.013160687
369233674,369233109,-0.0019776905,0.0008610027,0.007473809
369251657,369251089,0.00074164383,-0.0025138468,-0.013564536
369271121,369270575,-0.0013697054,-0.00163054,0.0053974455
369292112,369291559,0.0048870435,0.0031596045,0.0050499365
369313090,369312543,-0.0019418914,-0.00378257,-0.0023917165
369334123,369333534,0.0046981815,-0.00026791263,0.014769743
369352063,369351516,-0.002148115,0.0012342868,-0.008465806
369373099,369372504,-0.0024044681,-0.0021143607,0.0064455527
369394031,369393484,-0.007957726,0.0060644518,-0.0044278535
369413541,369412997,0.0014903969,-0.0052765943,-0.0071964036
369433009,369432455,-0.001041777,-0.0020158978,0.006693746
369454002,369453444,0.001782807,-0.004539842,-0.011038696
369474978,369474424,0.008295268,-0.0024286723,0.0082932
369491489,369490939,-0.0062576015,0.007061847,0.0058305273
369512452,369511896,-0.00050792936,0.0022472106,-0.006400026
369533435,369532881,-0.0016155536,0.0002665514,0.0071693966
369552927,369552366,-0.0003947313,-4.137517e-05,-0.0060001486
369572483,369571858,0.005556315,-0.0066674547,0.0043344474
369593392,369592836,-0.013534686,0.0044894707,0.0022077875
369614368,369613821,0.012708332,-0.0055344165,-0.0068569593
369632362,369631815,-0.0052305697,0.0045485036,0.005147824
369653338,369652792,-0.002659772,0.0018064488,-0.008144686
369674370,369673781,0.013241703,0.0026506698,0.005586408
369692310,369691763,-0.011275159,0.0019257077,0.006282175
369711795,369711249,0.0101966355,0.00024093117,-0.0065018153
369732779,369732233,-0.004802003,0.00011085975,0.0061891647
369753764,369753217,-0.0012191045,0.0015270956,-0.0051206322
369771790,369771243,0.012833318,0.00205186,0.0021185745
369792774,369792230,-0.01627837,0.0046506226,0.0019705358
369813760,369813181,0.013455803,-0.010073527,-0.0039160457
369831713,369831160,-0.008369307,0.0010252419,0.004756579
369852745,369852144,-0.0005763555,-0.0013562117,-0.0070004095
369872177,369871630,0.004716214,-0.0016722528,0.0041491045
369891684,369891119,-0.011923343,0.009403927,0.003592575
369912658,369912100,0.015980892,-0.005306826,-0.0019319141
369933642,369933085,-0.007598432,-0.008655707,0.008865578
369954616,369954069,0.0014868611,0.0075086392,-0.008831073
369971104,369970557,0.012295491,-0.005385941,0.0037128003
369992119,369991542,-0.021290481,0.008621591,-0.0013708035
370011574,370011027,0.012004072,-0.0030434197,-0.006506868
370034057,370033511,-0.0053948453,-0.01252594,0.004460852
370052052,370051492,0.009229842,0.007953589,-0.007921314
370073028,370072482,0.003273175,0.0003240622,0.005872395
370091015,370090468,-0.008978609,0.009383401,0.0020481288
370112009,370111453,0.0039317785,-0.004741399,0.0022308475
370132994,370132437,-0.005682353,-0.0031117345,0.0061795074
370153969,370153422,0.009374176,0.005662943,-0.0067599085
370174977,370174420,-0.0058206255,-0.008643347,0.0056331707
370191457,370190913,-0.0011769235,0.0008277501,-0.0049765958
370212433,370211878,-0.0031767208,-0.0012098921,-0.0034456993
370231921,370231364,-0.0018304959,-0.0053521628,0.002137345
370251424,370250855,0.0022794064,0.010106482,-0.0075041554
370272406,370271834,-0.0034467736,-0.0028992216,0.008797872
370293368,370292819,0.0052877204,0.0018964019,-0.0011984296
370311367,370310809,0.000479938,0.004425003,0.0060340744
370332395,370331788,0.0012436407,-0.007387109,0.0042037107
370353332,370352774,0.0011827173,0.0008319812,-0.00062093744
370371309,370370763,-0.008954691,0.0035027056,0.0024925126
370390853,370390260,0.0047627217,-0.0053147296,-0.00906436
370411784,370411232,-0.0033346917,-0.0032943257,0.0064978395
370432762,370432215,-0.0053820414,-0.0023980003,-0.005439352
370450749,370450202,0.0030093899,0.0040312177,-0.0036104904
370471778,370471199,0.0016239001,0.00044169906,0.00673381
370492719,370492171,0.003201894,0.012636161,-0.008414261
370513712,370513165,0.0033952957,-0.0082152095,0.016193952
370531689,370531142,-0.0025284253,-0.004523871,-0.0051666303
370552693,370552130,-0.0008067535,-0.000764403,0.0024032786
370573660,370573111,-0.0026888251,-0.009874652,0.0031518675
370591656,370591098,0.00011789054,0.0039850418,-0.011630069
370615634,370615080,0.005186115,-0.010061754,0.0132702645
370633613,370633067,-0.00582666,-0.0010909454,-0.015813714
370654598,370654051,-0.00084712915,0.004464768,0.007734922
370672596,370672038,0.005565238,-0.01245291,0.0047718845
370692142,370691524,-0.0021156813,0.014660815,-0.011918496
370713062,370712508,0.006550392,0.0015799513,0.01849743
370735545,370734999,0.003603037,-0.0009157256,-0.014031744
370753527,370752981,-0.00016886694,0.0026290682,0.0138099585
370773055,370772476,0.0024104575,-0.0022074282,-0.002239923
370794043,370793448,-0.007025181,0.003957215,-0.0055481098
370811984,370811435,0.0053197844,-0.006776376,0.01098921
370832982,370832430,-0.008526675,-0.0009909153,-0.016425436
370853960,370853404,0.0014542481,0.0021466892,0.014214164
370874943,370874394,0.0041593583,-0.009594902,-0.008483006
370891450,370890898,-0.006333426,0.0038906862,-6.491854e-05
370912438,370911867,0.010097063,-0.002456407,0.009803308
370933405,370932845,-0.010070901,0.00023107114,-0.009628028
370951393,370950832,0.012344029,-0.0027887758,0.01400847
370972373,370971817,-0.0061799674,-0.005379034,-0.011936426
370993408,370992808,-0.0037223739,0.0055323676,0.0031825942
371014338,371013792,0.0066382084,-0.0045303833,-0.0067543867
371032319,371031772,-0.0037891376,0.0010763968,-0.0073331543
371053310,371052757,0.007288018,0.00033449777,0.008198838
371072788,371072242,-0.0014199554,-0.008301853,-0.008812508
371090785,371090229,-0.002818338,0.009268839,0.007542229
371113264,371112712,0.002598242,-0.0026089957,-0.0003054
371134258,371133699,-0.0017824718,0.0005971526,0.0007740108
371155236,371154681,0.006751268,0.0026968368,0.0014059718
371171729,371171179,0.005204503,-0.010511745,-0.008754233
371192708,371192153,-0.011210723,0.008031063,0.007657347
371212186,371211639,-0.0017542061,-0.0028249924,-0.0036752285
371231671,371231125,0.0033565555,-0.0048445985,-0.00470737
371252661,371252109,0.005065889,0.0010105537,0.0058112415
371273640,371273094,-0.0016231881,0.0014129744,-0.006371198
371291653,371291086,-0.0046422826,0.007182396,0.006184793
371312637,371312065,-0.0023358958,-0.0016577103,0.00057437655
371333684,371333056,0.00922569,0.0050768303,0.00015243609
371351583,371351036,-0.0017378265,0.00026692054,0.007294367
371371080,371370528,0.005563643,-0.007459348,-0.0037793862
371392058,371391510,-0.0026290994,0.00643396,-8.969987e-05
371413038,371412491,-0.0019095521,-0.0052279662,0.0032137688
371434022,371433475,0.0012627603,0.005543828,-0.008175182
371452063,371451483,-0.0026513133,0.007963228,0.0063551585
371473053,371472453,0.005105958,-0.0074298857,-0.006488339
371493988,371493439,0.0036870013,-0.0013345499,0.004769711
371511971,371511418,-0.001756114,0.0020851118,0.013853234
371532960,371532402,-0.001043261,0.0009706842,-0.011773759
371553938,371553392,-0.0074623907,0.00151391,0.013879716
371571943,371571394,-0.0058637084,-0.014689352,-0.007913207
371591421,371590859,0.010155172,0.0006200487,-0.0061642462
371612473,371611872,-0.00414249,-0.0049162344,0.0136100035
371633419,371632858,0.004005353,0.008270349,-0.020777103
371651391,371650821,0.0013070521,0.0067251436,0.014807807
371672390,371671799,0.0021089711,-0.002770814,-0.010925771
371693331,371692784,-0.001172524,0.0048875483,0.00812054
371714315,371713768,0.008542863,-0.008781351,0.015397208
371732302,371731755,-0.0006994251,0.0032380254,-0.021921348
371753286,371752740,0.00167306,0.0024736293,0.020810073
371774304,371773724,0.006146492,-0.007431007,-0.020594053
371792269,371791712,-0.005603791,0.0013741436,0.0017827266
371813249,371812695,0.006044371,-0.014860792,0.009979368
371834226,371833679,0.0016381321,0.0045409203,-0.022281187
371855226,371854664,-0.00374775,0.009687827,0.021336982
371873197,371872651,0.00057732034,-0.0011262051,-0.017688656
371892707,371892140,-0.0035678959,0.008871288,0.010250733
371913674,371913125,0.003998165,-0.020280438,0.007840491
371931660,371931108,0.005938598,0.0010997215,-0.026069514
371952655,371952101,0.004134556,0.006168659,0.025780944
371970637,371970079,-0.0012484277,-0.0013356849,-0.023671972
371991613,371991063,-0.005421685,0.0035485665,0.011179856
372012596,372012048,0.008226536,-0.00985089,-0.0014403947
372033581,372033032,-0.0021144124,0.0046001496,-0.014358289
372054565,372054017,0.0019074166,0.00952935,0.02418323
372071107,372070532,0.00033614784,0.0018419214,-0.026110027
372092036,372091489,-0.0062666237,-0.00033667113,0.028942145
372111528,372110978,0.006334439,-0.008726985,-0.0040239785
372134005,372133458,-0.0020602075,0.007994183,-0.0047705723
372152024,372151475,0.0033103523,0.0011745836,0.026630027
372172980,372172429,0.00058470434,0.00038895407,-0.03510199
372192475,372191916,-0.010365707,0.00766226,0.030305553
372211961,372211417,0.007651146,-0.013681991,-0.019039478
372232966,372232417,0.0010436997,0.0058009215,0.006766501
372253932,372253380,0.009169714,0.004966383,0.008883363
372274910,372274354,-0.0029363083,-0.0047978703,-0.022433728
372291427,372290872,-0.00712205,0.0021705336,0.037713416
372312385,372311826,0.012247745,-0.007924571,-0.027875038
372331865,372331312,-0.008749207,0.0015254952,0.009922905
372351359,372350801,0.007912087,0.002902815,0.006839578
372372329,372371782,-0.0035829898,-0.008212924,-0.02503396
372393320,372392766,-0.0037569944,0.017608672,0.02732062
372414299,372413751,0.005664296,-0.013447825,-0.028778188
372432301,372431743,-0.0025321497,0.0038750658,0.022918392
372453280,372452722,0.010802423,0.0028992023,-0.0091681145
372474253,372473706,-0.0060851797,-0.00020252762,-0.0029934656
372492248,372491693,-0.0043485686,0.008277464,0.024098294
372513272,372512679,0.0036844895,-0.01906172,-0.027364448
372534215,372533662,-0.0071995566,0.0037925488,0.022727044
372552198,372551649,0.021423845,-0.0024233034,-0.013518761
372571702,372571159,-0.017437764,-0.0054033166,-0.0070358496
372592673,372592119,-0.004311503,0.014591241,0.013806528
372613653,372613104,0.014180802,-0.010086004,-0.017976277
372633152,372632590,-0.003739939,0.0033631534,0.026452135
372652627,372652075,0.016130453,0.001966952,-0.011686397
372673609,372673062,-0.013688122,-0.00048393558,0.0069964193
372691606,372691046,0.005157259,0.009267133,0.010126108
372712577,372712031,0.0061301934,-0.019889731,-0.019394482
372733577,372733019,-0.003049706,0.0075665237,0.015211183
372754546,372754000,-0.0053289067,-0.0007409536,-0.01489853
372772533,372771987,-0.0038838033,0.0021057618,0.001146408
372792046,372791479,-0.0042809118,0.010708355,0.00623165
372813003,372812457,0.002095311,-0.016436355,-0.005675134
372833991,372833441,0.009506491,0.008346743,0.013553338
372851989,372851435,-0.0054839035,0.0017481691,-0.0067106504
372871467,372870914,-0.0042818994,-0.003430266,-0.0010265016
372893955,372893401,-0.0044223457,0.0021516543,-0.00026447442
372911952,372911406,-0.0005742223,-0.01571384,-0.008428447
372932935,372932368,0.0018972429,0.0071566347,0.0048935525
372953932,372953359,-0.0012676609,0.008362722,-0.0028310036
372974893,372974337,0.010933006,0.0005205213,0.00039370998
372992873,372992324,-0.0052858633,0.0060001435,0.008666883
373012397,373011825,0.004244047,-0.011991303,-0.001796277
373033347,373032794,0.0025621504,0.0026610815,0.011037559
373051337,373050781,0.0046502026,-0.00082122267,0.0012598999
373072325,373071765,-0.00014426559,0.0010037922,-0.011090344
373091806,373091251,-0.008948196,0.004737379,0.00629191
373114288,373113742,0.0043085287,-0.016302284,-0.015313018
373132293,373131747,0.0036665937,0.00651102,0.00882215
373153260,373152705,-0.0023905933,-0.007037219,-0.001695982
373172745,373172191,0.0037852738,0.003563263,-0.008400331
373192248,373191681,-0.006840027,0.010653688,0.016901359
373213222,373212661,0.009136813,-0.010834124,-0.016356459
373234210,373233645,0.00019999687,0.008738627,0.025348583
373255194,373254630,-0.0065951524,-0.00071846286,-0.014054814
373271691,373271146,0.009554034,-0.0028667557,-0.014250478
373292649,373292103,-0.011987409,0.01325912,0.014212385
373310636,373310089,0.002259443,-0.013086725,-0.027352506
373331622,373331075,0.00027603097,-0.004408593,0.0298103
373352621,373352059,0.0031094435,-0.009614902,-0.015616549
373373589,373373043,0.00038794894,0.00033245084,0.0053867726
373393081,373392528,0.002007593,0.008174915,0.017449375
373412577,373412023,-0.00030965963,-0.0053817825,-0.026978714
373433552,373432999,-0.005948388,0.0058092293,0.038426753
373451531,373450985,0.00025581103,-0.0051719174,-0.024760287
373471048,373470471,0.001437787,-0.0018946349,1.3303012e-05
373492003,373491455,0.0015721107,0.0013744138,0.0067684418
373512987,373512440,0.0008467715,-0.002259892,-0.028634848
373532475,373531926,-0.005847086,0.0066112955,0.03163151
373551995,373551425,-0.0003542751,0.0010399668,-0.028832642
373572980,373572404,-0.010273162,0.0028860183,0.02351669
373593938,373593388,0.01492134,-0.0098146405,-0.0035280574
373611921,373611367,-0.002860792,-0.005869783,-0.013316282
373632914,373632351,0.0014861887,0.010803038,0.02189699
373653892,373653338,-0.0029477794,0.0020229109,-0.021571143
373674874,373674320,0.00036582118,0.0043199873,0.018638419
373691448,373690838,0.012259709,-0.008694204,-0.0055410992
373712347,373711793,-0.0020571155,-0.0017271315,-0.008423312
373733324,373732777,-0.0025927443,0.008233255,0.007646623
373751311,373750764,-0.004795797,0.0060368762,-0.0099403225
373772352,373771753,0.009112964,-0.00024691713,0.009129455
373793280,373792733,-0.006098658,-0.00016494293,0.000380471
373811284,373810720,-0.005683763,-0.0026028238,0.0013727087
373832257,373831711,0.0066193575,0.00070524635,-0.0011813454
373853241,373852694,-0.008173529,-0.0046535246,0.008099388
373874256,373873673,0.012485454,0.0058515584,-0.0097931465
373892219,373891664,-0.0074958475,0.008224148,0.0038144153
373913209,373912645,-0.0042824205,-0.010734903,-0.0049351547
373934187,373933629,0.011319205,-0.00731989,-0.0023816503
373955178,373954614,-0.01688379,-0.00086711324,0.011746732
373971724,373971142,0.013855796,0.0031002008,-0.02056801
373992633,373992086,-0.008664734,0.013645734,0.020608068
374013617,374013071,0.010700942,-0.0046674823,-0.014167038
374031605,374031058,0.005911165,-0.010940346,-0.001066258
374052609,374052059,-0.007923105,0.0034079116,0.013748995
374072075,374071528,0.004013486,0.00558877,-0.028238382
374094591,374094025,-0.005354423,0.0032033373,0.026413273
374112562,374112004,0.009761573,-0.009602904,-0.021534953
374133529,374132982,-0.0015379284,0.0065656537,0.009586394
374154522,374153972,-0.010471359,-0.0019447913,0.0037937863
374171005,374170455,0.012189496,0.0042025633,-0.030199848
374191986,374191439,-0.010854298,0.007663455,0.03151183
374211474,374210925,0.015472462,-0.009189119,-0.026178587
374233958,374233408,-0.008733053,0.00025636493,0.023049466
374251962,374251408,-0.005044113,0.0014222662,0.010796951
374274435,374273879,0.0056166966,-0.0010251261,-0.015825987
374292420,374291866,-0.004935598,0.01062797,0.034032304
374311917,374311351,0.009773407,-0.0021548374,-0.035373624
374332933,374332335,-0.005013548,-0.00073729246,0.022841346
374353867,374353320,-0.0057739224,-0.006336998,-0.008593359
374374858,374374304,0.0016650413,-0.010890627,-0.005251255
374392834,374392287,-0.011637833,0.008017099,0.028495606
374412330,374411777,0.013890887,-0.00019010634,-0.038877953
374431809,374431262,-0.011937238,-0.0046379506,0.030062642
374451301,374450748,0.0035114824,-0.0008764778,-0.0062578935
374472348,374471738,0.001941511,-0.011553251,-0.0039627585
374493264,374492717,-0.0055257734,0.003797956,0.025545504
374511250,374510704,0.0042456384,-0.0002327552,-0.036194976
374530763,374530196,-0.0017683161,0.0046781516,0.02904522
374553220,374552673,0.005660295,0.0042655077,-0.025905821
374574208,374573657,-0.0034838216,-0.008284127,0.0130196195
374593699,374593152,-0.0017151544,-0.00400868,0.013464263
374613192,374612629,-0.001947009,0.0034533443,-0.02790393
374634173,374633614,-0.0014143987,0.0048687123,0.03710988
374652176,374651613,-0.0016101645,0.006276737,-0.025795761
374671678,374671103,0.0018300763,-0.010432928,0.009402323
374692644,374692082,-0.0056959856,-0.0033943797,-0.00022996124
374713602,374713055,0.004932154,0.0059641274,-0.01760244
374733106,374732547,0.0073800664,0.00595811,0.028009355
374752593,374752030,-0.009285392,0.007251947,-0.03049054
374773597,374773011,0.0014698021,-0.0045589204,0.033116583
374794542,374793995,-0.007318531,0.0044385297,-0.029531889
374814028,374813481,0.00064361235,-0.008123833,0.02405839
374833539,374832980,-0.004316602,-0.0031002283,-0.0064329216
374854505,374853951,-0.0053951964,0.0012818498,0.0031446486
374872485,374871938,0.008224919,-0.006099444,0.014619262
374892049,374891428,-0.0036588963,0.015606098,-0.020979583
374912955,374912408,0.007534801,-0.010458317,0.021263253
374935453,374934892,-0.0021422692,0.015466629,-0.01772945
374951979,374951389,0.011186207,-0.012027103,0.040951885
374972970,374972364,-0.0017694281,-0.0016250415,-0.03051753
374993947,374993348,0.0049148584,-0.009630206,0.03235873
375011887,375011336,-0.00047848094,-0.008817313,-0.036609314
375032872,375032320,0.012406794,-0.007637358,0.03591381
375053857,375053304,-0.0017533721,0.0070637832,-0.027782802
375071872,375071291,0.012018666,-0.0040001795,0.028653245
375091362,375090818,-0.0057662893,0.009187378,-0.027290018
375112326,375111774,0.014612062,-0.0031249346,0.001210751
375134793,375134247,-0.018000714,0.019879673,0.023445997
375151279,375150733,0.004848259,-0.013064857,-0.0149251055
375172264,375171717,-0.015211702,0.01580658,0.032923955
375193299,375192707,0.00819796,-0.024283186,-0.036897503
375214240,375213687,0.007628202,0.014744203,0.016823802
375232220,375231667,0.005672345,-0.0063176346,-0.017346017
375253224,375252669,0.012423249,-0.0054880385,-0.006942386
375271202,375270644,-0.011974035,0.027452018,0.026868017
375292217,375291634,0.0048120064,-0.061001956,-0.02927014
375313179,375312613,-0.005649627,0.039239973,0.019829752
375334165,375333603,0.0041346285,0.0051980377,0.0050039208
375355151,375354583,0.0041814907,-0.047867123,-0.0043979557
375371636,375371092,-0.019048205,0.024296839,0.009609529
375392602,375392055,0.030610792,-0.025475368,-0.013117859
375412087,375411541,-0.0034424756,0.019033823,-0.005832958
375431573,375431026,-0.009969613,0.007970951,0.0036483954
375452576,375452022,0.02212625,-0.020589212,0.014262631
375473542,375472995,-0.0036843931,0.0045046126,-0.0030951288
375493028,375492481,-0.0025178138,0.0031201043,-0.010271573
375512513,375511967,-0.0077228034,-0.0055966466,0.012907273
375533500,375532951,0.01917485,-0.026937358,0.015576231
375554482,375553936,-0.0025877338,0.021392021,0.00096433156
375570983,375570424,0.009410977,0.017531907,0.009043278
375591955,375591409,0.00781083,0.004726569,0.02447683
375612942,375612395,0.013981786,-0.0083534075,0.013966421
375633932,375633386,-0.00776141,0.024298191,0.004636243
375651973,375651414,0.008709652,0.015409459,-0.0061683906
375672904,375672349,0.008440053,0.0014568118,0.0009467936
375693887,375693333,0.014865138,-0.02028751,0.002547536
375713393,375712830,-0.010510605,-0.013824925,-0.0020541535
375732894,375732305,-0.023208695,0.0013147765,-0.003337076
375753836,375753289,-0.016807498,0.0025738294,-0.005984839
375771834,375771276,0.012889275,-0.013328606,0.003203284
375791433,375790827,0.009459595,-0.033694316,0.0015206006
375812304,375811755,-0.024226956,-0.03095338,0.0050453227
375833286,375832731,-0.039605103,-0.010431936,0.007819268
375852777,375852217,-0.051485226,-0.006826059,0.007583661
375872299,375871712,-0.025237191,-0.0025865193,0.0038099037
375893261,375892704,-0.0076770983,-0.025189169,-0.007822061
375914225,375913679,0.0053877207,-0.02334701,-0.013341442
375932210,375931662,0.019077173,-0.05663353,-0.008211865
375951696,375951144,0.016249422,-0.07100653,-0.0046491325
375974201,375973634,0.007799527,-0.084085725,-0.0025708487
375992176,375991614,0.0017399262,-0.102960885,0.0018209191
376013153,376012599,0.0088359285,-0.090877496,-0.0049994253
376034141,376033583,0.013833479,-0.09035505,-0.006979443
376055120,376054568,0.010842234,-0.06704681,-0.0071222307
376071621,376071077,-0.036819555,-0.066153124,-0.0063450476
376092633,376092044,-0.040616546,-0.056825634,-0.007938067
376113572,376113025,-0.033616375,-0.021784887,-0.0081880335
376131566,376131013,-0.034472913,-0.029981013,-0.012431025
376152556,376151996,-0.027902363,-0.040117294,-0.0064212848
376172035,376171482,-0.031257037,-0.041845255,-0.005114354
376194547,376193972,-0.007928606,-0.022567261,0.0050363764
376212514,376211970,-0.012113446,-0.0115539,0.00068261765
376233484,376232937,0.004152797,-0.020363426,0.00015348603
376254490,376253942,0.043566156,-0.03108923,0.0021331273
376270975,376270409,0.023181485,0.015353372,-0.023251193
376291976,376291397,0.045215316,0.029167093,-0.031218087
376311444,376310880,0.046755716,0.04269556,-0.03638628
376333955,376333363,0.052431703,0.03207298,-0.027971832
376351915,376351357,0.07666699,0.036034,-0.027235348
376372881,376372334,0.077649966,0.029556425,-0.020004215
376392367,376391820,0.088263765,0.043066546,-0.019948237
376411885,376411305,0.09405246,0.02212169,-0.013817754
376432850,376432290,0.074467,0.028539171,-0.008462652
376453833,376453280,0.054696638,0.020267637,-0.009308065
376474813,376474259,0.01776665,0.007536616,-0.005791081
376491322,376490778,-0.049657844,0.0017090715,-0.003317753
376512294,376511742,-0.06565881,0.0002921878,-0.0024324444
376531764,376531218,-0.08421756,0.04031014,-0.005010465
376551253,376550704,-0.07038919,0.068476215,-0.01048505
376572235,376571688,-0.06053018,0.06031013,-0.020190312
376593219,376592672,-0.054774348,0.044509254,-0.01648348
376612712,376612158,-0.016692713,-0.006626174,-0.020685151
376632222,376631655,0.029088225,-0.06108205,-0.0075066076
376653175,376652629,0.03750647,-0.091359094,-0.0018026487
376674160,376673613,0.05592088,-0.10883846,0.0065431003
376693674,376693127,0.054897103,-0.123160236,0.01196981
376713140,376712588,0.03806734,-0.10074316,0.019820945
376734115,376733569,0.02594209,-0.08436517,0.011706909
376750611,376750057,-0.017820109,-0.041051164,-0.0040511903
376771640,376771063,-0.017924074,-0.038205024,0.0007538083
376792632,376792029,-0.025390293,-0.033361834,0.005836776
376813563,376813010,-0.031980105,-0.014582102,0.0013548423
376833054,376832500,0.0016966932,-0.0010991722,-0.0063437773
376852534,376851982,0.04531367,-0.00092799746,-0.011235734
376873519,376872970,0.049983192,-0.00014709379,-0.011708213
376896051,376895507,0.044255216,0.006938883,-0.010072767
376913983,376913437,0.052057873,-0.034680124,-0.0043286607
376933469,376932922,0.037358433,-0.025505215,0.0055838875
376954460,376953907,0.036468174,-0.023154678,0.007487634
376970959,376970405,0.014582325,0.030624917,0.009255797
376991939,376991388,0.04101514,0.02776316,-0.0031732363
377012923,377012365,0.04589705,0.037149858,-0.0034669978
377035416,377034855,0.044401895,0.043045547,-0.006552436
377053390,377052835,0.07275688,0.022811094,0.0013050606
377072917,377072322,0.07732473,-0.013880548,0.008219104
377093859,377093310,0.08465513,-0.025835356,0.011677671
377111841,377111292,0.08072776,-0.040863957,0.01286632
377132829,377132276,0.056682132,-0.029256037,0.011374071
377153817,377153263,0.042045847,-0.020121053,0.0050661163
377174831,377174245,0.02249518,-0.01980739,-0.00026821648
377192782,377192232,-0.0021245698,-0.0071270345,-0.011421785
377213763,377213217,-0.00415139,-0.008299076,-0.010211198
377234748,377234202,0.001519654,0.00066697446,0.001339435
377251250,377250690,0.036420055,0.013031504,0.008670276
377272235,377271674,0.04111072,0.018035261,0.007039264
377291719,377291171,0.03656248,0.01896696,0.005688105
377314193,377313643,0.028664906,0.02599034,0.004515057
377332256,377331657,-0.03459241,-0.0011706846,0.01145249
377353165,377352615,-0.04929812,5.2271294e-05,0.010722024
377372654,377372101,-0.067383826,0.03125229,0.0010245233
377392185,377391586,-0.07623529,0.04727646,-0.004581307
377413130,377412571,-0.068931185,0.05053989,-0.012721819
377434111,377433555,-0.06830868,0.058455475,-0.013035464
377455101,377454540,-0.060308382,0.04812776,-0.017907126
377471589,377471043,-0.011726307,-0.01303657,-0.00013973028
377492559,377492012,0.010649884,-0.02809947,0.008720275
377513543,377512997,0.044721726,-0.05373806,0.01694232
377531531,377530984,0.05592384,-0.060096,0.02521801
377552524,377551969,0.047637053,-0.0507235,0.027623441
377573500,377572953,0.04197433,-0.040686704,0.032826506
377591486,377590940,-0.005333491,-0.004957552,0.010608333
377612505,377611930,-0.014737895,0.004115337,0.007684105
377633467,377632909,-0.016694702,0.008427015,0.00449499
377651465,377650896,-0.008363716,0.020229392,-0.0043086438
377670937,377670390,0.0097739985,0.0076267417,0.0025225803
377691927,377691380,0.0061430437,-0.0017217256,0.00212881
377712913,377712358,0.0019434756,0.0038218037,-0.0013329678
377733910,377733358,-0.0006978866,0.009248802,-0.0015963926
377751927,377751348,0.030863194,0.0027283472,0.0040749013
377772900,377772313,0.011157412,0.008868994,-0.0024293603
377793839,377793292,-0.009589499,0.0016639197,-0.0035850967
377811843,377811285,-0.035148308,-0.008875814,-0.00046486873
377832817,377832263,-0.04228064,-0.00698898,3.3399556e-05
377853803,377853248,-0.04084435,-0.014343757,-0.0021934411
377871781,377871234,-0.048646633,0.009949047,0.007204164
377891344,377890776,-0.06243233,0.026943672,0.012579214
377913750,377913204,-0.06925846,0.020928832,0.009289201
377934739,377934188,-0.08070288,0.027665978,0.010223633
377952729,377952175,-0.050361905,0.045043524,-0.004254852
377972222,377971661,-0.038553618,0.040194664,-0.0054312134
377993204,377992646,-0.036056466,0.022600474,-0.0057823556
378014178,378013630,-0.03743354,0.014676926,-0.009382585
378032177,378031630,-0.044750623,-0.013816601,-0.0030265558
378051657,378051103,-0.034404665,-0.039046016,0.0015154082
378074170,378073586,-0.027313048,-0.024562,-0.0072521116
378092120,378091573,-0.025083115,-0.050115723,0.0073518753
378113112,378112558,-0.020203505,-0.05149032,0.010136783
378134092,378133542,-0.019274166,-0.0477581,0.0063704127
378155086,378154528,-0.01593544,-0.047095608,0.005411148
378173063,378172514,-0.03991272,-0.026507521,-0.004584586
378192548,378192000,-0.070234634,-0.004350479,-0.013872283
378213559,378212990,-0.07628086,-0.0052124797,-0.012950354
378231522,378230971,-0.06728179,0.00042251695,-0.018235667
378252514,378251956,-0.056766592,0.015127557,-0.013764327
378272005,378271452,-0.04205904,0.045945898,-0.014001323
378294505,378293933,-0.064581156,0.052638337,-0.0155964345
378312485,378311916,-0.019534882,0.07455587,-0.01828206
378333461,378332913,-0.025501499,0.081928015,-0.022492243
378354463,378353912,-0.027516833,0.07320847,-0.025310386
378370931,378370369,0.007896625,0.017156946,-0.0066416617
378391910,378391356,0.01234222,0.0047895303,-6.5641943e-06
378412911,378412342,0.016294964,-0.012425889,0.0047972426
378433869,378433323,0.021162262,-0.018541142,0.011782598
378451859,378451309,-0.025130397,-0.015242481,0.013827846
378472841,378472294,-0.03177271,-0.01683749,0.014044872
378490828,378490281,-0.081664465,0.012508644,-0.009190623
378511830,378511272,-0.07241264,0.011005101,-0.010617414
378532817,378532250,-0.05315745,0.016365848,-0.012920836
378553782,378553235,-0.031287573,0.008894899,-0.015283924
378574774,378574220,-0.015125746,0.0027504112,-0.013245374
378651235,378650669,0.053483587,0.036402732,-0.008448001
378672197,378671649,0.049324315,0.017384717,-0.0042848894
378693188,378692638,0.047564138,0.011507716,0.0015188751
378714164,378713617,0.043293703,0.0050276173,0.00797419
378732167,378731611,0.042545337,0.009289402,0.014035979
378753136,378752589,0.022775235,0.011140877,0.014494305
378774121,378773574,0.0037757084,0.016670933,0.01273451
378792107,378791560,-0.054737072,0.03406003,-0.005688498
378813117,378812552,-0.064504795,0.028268414,-0.006469125
378834077,378833530,-0.06522177,0.022956619,-0.008526544
378855067,378854515,-0.055013552,0.012309498,-0.0062987637
378871572,378871023,-0.029062662,0.013630898,0.0034424462
378892589,378891991,-0.03024365,0.017138222,0.00032955583
378913524,378912972,-0.03777705,0.02911486,-0.0035721476
378931520,378930962,-0.026696488,0.015912877,-0.012203586
378952529,378951945,-0.02840202,0.012793871,-0.018816225
378973551,378972932,-0.029327225,0.016126033,-0.012776751
378991465,378990915,-0.01683516,-0.021588475,-0.0053150374
379012458,379011900,-0.009184834,-0.031699043,0.002622062
379033439,379032884,0.0077812057,-0.030148964,-7.2861556e-05
379054426,379053869,0.019100035,-0.014416089,0.0012045192
379072425,379071860,-0.009287901,0.030915443,-0.008243704
379091930,379091347,-0.030229967,0.045695312,-0.015304507
379112874,379112326,-0.03346923,0.034297038,-0.014190991
379135364,379134817,-0.038265184,0.013366842,-0.014027079
379153343,379152797,0.002092938,0.04002738,-0.008366149
379172885,379172287,0.02408133,0.030304063,0.0063514295
379193814,379193267,0.025423082,0.02959961,0.0054325536
379211803,379211254,0.023549981,0.024180047,0.00252042
379232798,379232238,0.020441439,0.031783182,0.0021219398
379253775,379253223,0.02363507,0.039133877,-0.002604876
379271811,379271213,0.026372015,-0.00035424472,0.008156554
379292741,379292195,0.0228615,-0.02216139,0.010604775
379313736,379313179,0.036693092,-0.04183915,0.01560533
379334714,379334164,0.036310565,-0.032322917,0.022397911
379351199,379350652,-0.04481878,0.011999752,0.015147115
379372192,379371638,-0.043348726,0.022266777,0.012656844
379391674,379391123,-0.05164353,0.022149028,0.00015611155
379414152,379413606,-0.011185611,0.015405626,0.011698669
379432149,379431593,-0.039470285,0.030717524,9.626965e-05
379453124,379452577,-0.016299188,0.013022604,0.0039559063
379472612,379472063,-0.012768485,0.0015260914,0.0032244828
379492108,379491549,-0.01641731,-0.013677786,0.003511143
379513091,379512534,-0.025290495,-0.029059192,0.0026310575
379534071,379533518,-0.027607495,-0.032770656,0.00082920946
379555057,379554503,-0.03719173,-0.014508209,-0.0014982997
379571551,379571004,0.0075876997,0.0076753,-0.010231355
379592534,379591984,-0.009308176,0.030619135,-0.013774475
379613509,379612961,-0.017864715,0.032760546,-0.012868653
379631511,379630953,-0.020447155,0.001334461,-0.009922645
379652485,379651932,-0.03297147,0.01257562,-0.005601373
379673471,379672916,-0.035607226,0.028636666,-0.007399016
379691454,379690903,-0.046612944,0.08726117,-0.0005590706
379712445,379711888,-0.055390827,0.093490325,-0.011305117
379733439,379732872,-0.04729378,0.08515604,-0.016780555
379751418,379750860,-0.013929397,0.029042423,-0.006202027
379770949,379770358,0.0074413233,-0.009089157,0.0076297675
379791916,379791358,0.026796658,-0.013521989,0.011543044
379812868,379812322,0.037668414,-0.0052067516,0.014447551
379833857,379833299,0.043601505,-0.016449284,0.01731221
379851859,379851287,0.000533842,-0.014595116,0.003282127
379872849,379872271,-0.027483,-0.015319925,0.0014928905
379893802,379893256,-0.03642963,-0.021206822,-5.3040218e-05
379913312,379912768,-0.03932716,-0.026388183,-0.0041451985
379932798,379932233,-0.028684167,-0.018641625,-0.0031715173
379953758,379953212,-0.03783512,-0.012549293,-0.0041002864
379971745,379971199,-0.018938586,-0.0015169313,-0.007652117
379992732,379992183,-0.019871488,0.015712634,-0.0047401004
380013722,380013168,-0.02528937,0.014043984,-0.0065654684
380034718,380034155,-0.03185247,0.009427048,-0.0054960046
380052695,380052147,0.00086179096,-0.011596688,-0.00048341136
380072214,380071625,0.028106576,-0.04102338,0.011348609
380093160,380092610,0.045889363,-0.05042478,0.015733602
380115669,380115116,0.040505476,-0.056237616,0.016694197
380133642,380133081,0.033512656,-0.048292506,0.016917061
380151614,380151068,-0.020697393,-0.023776714,0.012822982
380174141,380173583,-0.0044709807,-0.027681287,0.012028599
380192085,380191538,-0.054883793,-0.0033684485,0.004822755
380213075,380212523,-0.05040434,-0.0030023044,0.0028421055
380234054,380233507,-0.0496832,-0.014599179,0.0033315204
380255046,380254492,-0.034365766,-0.02370227,0.0024580185
380271529,380270983,-0.017653214,-0.020216888,0.013951462
380292559,380291968,-0.004240644,-0.0055610333,0.017249595
380313496,380312949,0.006345667,-0.011417334,0.016805453
380331496,380330937,0.027924312,-0.010100667,0.011297357
380352473,380351921,0.039138727,0.0006526236,0.015871186
380371962,380371410,0.051040627,0.012223676,0.012998936
380394459,380393890,0.054323576,0.012858603,0.0052010175
380412459,380411911,0.06813013,0.022701623,0.003236351
380433424,380432862,0.06515639,0.017576724,-0.0051877475
380454411,380453847,0.044747557,0.028601984,-0.0062608356
380470881,380470335,0.031056177,-0.014906766,-0.0011805643
380491871,380491319,0.03177487,-0.014722772,-0.00044428138
380512870,380512310,0.03838007,-0.008800698,-0.00029464066
380533835,380533289,0.0429209,-0.009219065,0.0030469596
380551827,380551281,0.018521767,-0.024503337,0.016159493
380572807,380572260,0.01689992,-0.02119488,0.014609037
380592292,380591746,-0.0045073726,-0.012541158,0.019017901
380611786,380611232,-0.005739858,0.01056541,0.01456637
380632777,380632218,0.008149401,0.009233785,0.0116136875
380653748,380653201,0.017232096,0.010049646,0.0079930825
380671742,380671188,-0.008822704,0.031006953,0.00039753842
380692754,380692179,0.009790765,0.020168936,-0.002357206
380713715,380713157,0.028635867,0.010851565,-0.008520757
380731699,380731150,0.011744317,0.005686742,-0.007650663
380751194,380750637,0.020249084,0.01433803,-0.014166518
380772173,380771615,0.030018726,0.022298506,-0.010544089
380793146,380792599,0.024817707,0.041250028,-0.016536685
380812635,380812089,0.027864754,0.02822977,-0.019674633
380832122,380831571,0.036311485,0.01468735,-0.013624959
380853116,380852556,0.03703342,-0.0063187815,-0.009952196
380874097,380873544,0.04337099,-0.014840359,-0.0032808934
380892074,380891527,0.04159701,0.02989147,0.00030567963
380913070,380912512,0.040489923,0.05183135,0.008934073
380934044,380933497,0.04124262,0.058605157,0.0040515317
380950558,380949991,0.02220243,0.08375838,-0.017088307
380971520,380970968,0.020366767,0.071861565,-0.014999695
380992533,380991969,0.03293928,0.04898432,-0.019122723
381013486,381012939,0.044805624,0.02758192,-0.023938753
381032981,381032425,0.07668339,-0.0062846527,-0.01911349
381052522,381051911,0.087583795,-0.004002418,-0.0129106045
381073461,381072895,0.072944835,-0.010876159,-0.01178772
381091437,381090883,0.07013836,-0.009943734,-0.0009951124
381112427,381111867,0.037514288,-0.0119730495,-0.004169433
381133411,381132852,0.019121807,-0.024664233,-0.0073008775
381154398,381153836,0.0022108345,-0.03222252,-0.007461455
381172391,381171824,-0.01499209,-0.06089208,-0.0030903965
381191899,381191309,-0.011240907,-0.043847926,-9.670854e-06
381212848,381212294,-0.015955655,-0.018755024,0.0064862296
381233825,381233279,-0.01838367,0.009943517,0.009591889
381253334,381252765,-0.045600202,0.06303562,-0.0005827893
381271304,381270751,-0.05500732,0.038281165,-0.0149163455
381293784,381293235,-0.04355659,0.03434618,-0.011720092
381311780,381311222,-0.0019761478,-0.04140005,-0.00951268
381332790,381332207,0.027048945,-0.06054024,-0.0050793113
381352239,381351693,0.031083094,-0.04854698,0.008863208
381371725,381371178,0.028648727,-0.02182046,-0.0053777248
381392712,381392163,0.028463839,-0.020871209,-0.01534358
381413712,381413148,0.04201988,-0.024575986,-0.01659833
381434690,381434132,0.053748813,-0.03388397,-0.009021368
381451167,381450621,0.059619106,-0.0055133295,0.0031458456
381472157,381471605,0.04026175,-0.0013476235,-0.0023627612
381493137,381492590,0.008946549,-0.0023335326,-0.0062228166
381514121,381513575,-0.00847017,-0.009949518,-0.0014020703
381532108,381531562,-0.024855383,-0.012107351,0.0016693537
381553108,381552553,-0.043737013,0.0213389,0.0025932775
381572581,381572032,-0.054875948,0.07402802,-0.0064322925
381592105,381591522,-0.03965658,0.082636096,-0.008292828
381613069,381612503,-0.024757532,0.06394522,-0.0042167483
381634034,381633488,-0.0053509017,0.03048856,0.00070283434
381655026,381654480,0.0024691336,-0.0068832086,0.0032986205
381671504,381670958,0.04557284,-0.04436187,0.031098574
381692493,381691945,0.051085256,-0.06207801,0.026375627
381711985,381711437,0.040664546,-0.064804494,0.03307583
381731485,381730923,0.02239606,-0.055489603,0.026039122
381752463,381751904,0.021641212,-0.066877924,0.019803075
381773441,381772886,0.016541451,-0.06841158,0.018305093
381792927,381792379,0.000113875605,-0.0575762,0.010605631
381812433,381811866,-0.006059958,-0.06793944,0.005520286
381833400,381832843,-0.010164145,-0.06799569,0.0093786735
381851384,381850830,-0.0039979923,-0.03091291,0.008726828
381870869,381870322,0.00052754395,-0.023637319,0.00974278
381891859,381891300,-0.012266884,-0.008609722,0.004296321
381912842,381912285,-0.031011302,0.0043981373,0.001825622
381930830,381930272,-0.04170495,-0.019132046,0.0006779224
381951861,381951277,-0.048593625,-0.030260012,-0.0012131159
381972837,381972255,-0.053831037,-0.044045478,0.0007057054
381993780,381993226,-0.044962708,-0.048440102,0.0048563527
382013273,382012728,-0.030281862,-0.027360417,0.002205169
382032752,382032198,-0.033542313,0.00028916437,0.0074038524
382053743,382053189,-0.04161654,0.011737721,0.005401162
382071733,382071186,-0.025566122,0.019314913,-0.0045804093
382092714,382092154,-0.006571759,0.0065720603,-0.0033412382
382113699,382113139,0.012489386,0.0031795306,-0.0049084118
382134699,382134130,0.034666307,-0.0031697503,-2.3677712e-05
382152671,382152118,0.03677263,-0.014986886,0.020235885
382172194,382171603,0.009808189,-0.001307872,0.021579029
382193135,382192581,-7.217191e-05,0.012938493,0.018535998
382214120,382213566,-0.019168295,0.021469915,0.010457092
382232140,382231584,-0.039218634,0.0455104,-0.005288478
382253106,382252562,-0.027414184,0.053488035,-0.010057246
382274111,382273538,-0.018565245,0.05433959,-0.012458172
382292063,382291509,0.024011783,0.039136905,-0.009069537
382313052,382312494,0.014640193,0.033752304,-0.002642481
382334060,382333479,0.013635756,0.035769667,0.0032862988
382355060,382354496,0.015512267,0.032421995,0.0022176923
382371495,382370948,0.010449068,0.016455036,-0.0032741914
382392538,382391943,0.012716843,0.004077328,-0.0056014024
382413467,382412921,0.018027786,-0.0062507023,-0.005200754
382431458,382430908,0.02170586,-0.023095492,-0.004566824
382452452,382451893,0.025601206,-0.029468426,-0.0013679094
382471941,382471387,0.01119547,-0.008649956,0.0062785265
382494427,382493863,0.011903083,0.0017403637,0.002962284
382512428,382511876,-0.015427111,0.0430553,0.002389193
382533397,382532834,-0.01533767,0.046959937,-0.0019993777
382554368,382553822,-0.010948172,0.060342744,-0.0045240577
382570855,382570307,-2.732873e-05,0.028621333,-0.004601906
382593363,382592790,0.009323127,0.041598096,-0.003133607
382611324,382610777,0.023969213,0.0029008235,0.0075086243
382633811,382633261,0.02653685,0.004155098,0.0035951745
382651795,382651248,0.036314048,-0.022819258,0.013764347
382672779,382672233,0.035035655,-0.004586991,0.011717129
382692266,382691719,0.047681574,-0.006096682,0.014813578
382711794,382711204,0.04920256,-0.019988151,0.012662423
382732749,382732190,0.055299602,-0.013898656,0.011817812
382753721,382753174,0.06835407,-0.0064275153,0.0069037294
382771715,382771161,0.07515515,-0.012212646,0.013495614
382792716,382792149,0.074136205,0.0049359603,0.008620936
382813688,382813130,0.07005222,0.010978502,0.0051592696
382831679,382831122,0.0651887,0.025001738,0.00017613289
382851165,382850607,0.04373327,0.019778352,-0.0026212083
382872149,382871598,0.031308968,0.022880772,-0.005984181
382893120,382892573,0.02559015,0.014178311,-0.007555935
382912607,382912059,0.028591875,0.0030025642,-0.0065387203
382932126,382931547,0.028419482,-0.006590969,-0.0039386167
382953076,382952529,0.023669794,-0.010613388,-0.0007990091
382974061,382973514,0.0039726496,-0.008409887,-8.7401364e-05
382992057,382991501,-0.045702275,0.027675994,0.009820361
383013038,383012486,-0.060590945,0.046077162,-0.0002077131
383034038,383033473,-0.072101384,0.049105562,-0.0057916
383052011,383051458,-0.052442502,0.042133078,-0.012868243
383071544,383070943,-0.0450219,0.0137436595,-0.009799548
383092475,383091929,-0.020788351,-0.007373289,-0.0063845245
383113481,383112913,-0.0036924817,-0.010128299,-0.0013860585
383131457,383130900,-0.0014324598,-0.014321761,0.013138556
383152449,383151885,0.013100069,-0.016003406,0.008912567
383173470,383172869,0.017181415,-0.012942794,0.0038172852
383191420,383190857,-0.0018425826,-0.016918963,-0.0058863424
383212397,383211841,-0.004194582,-0.017723823,-0.009851452
383233379,383232826,-0.0012782412,-0.025465917,-0.015210934
383254358,383253811,0.005890003,-0.03845715,-0.019172704
383272352,383271806,0.039098676,-0.016450977,-0.013955336
383291871,383291284,0.03710405,0.028786063,-0.01122985
383312815,383312269,0.030603334,0.04736068,-0.012280464
383333836,383333260,0.012416689,0.0560812,-0.014193945
383351787,383351240,0.034078117,0.020726299,-0.009275146
383371284,383370736,0.05137816,-0.024367105,-0.0038230605
383393775,383393216,0.043113973,-0.021296233,-0.002549868
383413240,383412694,0.04516631,-0.026017802,0.0061371825
383432741,383432181,0.024655953,-0.013514981,0.016195195
383452221,383451666,-0.003753229,0.010123594,0.021982519
383471749,383471153,-0.043953795,0.030319234,0.008845761
383492698,383492138,-0.05802765,0.021489004,0.0038882347
383513681,383513123,-0.06045289,0.01791209,0.0029014547
383534665,383534108,-0.045830578,0.021843016,-0.0019165869
383551144,383550596,-0.0032640332,-0.009252837,-0.0061985315
383572143,383571590,0.0016841628,-0.00021930749,-0.0024859263
383591625,383591077,0.008093583,-0.0015506494,-0.0008834719
383614103,383613551,-0.002395568,0.02819772,0.0019473986
383632084,383631537,-0.0065088463,0.03528159,-0.004333102
383654569,383654021,-0.009276273,0.043855235,-0.008046937
383672555,383672008,-0.016792124,0.020060785,-0.004243781
383692058,383691494,-0.010429509,-0.0053027677,-0.005721802
383713035,383712479,-0.007201074,-0.0133335935,-0.003341676
383734010,383733463,0.0018322491,-0.0079529,0.0015637473
383755026,383754482,0.00590198,0.004658065,0.007676119
383771483,383770936,-0.010091282,0.06768707,0.001810542
383792473,383791926,-0.019418096,0.06669523,-0.0032015888
383811969,383811407,-0.0037842658,0.06999292,-0.009225421
383831465,383830896,0.04050899,0.04555417,-0.009075492
383852440,383851877,0.042402994,0.033853568,-0.008339426
383873417,383872862,0.04194037,0.019687004,-0.0076739127
383891406,383890849,0.055018168,0.011524754,0.004377553
383912391,383911834,0.053852525,0.009879546,0.0063225282
383933390,383932838,0.04375561,0.004523316,0.00978639
383954351,383953804,0.040530965,0.0073464047,0.0139692295
383970868,383970295,-0.01868098,0.002229934,0.014457301
383991835,383991277,-0.019568555,0.00025713304,0.009452289
384012832,384012261,-0.017900594,-0.017296955,0.0032716268
384030806,384030249,-0.032755602,-0.027849317,0.00076465076
384051840,384051263,-0.022966836,-0.012786444,0.0029368228
384072768,384072222,-0.019305855,0.0059210267,-0.0012894738
384093759,384093213,-0.028592754,0.03665232,-0.0040458804
384111766,384111194,-0.026032347,0.006449137,-0.010794634
384132743,384132179,-0.020845473,-0.0066684694,-0.010742818
384153724,384153166,-0.016922621,-0.030754443,-0.003806336
384171711,384171146,0.014019832,-0.06870631,0.015828524
384192690,384192131,0.018862868,-0.054649413,0.013087144
384213691,384213120,0.02672832,-0.046252035,0.017480005
384234660,384234101,0.018524867,-0.042660475,0.021850448
384252662,384252104,-0.021088138,-0.0077525936,0.014400231
384272160,384271574,-0.046980727,0.0086131245,0.0068391743
384293110,384292559,-0.038163528,-0.0005409913,0.0043090764
384314097,384313543,-0.023245346,0.00023564976,-0.0017372579
384332110,384331562,0.010681931,-0.029464966,0.007091961
384351571,384351017,0.0058480897,-0.046377093,0.003925197
384374074,384373505,0.01664003,-0.05211687,0.0040360806
384392041,384391494,0.000690958,-0.040652793,0.009263551
384413025,384412475,-0.02863808,-0.032701198,-0.0004066676
384434004,384433457,-0.04547741,-0.04342882,-0.003041616
384454999,384454449,-0.057856854,-0.028723372,-0.00826851
384472975,384472429,-0.06142764,-0.022986358,-0.009705123
384492482,384491918,-0.030712545,0.010078877,-0.00077781593
384513454,384512899,-0.017635081,0.038913906,0.0012824985
384531454,384530886,0.014245392,0.02409523,-0.0016212119
384552431,384551871,0.021843942,0.017952079,0.0005463186
384571916,384571357,0.01080547,-0.0018493165,0.008958257
384594431,384593877,0.022089712,-0.004561432,0.010668652
384613885,384613330,0.012975518,-0.021344157,0.016958546
384633367,384632812,0.006525231,-0.0032596565,0.018644769
384654351,384653797,0.009757774,-0.0033104194,0.01788919
384672402,384671795,-0.031015528,0.03819991,0.016900552
384691822,384691270,-0.042558648,0.04050436,0.0012236041
384711303,384710756,-0.04251253,0.028247034,-0.0071232636
384733796,384733240,-0.058431283,0.036126353,-0.00094029075
384751781,384751227,-0.02357595,0.01321153,-0.007492602
384774264,384773711,-0.024909502,0.0184547,-0.006392613
384790764,384790199,-0.01809906,-0.029693425,0.006138377
384811759,384811200,-0.015965575,-0.037157137,0.008228647
384832719,384832168,-0.014196746,-0.031086951,0.011638497
384853710,384853153,-0.013458785,-0.034054816,0.013045517
384871697,384871140,-0.028171973,-0.0070424997,0.007208693
384892688,384892130,-0.041142255,0.0016776205,-0.001967226
384913682,384913113,-0.04134146,-0.0017675648,-0.0063494453
384931680,384931113,-0.018422544,0.0068018255,-0.013088763
384951188,384950586,0.010128771,-0.005251406,-0.00068614027
384972120,384971568,0.027746962,-0.007267266,0.0018186981
384993099,384992552,0.022648133,0.0029682,0.0063304957
385014093,385013545,0.017201006,0.012064217,0.0094862655
385032086,385031529,0.0033649781,0.007546619,0.007205734
385053056,385052509,-0.006734045,0.011392133,0.0067249862
385074042,385073496,-0.015125645,0.002408159,0.0041384883
385092061,385091517,-0.05078741,-0.015971463,-0.0037542193
385113013,385112466,-0.06897591,-0.021044075,-0.0074623767
385134012,385133455,-0.062324934,-0.019769877,-0.005594638
385151984,385151438,-0.029801102,0.018369008,-0.010810863
385171498,385170934,-0.010628363,0.03737526,-0.008012718
385192473,385191909,-0.0035198797,0.037173003,-0.008557205
385213451,385212893,0.010996595,0.038563307,-0.011723758
385231449,385230880,0.04857509,-0.004429849,0.0007254457
385252430,385251865,0.06109851,-0.03763706,0.0021453102
385273468,385272856,0.06481498,-0.044841766,0.0056214477
385291394,385290838,0.013127895,-0.015780885,0.018763253
385312369,385311822,0.006878556,0.0012844689,0.015342922
385333361,385332810,-0.0066041946,0.02826553,0.0011331565
385354338,385353792,-0.011277167,0.029458463,-0.011062282
385370826,385370280,0.05733729,-0.034706667,-0.012551072
385391861,385391265,0.081764214,-0.050227914,-0.004313466
385412803,385412250,0.07682561,-0.043801542,0.0030458586
385433790,385433235,0.06531511,-0.021512082,0.011175748
385451768,385451222,-0.0055823587,0.005051605,0.0061222967
385472783,385472206,-0.0033382587,0.022277864,0.00065347436
385493755,385493197,0.008682268,0.021284446,-0.0057040025
385511751,385511195,0.017068699,-0.023884613,-0.004254774
385532710,385532163,0.022822743,-0.031907964,-0.0048668934
385552210,385551663,0.020013813,-0.029578831,0.0038646308
385571692,385571135,0.010469548,-0.026665434,-0.0044754054
385592691,385592120,-0.006041441,-0.023772316,-0.010300771
385613662,385613104,-0.017214388,-0.024176672,-0.015652282
385634653,385634089,-0.012829555,-0.037236534,-0.013743061
385651132,385650578,0.013693772,-0.018424582,0.007331161
385672117,385671562,0.011587167,-0.012084026,0.003121165
385691595,385691049,0.0035994514,-0.012523523,-0.006865736
385714106,385713563,-0.0062114066,0.0026532356,-0.008768488
385732069,385731521,-0.03503842,-0.019827817,-0.010769971
385754549,385754003,-0.040041797,-0.024318177,-0.009702504
385772548,385771990,-0.0507038,0.019431815,-0.0067570675
385792042,385791498,-0.049361236,0.052019756,-0.0020249502
385813014,385812461,-0.033917896,0.06168901,-0.0048181824
385833993,385833446,-0.018427134,0.060312614,-0.004821906
385854979,385854432,-0.022764813,0.05401505,-0.007237628
385871473,385870919,0.0045427303,-0.027530141,0.013363416
385892465,385891907,0.01347537,-0.032363236,0.015341432
385911942,385911396,0.0014906316,-0.04179552,0.017038783
385931457,385930892,-0.016691461,-0.05147392,0.01772551
385952426,385951861,-0.011708561,-0.06922888,0.017342145
385973404,385972845,-0.02038476,-0.050230134,0.015062605
385991398,385990836,-0.04085579,-0.03539243,-0.009812258
386012393,386011817,-0.0389952,-0.02837231,-0.008703835
386033349,386032802,-0.030744623,-0.013183474,-0.009795692
386054333,386053787,-0.020598596,-0.002138209,-0.014642503
386070850,386070281,0.008467688,-0.040519327,-0.009782705
386093313,386092759,-0.0030963994,-0.021903068,-0.010444538
386112791,386112245,0.009572355,-0.027243884,-0.004166192
386132283,386131731,0.02286777,-0.019988734,0.008425202
386151793,386151213,0.010573611,-0.0071648764,0.005348212
386172759,386172212,-0.0021095057,-0.010932109,-0.0005321668
386193756,386193212,-0.014235647,-0.0122106075,-0.002455568
386211771,386211184,-0.02682668,-0.006558424,-0.0071001695
386232709,386232158,-0.014918949,-0.012977856,-0.001237038
386253690,386253143,-0.0018680184,-0.0017009194,0.0021160322
386271697,386271134,-0.028087683,0.023565406,0.006729099
386292673,386292115,-0.026492625,0.034486692,0.004966371
386313660,386313100,-0.026959531,0.032866884,-0.0013095913
386334695,386334089,-0.0236487,0.031619433,-0.0069914823
386352621,386352075,-0.026746355,-0.013050014,-0.0049807522
386372151,386371558,-0.028469045,-0.03389335,-0.00014983164
386393089,386392543,-0.025736261,-0.04970885,0.0033803289
386415577,386415027,-0.010352608,-0.044491176,0.004537575
386432070,386431522,-0.016232578,-0.022933599,0.009947642
386451554,386451001,-0.01612585,-0.01103186,0.013423945
386474064,386473491,-0.0015787766,-0.033724926,0.018726926
386492040,386491484,-0.023414062,-0.008199402,0.010262935
386513003,386512457,-0.029870134,-0.02398943,0.013432426
386534004,386533439,-0.029939774,-0.046334974,0.014039949
386555026,386554451,-0.023393007,-0.06852032,0.016685262
386571468,386570914,-0.046351552,-0.046603955,-4.7686743e-05
386592478,386591899,-0.029775288,-0.04626247,0.007827537
386613439,386612884,-0.0048117978,-0.043844044,0.007958748
386631434,386630879,-0.016311971,-0.05073158,0.0058017904
386653925,386653368,0.03940544,-0.008718159,0.0069943164
386671896,386671342,0.030895697,-0.015603481,0.004568194
386694394,386693828,0.05904143,0.015473659,-0.0013770561
386712364,386711813,0.045877855,0.0011424094,-0.0045544235
386731857,386731299,0.045306507,0.01097862,-0.008131535
386754330,386753783,0.06466023,0.03135881,-0.015551988
386770831,386770273,0.05216922,-0.0045333505,-0.009518027
386791808,386791256,0.05633645,-0.0022895613,-0.008902076
386811293,386810743,0.048774306,0.017865742,-0.0045295395
386833801,386833257,0.061817493,0.017104115,-0.004970232
386851762,386851213,0.015212582,0.041595317,0.005277034
386872744,386872197,-0.004472903,0.05206714,0.0022045164
386890731,386890184,-0.05743674,0.08225727,-0.008827804
386911787,386911228,-0.059893373,0.06744146,-0.015545657
386932701,386932155,-0.045129627,0.046333432,-0.01859068
386953686,386953139,-0.032708827,0.018014424,-0.01899927
386973183,386972626,-0.018844541,-0.007671236,-0.009809726
386992709,386992117,-0.0043103136,-0.022851234,-0.006940063
387013654,387013096,0.0057774475,-0.017032154,-0.003020553
387031669,387031112,0.0036011785,0.009029324,-0.004362805
387051142,387050584,-0.012942899,-0.0044543194,-0.013849521
387072101,387071554,-0.0060877595,-0.014425944,-0.014366904
387093091,387092539,-0.0055816825,-0.025151026,-0.013362209
387112572,387112025,-0.004317564,-0.027932577,-0.011122863
387132065,387131515,0.0012019887,-0.014541177,-0.010447795
387153044,387152496,0.012844253,-0.009030574,-0.00598028
387175541,387174987,0.004615354,0.0087369215,-0.0010259885
387193514,387192967,-0.009575134,0.0434339,-0.011230357
387213014,387212456,0.00627027,0.04523633,-0.017078226
387233984,387233438,0.0031480764,0.034394383,-0.014482411
387251971,387251425,0.047327444,-0.01576452,-0.009387247
387271478,387270917,0.06245524,-0.031863123,0.0017646042
387292450,387291896,0.062806875,-0.030112358,-0.0003573692
387313435,387312880,0.05221563,-0.026688494,-0.0006900602
387332925,387332367,0.055042826,-0.036023255,0.011013458
387352417,387351852,0.035495378,-0.025038848,0.011258276
387373421,387372844,0.019592073,-0.017961752,0.0039150855
387391371,387390825,-0.013869498,-0.030182643,-0.00025399425
387412356,387411810,-0.011525048,-0.043455027,-0.013794769
387433341,387432794,-0.01611982,-0.053564157,-0.013650926
387454326,387453779,-0.016273549,-0.04398331,-0.0050345813
387472328,387471768,-0.011240799,0.032447785,-0.008143069
387491804,387491252,-0.014501318,0.02837613,-0.016636273
387512804,387512247,-0.017211076,0.009726701,-0.023315484
387533787,387533243,0.008079167,-0.017215513,-0.017862812
387551756,387551209,0.04743753,-0.034588188,0.0056798644
387572740,387572194,0.022348687,0.021180738,0.00938906
387593728,387593179,-0.0073619755,0.041944105,0.0050525377
387611734,387611185,-0.015369784,0.026992017,-0.02025644
387632701,387632151,-0.012887614,0.002331404,-0.013604013
387652206,387651662,-0.009466814,0.0033134706,0.00044392014
387671701,387671127,-0.01558681,0.015439629,-0.0059210677
387692678,387692118,-0.0005284315,0.012616697,-0.013287068
387713655,387713096,0.008573765,0.021796826,-0.0035838587
387734649,387734078,-0.0027015982,0.03584224,0.006919624
387751143,387750598,-0.025929883,0.011092657,-0.0073583955
387772097,387771551,-0.017242607,0.008915393,-0.01673924
387791584,387791037,-0.027626552,0.021279424,-0.0062268153
387814069,387813522,-0.02974823,0.017303176,-0.0019136919
387832057,387831508,-0.031405114,0.062299103,0.003283538
387853040,387852493,-0.019645216,0.06610562,-0.00019055
387871030,387870483,0.024931949,0.010225988,0.0072629577
387892072,387891504,0.04518244,-0.026386978,0.015563445
387912997,387912450,0.037306294,-0.03147062,0.023460282
387933982,387933435,0.02249448,-0.014504711,0.030996768
387955003,387954420,0.011823289,0.0054901564,0.028612733
387971459,387970908,-0.055028774,0.01621646,0.005511194
387992453,387991893,-0.04731109,0.004689269,0.006925321
388011935,388011389,-0.033650607,-0.004543385,0.0003046845
388031447,388030885,-0.020086056,-0.020970577,-0.0039003782
388052407,388051850,-0.014958037,-0.02070474,-0.0028645482
388073390,388072835,-0.007981725,-0.007851168,-0.0037189063
388092877,388092321,0.0037486523,0.0043773754,0.0034950557
388112361,388111807,0.016596563,0.025034208,0.0035205293
388133343,388132792,0.012421505,0.029219547,-0.0028461765
388154326,388153776,0.020200819,0.018454071,-0.0037060247
388170822,388170272,0.07120642,-0.043580674,0.0062737307
388191802,388191254,0.08392665,-0.059021756,0.011438615
388212781,388212234,0.09851718,-0.065182336,0.011538941
388232287,388231722,0.077626966,-0.039255377,0.017110381
388251760,388251212,0.034313936,0.0040878356,0.0179324
388272756,388272213,0.0047859373,0.022835977,0.011896682
388293764,388293214,-0.022325104,0.032110434,0.007169308
388311705,388311158,-0.01806929,0.03557299,-0.010501221
388332699,388332149,-0.008480911,0.028471347,-0.0044668997
388353696,388353139,-0.0017821649,0.018371306,-0.002689887
388371687,388371121,0.021696717,0.018572874,0.0060345894
388392705,388392106,0.033692278,0.039573524,0.009507465
388413663,388413094,0.033395477,0.04280229,0.0021661476
388434641,388434075,0.020737845,0.029046921,-0.00618447
