timestamp,timestamp_sample,control[0],control[1],control[2],control[3],control[4],control[5],control[6],control[7]
368055110,0,0.0,-0.0,0.99512196,0.0,0.0,0.0,0.0,0.0
368249908,0,0.0,-0.0,0.997561,0.0,0.0,0.0,0.0,0.0
368269173,0,0.0,-0.0,0.99268293,0.0,0.0,0.0,0.0,0.0
368291535,0,0.0,-0.0,0.9780488,0.0,0.0,0.0,0.0,0.0
368466469,0,0.0,-0.0,0.96829265,0.0,0.0,0.0,0.0,0.0
368552411,0,0.0,-0.0,0.30243903,0.0,0.0,0.0,0.0,0.0
368596363,0,0.0,-0.0,0.0,0.0,0.0,0.0,0.0,0.0
368897170,0,0.0,-0.0,0.0,0.0,0.0,0.0,0.0,0.0
369198975,0,0.0,-0.0,0.0,0.0,0.0,0.0,0.0,0.0
369501245,0,0.0,-0.0,0.0,0.0,0.0,0.0,0.0,0.0
369802057,0,0.0,-0.0,0.0,0.0,0.0,0.0,0.0,0.0
370121358,0,0.0,-0.0,0.0,0.0,0.0,0.0,0.0,0.0
370430271,0,0.0,-0.0,0.0,0.0,0.0,0.0,0.0,0.0
370746795,0,0.0,-0.0,0.0,0.0,0.0,0.0,0.0,0.0
371046818,0,0.0,-0.0,0.0,0.0,0.0,0.0,0.0,0.0
371367307,0,0.0,-0.0,0.0,0.0,0.0,0.0,0.0,0.0
371689656,0,0.0,-0.0,0.0,0.0,0.0,0.0,0.0,0.0
371990386,0,0.0,-0.0,0.0,0.0,0.0,0.0,0.0,0.0
372075178,0,0.0,-0.0,0.0,0.0,0.0,0.0,0.0,0.0
372095703,0,0.0,-0.0,0.0,0.0,0.0,0.0,0.0,0.0
372180977,0,0.0,-0.0,0.0,0.15421687,0.0,0.0,0.0,0.0
372287754,0,0.0,-0.0,0.0,0.2746988,0.0,0.0,0.0,0.0
372370027,0,0.0,-0.0,0.0,0.3253012,0.0,0.0,0.0,0.0
372499035,0,0.0,-0.0,0.0,0.32650602,0.0,0.0,0.0,0.0
372588864,0,0.0,-0.0,0.0,0.32891566,0.0,0.0,0.0,0.0
372674944,0,0.0,-0.0,0.0,0.33493975,0.0,0.0,0.0,0.0
372783411,0,0.0,-0.0,0.0,0.3421687,0.0,0.0,0.0,0.0
372909742,0,0.0,-0.0,0.0,0.34457833,0.0,0.0,0.0,0.0
372996910,0,0.0,-0.0,0.0,0.3566265,0.0,0.0,0.0,0.0
373085339,0,0.0,-0.0,0.0,0.3819277,0.0,0.0,0.0,0.0
373170370,0,0.0,-0.0,0.0,0.3987952,0.0,0.0,0.0,0.0
373278406,0,0.0,-0.0,0.0,0.4626506,0.0,0.0,0.0,0.0
373388181,0,0.0,-0.0,0.0,0.47831327,0.0,0.0,0.0,0.0
373475124,0,0.0,-0.0,0.0,0.48554218,0.0,0.0,0.0,0.0
373559847,0,0.0,-0.0,0.0,0.4927711,0.0,0.0,0.0,0.0
373686168,0,0.0,-0.0,0.0,0.51686746,0.0,0.0,0.0,0.0
373728120,0,0.0,-0.0,0.0,0.5301205,0.0,0.0,0.0,0.0
373881049,0,0.0,-0.0,0.0,0.560241,0.0,0.0,0.0,0.0
373989323,0,0.0,-0.0,0.0,0.5674699,0.0,0.0,0.0,0.0
374076189,0,0.0,-0.0,0.0,0.58554214,0.0,0.0,0.0,0.0
374185295,0,0.0,-0.0,0.0,0.6060241,0.0,0.0,0.0,0.0
374288646,0,0.0,-0.0,0.0,0.6192771,0.0,0.0,0.0,0.0
374352629,0,0.0,-0.0,0.0,0.6325301,0.0,0.0,0.0,0.0
374478900,0,0.0,-0.0,0.0,0.6457831,0.0,0.0,0.0,0.0
374590492,0,0.0,-0.0,0.0,0.67951804,0.0,0.0,0.0,0.0
374679389,0,0.0,-0.0,0.0,0.70843375,0.0,0.0,0.0,0.0
374786684,0,0.0,-0.0,0.0,0.7493976,0.0,0.0,0.0,0.0
374883425,0,0.0,-0.0,0.0,0.760241,0.0,0.0,0.0,0.0
375198452,0,0.0,-0.0,0.0,0.760241,0.0,0.0,0.0,0.0
375243355,0,0.0,-0.0,0.0,0.7590361,0.0,0.0,0.0,0.0
375546079,0,0.0,-0.0,0.0,0.7590361,0.0,0.0,0.0,0.0
375566320,0,0.0,-0.0,0.0,0.75783134,0.0,0.0,0.0,0.0
375715794,0,0.0,-0.0,0.0,0.7361446,0.0,0.0,0.0,0.0
375737970,0,0.0,-0.0,0.0,0.7192771,0.0,0.0,0.0,0.0
375759256,0,0.0,-0.0,0.0,0.70843375,0.0,0.0,0.0,0.0
375867061,0,0.0,-0.0,0.0,0.70843375,0.0,0.0,0.0,0.0
376016817,0,0.0,-0.0,0.0,0.70843375,0.0,0.0,0.0,0.0
376322833,0,0.0,-0.0,0.0,0.70843375,0.0,0.0,0.0,0.0
376387367,0,0.0,-0.0,0.0,0.70843375,0.0,0.0,0.0,0.0
376431220,0,0.0,-0.0,0.0,0.7072289,0.0,0.0,0.0,0.0
376515994,0,0.0,-0.0,0.0,0.67951804,0.0,0.0,0.0,0.0
376537168,0,0.0,-0.0,0.0,0.673494,0.0,0.0,0.0,0.0
376626447,0,0.0,-0.0,0.0,0.6698795,0.0,0.0,0.0,0.0
376753988,0,0.0,-0.0,0.0,0.6698795,0.0,0.0,0.0,0.0
376924901,0,0.0,-0.0,0.0,0.6493976,0.0,0.0,0.0,0.0
377010696,0,0.0,-0.0,0.0,0.6361446,0.0,0.0,0.0,0.0
377115925,0,0.0,-0.0,0.0,0.6277108,0.0,0.0,0.0,0.0
377159100,0,0.0,-0.0,0.0,0.6240964,0.0,0.0,0.0,0.0
377356883,0,0.0,-0.0,0.0,0.6240964,0.0,0.0,0.0,0.0
377419698,0,0.0,-0.0,0.0,0.6253012,0.0,0.0,0.0,0.0
377463722,0,0.0,-0.0,0.0,0.62650603,0.0,0.0,0.0,0.0
377770462,0,0.0,-0.0,0.0,0.62650603,0.0,0.0,0.0,0.0
377815158,0,0.0,-0.0,0.0,0.6277108,0.0,0.0,0.0,0.0
377859114,0,0.0,-0.0,0.0,0.64819276,0.0,0.0,0.0,0.0
377935119,0,0.0,-0.0,0.0,0.66385543,0.0,0.0,0.0,0.0
378056896,0,0.0,-0.0,0.0,0.6650602,0.0,0.0,0.0,0.0
378166794,0,0.0,-0.0,0.0,0.67951804,0.0,0.0,0.0,0.0
378249771,0,0.0,-0.0,0.0,0.68915665,0.0,0.0,0.0,0.0
378566646,0,0.0,-0.0,0.0,0.68915665,0.0,0.0,0.0,0.0
378632402,0,0.0,-0.0,0.0,0.69036144,0.0,0.0,0.0,0.0
378695969,0,0.0,-0.0,0.0,0.6915663,0.0,0.0,0.0,0.0
378996805,0,0.0,-0.0,0.0,0.6915663,0.0,0.0,0.0,0.0
379020844,0,0.0,-0.0,0.0,0.6927711,0.0,0.0,0.0,0.0
379042854,0,0.0,-0.0,0.0,0.6939759,0.0,0.0,0.0,0.0
379235054,0,0.0,-0.0,0.0,0.69759035,0.0,0.0,0.0,0.0
379281484,0,0.0,-0.0,0.0,0.7180723,0.0,0.0,0.0,0.0
379304313,0,0.0,-0.0,0.0,0.7192771,0.0,0.0,0.0,0.0
379625398,0,0.0,-0.0,0.0,0.7192771,0.0,0.0,0.0,0.0
379927215,0,0.0,-0.0,0.0,0.7192771,0.0,0.0,0.0,0.0
380230321,0,0.0,-0.0,0.0,0.7192771,0.0,0.0,0.0,0.0
380405281,0,0.0,-0.0,0.0,0.72048193,0.0,0.0,0.0,0.0
380446691,0,0.0,-0.0,0.0,0.7216867,0.0,0.0,0.0,0.0
380490905,0,0.0,-0.0,0.0,0.72771084,0.0,0.0,0.0,0.0
380596401,0,0.0,-0.0,0.0,0.7216867,0.0,0.0,0.0,0.0
380702172,0,0.0,-0.0,0.0,0.72771084,0.0,0.0,0.0,0.0
380767262,0,0.0,-0.0,0.0,0.74216866,0.0,0.0,0.0,0.0
381070017,0,0.0,-0.0,0.0,0.74216866,0.0,0.0,0.0,0.0
381153956,0,0.0,-0.0,0.0,0.7373494,0.0,0.0,0.0,0.0
381174795,0,0.0,-0.0,0.0,0.713253,0.0,0.0,0.0,0.0
381264712,0,0.0,-0.0,0.0,0.6927711,0.0,0.0,0.0,0.0
381369823,0,0.0,-0.0,0.0,0.6698795,0.0,0.0,0.0,0.0
381412895,0,0.0,-0.0,0.0,0.6698795,0.0,0.0,0.0,0.0
381498258,0,0.0,-0.0,0.0,0.6698795,0.0,0.0,0.0,0.0
381650063,0,0.0,-0.0,0.0,0.6698795,0.0,0.0,0.0,0.0
381799708,0,0.0,-0.0,0.0,0.6698795,0.0,0.0,0.0,0.0
381822201,0,0.0,-0.0,0.0,0.6698795,0.0,0.0,0.0,0.0
382059044,0,0.0,-0.0,0.0,0.6698795,0.0,0.0,0.0,0.0
382165972,0,0.0,-0.0,0.0,0.6698795,0.0,0.0,0.0,0.0
382186688,0,0.0,-0.0,0.0,0.67108434,0.0,0.0,0.0,0.0
382253295,0,0.0,-0.0,0.0,0.6879518,0.0,0.0,0.0,0.0
382384250,0,0.0,-0.0,0.0,0.6939759,0.0,0.0,0.0,0.0
382468656,0,0.0,-0.0,0.0,0.760241,0.0,0.0,0.0,0.0
382554981,0,0.0,-0.0,0.0,0.77590364,0.0,0.0,0.0,0.0
382666044,0,0.0,-0.0,0.0,0.8,0.0,0.0,0.0,0.0
382711335,0,0.0,-0.0,0.0,0.80240965,0.0,0.0,0.0,0.0
382878848,0,0.0,-0.0,0.0,0.80361444,0.0,0.0,0.0,0.0
382966081,0,0.0,-0.0,0.0,0.8120482,0.0,0.0,0.0,0.0
383007424,0,0.0,-0.0,0.0,0.81445783,0.0,0.0,0.0,0.0
383309728,0,0.0,-0.0,0.0,0.81445783,0.0,0.0,0.0,0.0
383611815,0,0.0,-0.0,0.0,0.81445783,0.0,0.0,0.0,0.0
383848701,0,0.0,-0.0,0.0,0.8120482,0.0,0.0,0.0,0.0
383871344,0,0.0,-0.0,0.0,0.8120482,0.0,0.0,0.0,0.0
383935551,0,0.0,-0.0,0.0,0.7975904,0.0,0.0,0.0,0.0
384002598,0,0.0,-0.0,0.0,0.79879516,0.0,0.0,0.0,0.0
384128952,0,0.0,-0.0,0.0,0.7975904,0.0,0.0,0.0,0.0
384214292,0,0.0,-0.0,0.0,0.7686747,0.0,0.0,0.0,0.0
384340166,0,0.0,-0.0,0.0,0.7698795,0.0,0.0,0.0,0.0
384533241,0,0.0,-0.0,0.0,0.7710843,0.0,0.0,0.0,0.0
384554822,0,0.0,-0.0,0.0,0.77228916,0.0,0.0,0.0,0.0
384599604,0,0.0,-0.0,0.0,0.77590364,0.0,0.0,0.0,0.0
384812558,0,0.0,-0.0,0.0,0.7746988,0.0,0.0,0.0,0.0
384833546,0,0.0,-0.0,0.0,0.773494,0.0,0.0,0.0,0.0
384937437,0,0.0,-0.0,0.0,0.7698795,0.0,0.0,0.0,0.0
385024223,0,0.0,-0.0,0.0,0.76626503,0.0,0.0,0.0,0.0
385131256,0,0.0,-0.0,0.0,0.7518072,0.0,0.0,0.0,0.0
385221804,0,0.0,-0.0,0.0,0.72048193,0.0,0.0,0.0,0.0
385286627,0,0.0,-0.0,0.0,0.7216867,0.0,0.0,0.0,0.0
385433096,0,0.0,-0.0,0.0,0.69036144,0.0,0.0,0.0,0.0
385545878,0,0.0,-0.0,0.0,0.6554217,0.0,0.0,0.0,0.0
385628908,0,0.0,-0.0,0.0,0.64457834,0.0,0.0,0.0,0.0
385758576,0,0.0,-0.0,0.0,0.64457834,0.0,0.0,0.0,0.0
385866636,0,0.0,-0.0,0.0,0.64457834,0.0,0.0,0.0,0.0
386174999,0,0.0,-0.0,0.0,0.64457834,0.0,0.0,0.0,0.0
386217212,0,0.0,-0.0,0.0,0.6457831,0.0,0.0,0.0,0.0
386259507,0,0.0,-0.0,0.0,0.6578313,0.0,0.0,0.0,0.0
386366960,0,0.0,-0.0,0.0,0.7855422,0.0,0.0,0.0,0.0
386453419,0,0.0,-0.0,0.0,0.79036146,0.0,0.0,0.0,0.0
386758246,0,0.0,-0.0,0.0,0.79036146,0.0,0.0,0.0,0.0
387060329,0,0.0,-0.0,0.0,0.79036146,0.0,0.0,0.0,0.0
387188521,0,0.0,-0.0,0.0,0.79036146,0.0,0.0,0.0,0.0
387209136,0,0.0,-0.0,0.0,0.7879518,0.0,0.0,0.0,0.0
387275292,0,0.0,-0.0,0.0,0.7506024,0.0,0.0,0.0,0.0
387360745,0,0.0,-0.0,0.0,0.6361446,0.0,0.0,0.0,0.0
387600397,0,0.0,-0.0,0.0,0.6361446,0.0,0.0,0.0,0.0
387795629,0,0.0,-0.0,0.0,0.63012046,0.0,0.0,0.0,0.0
387819281,0,0.0,-0.0,0.0,0.6277108,0.0,0.0,0.0,0.0
387882043,0,0.0,-0.0,0.0,0.6253012,0.0,0.0,0.0,0.0
388132338,0,0.0,-0.0,0.0,0.62289155,0.0,0.0,0.0,0.0
388144678,0,0.0,-0.0,0.0,0.6192771,0.0,0.0,0.0,0.0
388229565,0,0.0,-0.0,0.0,0.61445785,0.0,0.0,0.0,0.0
388273449,0,0.0,-0.0,0.0,0.60722893,0.0,0.0,0.0,0.0
388399576,0,0.0,-0.0,0.0,0.5891566,0.0,0.0,0.0,0.0
388465614,0,0.0,-0.0,0.0,0.5879518,0.0,0.0,0.0,0.0
388610870,0,0.0,-0.0,0.0,0.5879518,0.0,0.0,0.0,0.0
388715594,0,0.0,-0.0,0.0,0.5831325,0.0,0.0,0.0,0.0
388823565,0,0.0,-0.0,0.0,0.55903614,0.0,0.0,0.0,0.0
388844871,0,0.0,-0.0,0.0,0.55783135,0.0,0.0,0.0,0.0
389036400,0,0.0,-0.0,0.007317073,0.5409638,0.0,0.0,0.0,0.0
389123460,0,0.0,-0.0,0.0,0.4554217,0.0,0.0,0.0,0.0
389231578,0,0.0,-0.0,0.0,0.413253,0.0,0.0,0.0,0.0
389313710,0,0.0,-0.0,0.0,0.45301205,0.0,0.0,0.0,0.0
389421294,0,0.0,-0.0,0.0,0.4506024,0.0,0.0,0.0,0.0
389618089,0,0.0,-0.0,0.0,0.42771083,0.0,0.0,0.0,0.0
389642048,0,0.0,-0.0,0.0,0.39156628,0.0,0.0,0.0,0.0
389706806,0,0.0,-0.0,0.0,0.38433734,0.0,0.0,0.0,0.0
389879008,0,0.0,-0.0,0.0,0.3819277,0.0,0.0,0.0,0.0
389900960,0,0.0,-0.0,0.0,0.3746988,0.0,0.0,0.0,0.0
390034579,0,0.0,-0.0,0.0,0.3493976,0.0,0.0,0.0,0.0
390118772,0,0.0,-0.0,0.0,0.2686747,0.0,0.0,0.0,0.0
390226740,0,0.0,-0.0,0.0,0.3,0.0,0.0,0.0,0.0
390248104,0,0.0,-0.0,0.0,0.3048193,0.0,0.0,0.0,0.0
390403776,0,0.0,-0.0,0.0,0.2951807,0.0,0.0,0.0,0.0
390490004,0,0.0,-0.0,0.0,0.29277107,0.0,0.0,0.0,0.0
390644781,0,0.0,-0.0,0.0,0.28915662,0.0,0.0,0.0,0.0
390707780,0,0.0,-0.0,0.0,0.23855421,0.0,0.0,0.0,0.0
391009112,0,0.0,-0.0,0.0,0.23855421,0.0,0.0,0.0,0.0
391331461,0,0.0,-0.0,0.0,0.23855421,0.0,0.0,0.0,0.0
391373150,0,0.0,-0.0,0.0,0.23614457,0.0,0.0,0.0,0.0
391416777,0,0.0,-0.0,0.0,0.2060241,0.0,0.0,0.0,0.0
391503732,0,0.0,-0.0,0.0,0.2,0.0,0.0,0.0,0.0
391655099,0,0.0,-0.0,0.0,0.2,0.0,0.0,0.0,0.0
391724343,0,0.0,-0.0,0.0,0.19638555,0.0,0.0,0.0,0.0
391854031,0,0.0,-0.0,0.0,0.19638555,0.0,0.0,0.0,0.0
391939915,0,0.0,-0.0,0.0,0.19638555,0.0,0.0,0.0,0.0
392205247,0,0.0,-0.0,0.0,0.19518073,0.0,0.0,0.0,0.0
392346339,0,0.0,-0.0,0.0,0.19156626,0.0,0.0,0.0,0.0
392366515,0,0.0,-0.0,0.0,0.19036144,0.0,0.0,0.0,0.0
392430041,0,0.0,-0.0,0.0,0.18674698,0.0,0.0,0.0,0.0
392537885,0,0.0,-0.0,0.0,0.17108434,0.0,0.0,0.0,0.0
392600971,0,0.0,-0.0,0.0,0.0939759,0.0,0.0,0.0,0.0
392852351,0,0.0,-0.0,0.0,0.09518072,0.0,0.0,0.0,0.0
392872358,0,0.0,-0.0,0.0,0.09638554,0.0,0.0,0.0,0.0
392956149,0,0.0,-0.0,0.0,0.10963856,0.0,0.0,0.0,0.0
393044748,0,0.0,-0.0,0.0,0.13012049,0.0,0.0,0.0,0.0
393153885,0,0.0,-0.0,0.0,0.15783133,0.0,0.0,0.0,0.0
393225989,0,0.0,-0.0,0.0,0.17590362,0.0,0.0,0.0,0.0
393345967,0,0.0,-0.0,0.0,0.21084337,0.0,0.0,0.0,0.0
393646118,0,0.0,-0.0,0.0,0.21084337,0.0,0.0,0.0,0.0
393770094,0,0.0,-0.0,0.0,0.21204819,0.0,0.0,0.0,0.0
393814565,0,0.0,-0.0,0.0,0.21445782,0.0,0.0,0.0,0.0
393857416,0,0.0,-0.0,0.0,0.22168675,0.0,0.0,0.0,0.0
393966466,0,0.0,-0.0,0.0,0.20481928,0.0,0.0,0.0,0.0
394013333,0,0.0,-0.0,0.0,0.13373494,0.0,0.0,0.0,0.0
394207941,0,0.0,-0.0,0.0,0.13975903,0.0,0.0,0.0,0.0
394250846,0,0.0,-0.0,0.0,0.15421687,0.0,0.0,0.0,0.0
394338640,0,0.0,-0.0,0.0,0.2180723,0.0,0.0,0.0,0.0
394471092,0,0.0,-0.0,0.0,0.22168675,0.0,0.0,0.0,0.0
394557007,0,0.0,-0.0,0.0,0.2253012,0.0,0.0,0.0,0.0
394666715,0,0.0,-0.0,0.0,0.19759037,0.0,0.0,0.0,0.0
394709830,0,0.0,-0.0,0.0,0.17349398,0.0,0.0,0.0,0.0
394861356,0,0.0,-0.0,0.007317073,0.213253,0.0,0.0,0.0,0.0
394968727,0,0.0,-0.0,0.0,0.22771084,0.0,0.0,0.0,0.0
395033517,0,0.0,-0.0,0.0,0.22891566,0.0,0.0,0.0,0.0
395164264,0,0.0,-0.0,0.0,0.22891566,0.0,0.0,0.0,0.0
395257037,0,0.0,-0.0,0.0,0.23012048,0.0,0.0,0.0,0.0
395354769,0,0.0,-0.0,0.0,0.23253012,0.0,0.0,0.0,0.0
395462159,0,0.0,-0.0,0.0,0.3120482,0.0,0.0,0.0,0.0
395525775,0,0.0,-0.0,0.0,0.31325302,0.0,0.0,0.0,0.0
395654060,0,0.0,-0.0,0.0,0.27228916,0.0,0.0,0.0,0.0
395761646,0,0.0,-0.0,0.0,0.20963855,0.0,0.0,0.0,0.0
395847522,0,0.0,-0.0,0.0,0.21084337,0.0,0.0,0.0,0.0
395958556,0,0.0,-0.0,0.0,0.21204819,0.0,0.0,0.0,0.0
396045580,0,0.0,-0.0,0.0,0.21686748,0.0,0.0,0.0,0.0
396346812,0,0.0,-0.0,0.0,0.21686748,0.0,0.0,0.0,0.0
396538579,0,0.0,-0.0,0.0,0.21686748,0.0,0.0,0.0,0.0
396841007,0,0.0,-0.0,0.0,0.21686748,0.0,0.0,0.0,0.0
397142778,0,0.0,-0.0,0.0,0.21686748,0.0,0.0,0.0,0.0
397380653,0,0.0,-0.0,0.0,0.21686748,0.0,0.0,0.0,0.0
397465918,0,0.0,-0.0,0.0,0.21566264,0.0,0.0,0.0,0.0
397486215,0,0.0,-0.0,0.0,0.21204819,0.0,0.0,0.0,0.0
397573882,0,0.0,-0.0,0.0,0.19638555,0.0,0.0,0.0,0.0
397677710,0,0.0,-0.0,0.0,0.19156626,0.0,0.0,0.0,0.0
397722904,0,0.0,-0.0,0.0,0.1879518,0.0,0.0,0.0,0.0
397787499,0,0.0,-0.0,0.0,0.18674698,0.0,0.0,0.0,0.0
398001075,0,0.0,-0.0,0.0,0.18554217,0.0,0.0,0.0,0.0
398068484,0,0.0,-0.0,0.0,0.118072286,0.0,0.0,0.0,0.0
398175445,0,0.0,-0.0,0.0,0.14578313,0.0,0.0,0.0,0.0
398198037,0,0.0,-0.0,0.0,0.15060242,0.0,0.0,0.0,0.0
398368886,0,0.0,-0.0,0.0,0.15542169,0.0,0.0,0.0,0.0
398410285,0,0.0,-0.0,0.0,0.16626506,0.0,0.0,0.0,0.0
398575789,0,0.0,-0.0,0.0,0.10361446,0.0,0.0,0.0,0.0
398680643,0,0.0,-0.0,0.0,0.112048194,0.0,0.0,0.0,0.0
398767691,0,0.0,-0.0,0.0,0.12048193,0.0,0.0,0.0,0.0
398873736,0,0.0,-0.0,0.0,0.11686747,0.0,0.0,0.0,0.0
398917360,0,0.0,-0.0,0.0,0.12891567,0.0,0.0,0.0,0.0
399220081,0,0.0,-0.0,0.0,0.12891567,0.0,0.0,0.0,0.0
399521084,0,0.0,-0.0,0.0,0.12891567,0.0,0.0,0.0,0.0
399627816,0,0.0,-0.0,0.0,0.12891567,0.0,0.0,0.0,0.0
399930167,0,0.0,-0.0,0.0,0.12891567,0.0,0.0,0.0,0.0
400249847,0,0.0,-0.0,0.0,0.12771085,0.0,0.0,0.0,0.0
400271136,0,0.0,-0.0,0.0,0.119277105,0.0,0.0,0.0,0.0
400315465,0,0.0,-0.0,0.0,0.112048194,0.0,0.0,0.0,0.0
400425345,0,0.0,-0.0,0.0,0.097590365,0.0,0.0,0.0,0.0
400488214,0,0.0,-0.0,0.0,0.08192771,0.0,0.0,0.0,0.0
400684969,0,0.0,-0.0,0.0,0.08313253,0.0,0.0,0.0,0.0
400789580,0,0.0,-0.0,0.0,0.084337346,0.0,0.0,0.0,0.0
400834522,0,0.0,-0.0,0.0,0.11686747,0.0,0.0,0.0,0.0
400942059,0,0.0,-0.0,0.0,0.16024096,0.0,0.0,0.0,0.0
401027753,0,0.0,-0.0,0.0,0.21445782,0.0,0.0,0.0,0.0
401138987,0,0.0,-0.0,0.0,0.2313253,0.0,0.0,0.0,0.0
401245737,0,0.0,-0.0,0.0,0.2433735,0.0,0.0,0.0,0.0
401311392,0,0.0,-0.0,0.0,0.2686747,0.0,0.0,0.0,0.0
401438939,0,0.0,-0.0,0.0,0.2746988,0.0,0.0,0.0,0.0
401505232,0,0.0,-0.0,0.0,0.27951807,0.0,0.0,0.0,0.0
401638059,0,0.0,-0.0,0.0,0.23855421,0.0,0.0,0.0,0.0
401702223,0,0.0,-0.0,0.0,0.20843373,0.0,0.0,0.0,0.0
401827573,0,0.0,-0.0,0.0,0.16626506,0.0,0.0,0.0,0.0
401996603,0,0.0,-0.0,0.0,0.16746987,0.0,0.0,0.0,0.0
402305054,0,0.0,-0.0,0.0,0.16746987,0.0,0.0,0.0,0.0
402390737,0,0.0,-0.0,0.0,0.16987951,0.0,0.0,0.0,0.0
402413338,0,0.0,-0.0,0.0,0.18674698,0.0,0.0,0.0,0.0
402456556,0,0.0,-0.0,0.0,0.2,0.0,0.0,0.0,0.0
402585704,0,0.0,-0.0,0.0,0.2060241,0.0,0.0,0.0,0.0
402628780,0,0.0,-0.0,0.0,0.21686748,0.0,0.0,0.0,0.0
402828483,0,0.0,-0.0,0.0,0.21566264,0.0,0.0,0.0,0.0
402894095,0,0.0,-0.0,0.0,0.19759037,0.0,0.0,0.0,0.0
403002109,0,0.0,-0.0,0.0,0.17349398,0.0,0.0,0.0,0.0
403045637,0,0.0,-0.0,0.0,0.14096385,0.0,0.0,0.0,0.0
403195491,0,0.0,-0.0,0.0,0.14698794,0.0,0.0,0.0,0.0
403285972,0,0.0,-0.0,0.0,0.15301205,0.0,0.0,0.0,0.0
403370817,0,0.0,-0.0,0.0,0.15301205,0.0,0.0,0.0,0.0
403675252,0,0.0,-0.0,0.0,0.15301205,0.0,0.0,0.0,0.0
403890722,0,0.0,-0.0,0.0,0.15180723,0.0,0.0,0.0,0.0
403910368,0,0.0,-0.0,0.0,0.13614458,0.0,0.0,0.0,0.0
403976569,0,0.0,-0.0,0.0,0.110843375,0.0,0.0,0.0,0.0
404084862,0,0.0,-0.0,0.0,0.13012049,0.0,0.0,0.0,0.0
404129386,0,0.0,-0.0,0.0,0.13373494,0.0,0.0,0.0,0.0
404435357,0,0.0,-0.0,0.0,0.13373494,0.0,0.0,0.0,0.0
404692840,0,0.0,-0.0,0.0,0.13614458,0.0,0.0,0.0,0.0
404736371,0,0.0,-0.0,0.0,0.1373494,0.0,0.0,0.0,0.0
404781301,0,0.0,-0.0,0.0,0.14337349,0.0,0.0,0.0,0.0
404885725,0,0.0,-0.0,0.0,0.16144578,0.0,0.0,0.0,0.0
404988340,0,0.0,-0.0,0.0,0.18915662,0.0,0.0,0.0,0.0
405094919,0,0.0,-0.0,0.0,0.20481928,0.0,0.0,0.0,0.0
405115568,0,0.0,-0.0,0.0,0.2060241,0.0,0.0,0.0,0.0
405415669,0,0.0,-0.0,0.0,0.2060241,0.0,0.0,0.0,0.0
405446417,0,0.0,-0.0,0.004878049,0.2060241,0.0,0.0,0.0,0.0
405478440,0,0.0,-0.0,0.014634146,0.2060241,0.0,0.0,0.0,0.0
405585209,0,0.0,-0.0,0.0,0.2060241,0.0,0.0,0.0,0.0
405712511,0,0.0,-0.0,0.0024390244,0.20240964,0.0,0.0,0.0,0.0
405818888,0,0.0,-0.0,0.0,0.20963855,0.0,0.0,0.0,0.0
405905660,0,0.0,-0.0,0.0,0.26987952,0.0,0.0,0.0,0.0
406010351,0,0.0,-0.0,0.0,0.17710844,0.0,0.0,0.0,0.0
406096017,0,0.0,-0.0,0.0,0.15783133,0.0,0.0,0.0,0.0
406334338,0,0.0,-0.0,0.0,0.16024096,0.0,0.0,0.0,0.0
406355409,0,0.0,-0.0,0.0,0.16626506,0.0,0.0,0.0,0.0
406418669,0,0.0,-0.0,0.0,0.21927711,0.0,0.0,0.0,0.0
406505226,0,0.0,-0.0,0.0,0.25662652,0.0,0.0,0.0,0.0
406634211,0,0.0,-0.0,0.0,0.21686748,0.0,0.0,0.0,0.0
406721266,0,0.0,-0.0,0.0,0.17228916,0.0,0.0,0.0,0.0
406828511,0,0.0,-0.0,0.0,0.15421687,0.0,0.0,0.0,0.0
406939570,0,0.0,-0.0,0.0,0.15662651,0.0,0.0,0.0,0.0
407026609,0,0.0,-0.0,0.0,0.15783133,0.0,0.0,0.0,0.0
407344637,0,0.0,-0.0,0.0,0.15783133,0.0,0.0,0.0,0.0
407645848,0,0.0,-0.0,0.0,0.15783133,0.0,0.0,0.0,0.0
407801623,0,0.0,-0.0,0.0,0.15903614,0.0,0.0,0.0,0.0
407822669,0,0.0,-0.0,0.0,0.16144578,0.0,0.0,0.0,0.0
407887455,0,0.0,-0.0,0.0,0.19759037,0.0,0.0,0.0,0.0
407995280,0,0.0,-0.0,0.0,0.2433735,0.0,0.0,0.0,0.0
408079009,0,0.0,-0.0,0.0,0.24819277,0.0,0.0,0.0,0.0
408146512,0,0.0,-0.0,0.0,0.25180724,0.0,0.0,0.0,0.0
408446459,0,0.0,-0.0,0.0,0.25301206,0.0,0.0,0.0,0.0
408467658,0,0.0,-0.0,0.0,0.25421688,0.0,0.0,0.0,0.0
408496803,0,0.0,-0.0,0.0,0.25662652,0.0,0.0,0.0,0.0
408636607,0,0.0,-0.0,0.0,0.32891566,0.0,0.0,0.0,0.0
408657686,0,0.0,-0.0,0.0,0.33493975,0.0,0.0,0.0,0.0
408830004,0,0.0,-0.0,0.0,0.34819278,0.0,0.0,0.0,0.0
408983053,0,0.0,-0.0,0.0,0.35060242,0.0,0.0,0.0,0.0
409005707,0,0.0,-0.0,0.0,0.35301206,0.0,0.0,0.0,0.0
409071320,0,0.0,-0.0,0.0,0.35060242,0.0,0.0,0.0,0.0
409369521,0,0.0,-0.0,0.0,0.35301206,0.0,0.0,0.0,0.0
409390684,0,0.0,-0.0,0.0,0.35903615,0.0,0.0,0.0,0.0
409456910,0,0.0,-0.0,0.0,0.41566265,0.0,0.0,0.0,0.0
409511494,0,0.0,-0.0,0.0,0.42289156,0.0,0.0,0.0,0.0
409656094,0,0.0,-0.0,0.0,0.4253012,0.0,0.0,0.0,0.0
409677352,0,0.0,-0.0,0.0,0.426506,0.0,0.0,0.0,0.0
409909261,0,0.0,-0.0,0.0,0.43012047,0.0,0.0,0.0,0.0
409931362,0,0.0,-0.0,0.0,0.43855423,0.0,0.0,0.0,0.0
410062307,0,0.0,-0.0,0.0,0.43855423,0.0,0.0,0.0,0.0
410170043,0,0.0,-0.0,0.0,0.4361446,0.0,0.0,0.0,0.0
410257362,0,0.0,-0.0,0.0,0.41445783,0.0,0.0,0.0,0.0
410366748,0,0.0,-0.0,0.0,0.2759036,0.0,0.0,0.0,0.0
410453425,0,0.0,-0.0,0.0,0.2819277,0.0,0.0,0.0,0.0
410559903,0,0.0,-0.0,0.0,0.3253012,0.0,0.0,0.0,0.0
410666493,0,0.0,-0.0,0.0,0.32409638,0.0,0.0,0.0,0.0
410690105,0,0.0,-0.0,0.0,0.32409638,0.0,0.0,0.0,0.0
410947501,0,0.0,-0.0,0.0,0.3253012,0.0,0.0,0.0,0.0
410969033,0,0.0,-0.0,0.0,0.33734939,0.0,0.0,0.0,0.0
411059027,0,0.0,-0.0,0.0,0.39638555,0.0,0.0,0.0,0.0
411083393,0,0.0,-0.0,0.0,0.413253,0.0,0.0,0.0,0.0
411274984,0,0.0,-0.0,0.0,0.39156628,0.0,0.0,0.0,0.0
411365159,0,0.0,-0.0,0.0,0.35421687,0.0,0.0,0.0,0.0
411468232,0,0.0,-0.0,0.0,0.3192771,0.0,0.0,0.0,0.0
411555214,0,0.0,-0.0,0.0,0.2746988,0.0,0.0,0.0,0.0
411663343,0,0.0,-0.0,0.0,0.2759036,0.0,0.0,0.0,0.0
411684340,0,0.0,-0.0,0.0,0.2759036,0.0,0.0,0.0,0.0
411883597,0,0.0,-0.0,0.0,0.2746988,0.0,0.0,0.0,0.0
411946309,0,0.0,-0.0,0.0,0.2686747,0.0,0.0,0.0,0.0
412057322,0,0.0,-0.0,0.0,0.21204819,0.0,0.0,0.0,0.0
412166812,0,0.0,-0.0,0.0,0.14096385,0.0,0.0,0.0,0.0
412211177,0,0.0,-0.0,0.0,0.12048193,0.0,0.0,0.0,0.0
412358670,0,0.0,-0.0,0.0,0.16867469,0.0,0.0,0.0,0.0
412423422,0,0.0,-0.0,0.0,0.16144578,0.0,0.0,0.0,0.0
412659513,0,0.0,-0.0,0.0,0.16144578,0.0,0.0,0.0,0.0
412679229,0,0.0,-0.0,0.0,0.16024096,0.0,0.0,0.0,0.0
412745463,0,0.0,-0.0,0.0,0.16144578,0.0,0.0,0.0,0.0
412873316,0,0.0,-0.0,0.0,0.22771084,0.0,0.0,0.0,0.0
412960983,0,0.0,-0.0,0.0,0.2313253,0.0,0.0,0.0,0.0
413022984,0,0.0,-0.0,0.0,0.25180724,0.0,0.0,0.0,0.0
413087125,0,0.0,-0.0,0.0,0.25421688,0.0,0.0,0.0,0.0
413346729,0,0.0,-0.0,0.0,0.2554217,0.0,0.0,0.0,0.0
413367418,0,0.0,-0.0,0.0,0.25662652,0.0,0.0,0.0,0.0
413455950,0,0.0,-0.0,0.0,0.3060241,0.0,0.0,0.0,0.0
413497680,0,0.0,-0.0,0.0,0.32891566,0.0,0.0,0.0,0.0
413666012,0,0.0,-0.0,0.0,0.23975904,0.0,0.0,0.0,0.0
413753768,0,0.0,-0.0,0.0,0.17228916,0.0,0.0,0.0,0.0
413821751,0,0.0,-0.0,0.0,0.16987951,0.0,0.0,0.0,0.0
413907594,0,0.0,-0.0,0.0,0.17349398,0.0,0.0,0.0,0.0
414016262,0,0.0,-0.0,0.0,0.17710844,0.0,0.0,0.0,0.0
414163282,0,0.0,-0.0,0.0,0.21566264,0.0,0.0,0.0,0.0
414184598,0,0.0,-0.0,0.0,0.21686748,0.0,0.0,0.0,0.0
414355274,0,0.0,-0.0,0.0,0.22048193,0.0,0.0,0.0,0.0
414424674,0,0.0,-0.0,0.0,0.2686747,0.0,0.0,0.0,0.0
414530650,0,0.0,-0.0,0.0,0.2686747,0.0,0.0,0.0,0.0
414661256,0,0.0,-0.0,0.0,0.30722892,0.0,0.0,0.0,0.0
414680622,0,0.0,-0.0,0.0,0.31084338,0.0,0.0,0.0,0.0
414851262,0,0.0,-0.0,0.0,0.2819277,0.0,0.0,0.0,0.0
414957992,0,0.0,-0.0,0.0,0.2686747,0.0,0.0,0.0,0.0
415047988,0,0.0,-0.0,0.0,0.2686747,0.0,0.0,0.0,0.0
415155756,0,0.0,-0.0,0.0,0.08554217,0.0,0.0,0.0,0.0
415260121,0,0.0,-0.0,0.034146342,0.26746988,0.0,0.0,0.0,0.0
415368529,0,0.0,-0.0,0.014634146,0.2746988,0.0,0.0,0.0,0.0
415455746,0,0.0,-0.0,0.0,0.31566265,0.0,0.0,0.0,0.0
415565024,0,0.0,-0.0,0.014634146,0.32168674,0.0,0.0,0.0,0.0
415651361,0,0.0,-0.0,0.0,0.32168674,0.0,0.0,0.0,0.0
415759636,0,0.0,-0.0,0.0,0.32891566,0.0,0.0,0.0,0.0
415867643,0,0.0,-0.0,0.0,0.33493975,0.0,0.0,0.0,0.0
415953269,0,0.0,-0.0,0.0,0.25180724,0.0,0.0,0.0,0.0
416059624,0,0.0,-0.0,0.0,0.24096386,0.0,0.0,0.0,0.0
416078965,0,0.0,-0.0,0.0,0.23855421,0.0,0.0,0.0,0.0
416253915,0,0.0,-0.0,0.0,0.23855421,0.0,0.0,0.0,0.0
416362419,0,0.0,-0.0,0.0,0.24216868,0.0,0.0,0.0,0.0
416468773,0,0.0,-0.0,0.0,0.3493976,0.0,0.0,0.0,0.0
416492898,0,0.0,-0.0,0.0,0.34819278,0.0,0.0,0.0,0.0
416663815,0,0.0,-0.0,0.0,0.28915662,0.0,0.0,0.0,0.0
416771625,0,0.0,-0.0,0.0,0.27228916,0.0,0.0,0.0,0.0
416856977,0,0.0,-0.0,0.0,0.2433735,0.0,0.0,0.0,0.0
416960436,0,0.0,-0.0,0.0,0.16746987,0.0,0.0,0.0,0.0
417068549,0,0.0,-0.0,0.0,0.18192771,0.0,0.0,0.0,0.0
417157044,0,0.0,-0.0,0.0,0.3060241,0.0,0.0,0.0,0.0
417265153,0,0.0,-0.0,0.0,0.30120483,0.0,0.0,0.0,0.0
417333819,0,0.0,-0.0,0.0,0.27228916,0.0,0.0,0.0,0.0
417419103,0,0.0,-0.0,0.0,0.2746988,0.0,0.0,0.0,0.0
417570651,0,0.0,-0.0,0.0,0.27831325,0.0,0.0,0.0,0.0
417656032,0,0.0,-0.0,0.0,0.31445783,0.0,0.0,0.0,0.0
417678548,0,0.0,-0.0,0.0,0.31686747,0.0,0.0,0.0,0.0
417868774,0,0.0,-0.0,0.0,0.31566265,0.0,0.0,0.0,0.0
417956097,0,0.0,-0.0,0.0,0.3180723,0.0,0.0,0.0,0.0
418020320,0,0.0,-0.0,0.0,0.32891566,0.0,0.0,0.0,0.0
418168158,0,0.0,-0.0,0.0,0.35421687,0.0,0.0,0.0,0.0
418232999,0,0.0,-0.0,0.0,0.3554217,0.0,0.0,0.0,0.0
418406591,0,0.0,-0.0,0.0,0.36385542,0.0,0.0,0.0,0.0
418471415,0,0.0,-0.0,0.0,0.3759036,0.0,0.0,0.0,0.0
418536226,0,0.0,-0.0,0.0,0.37831324,0.0,0.0,0.0,0.0
418754649,0,0.0,-0.0,0.0,0.37951806,0.0,0.0,0.0,0.0
418775968,0,0.0,-0.0,0.0,0.38072288,0.0,0.0,0.0,0.0
418861047,0,0.0,-0.0,0.0,0.39518073,0.0,0.0,0.0,0.0
418969159,0,0.0,-0.0,0.0,0.40481928,0.0,0.0,0.0,0.0
419033593,0,0.0,-0.0,0.0,0.41445783,0.0,0.0,0.0,0.0
419139482,0,0.0,-0.0,0.0,0.42891565,0.0,0.0,0.0,0.0
419267437,0,0.0,-0.0,0.0,0.42891565,0.0,0.0,0.0,0.0
419298765,0,0.0,-0.0,0.0,0.42771083,0.0,0.0,0.0,0.0
419528277,0,0.0,-0.0,0.0,0.4253012,0.0,0.0,0.0,0.0
419571671,0,0.0,-0.0,0.0,0.3819277,0.0,0.0,0.0,0.0
419657244,0,0.0,-0.0,0.0,0.37710842,0.0,0.0,0.0,0.0
419833934,0,0.0,-0.0,0.0,0.37710842,0.0,0.0,0.0,0.0
419967539,0,0.0,-0.0,0.0,0.37710842,0.0,0.0,0.0,0.0
420274650,0,0.0,-0.0,0.0,0.37710842,0.0,0.0,0.0,0.0
420576018,0,0.0,-0.0,0.0,0.37710842,0.0,0.0,0.0,0.0
420727143,0,0.0,-0.0,0.0,0.37710842,0.0,0.0,0.0,0.0
421046754,0,0.0,-0.0,0.0,0.37710842,0.0,0.0,0.0,0.0
421353650,0,0.0,-0.0,0.0,0.37710842,0.0,0.0,0.0,0.0
421654035,0,0.0,-0.0,0.0,0.37710842,0.0,0.0,0.0,0.0
421959103,0,0.0,-0.0,0.0,0.37710842,0.0,0.0,0.0,0.0
422261843,0,0.0,-0.0,0.0,0.37710842,0.0,0.0,0.0,0.0
422581178,0,0.0,-0.0,0.0,0.37710842,0.0,0.0,0.0,0.0
422883092,0,0.0,-0.0,0.0,0.37710842,0.0,0.0,0.0,0.0
423187642,0,0.0,-0.0,0.0,0.37710842,0.0,0.0,0.0,0.0
423505243,0,0.0,-0.0,0.0,0.37710842,0.0,0.0,0.0,0.0
423809233,0,0.0,-0.0,0.0,0.37710842,0.0,0.0,0.0,0.0
424110538,0,0.0,-0.0,0.0,0.37710842,0.0,0.0,0.0,0.0
424154004,0,0.0,-0.0,0.0,0.37710842,0.0,0.0,0.0,0.0
424473863,0,0.0,-0.0,0.0,0.37710842,0.0,0.0,0.0,0.0
424789623,0,0.0,-0.0,0.0,0.37710842,0.0,0.0,0.0,0.0
425097280,0,0.0,-0.0,0.0,0.37710842,0.0,0.0,0.0,0.0
