timestamp,timestamp_sample,control[0],control[1],control[2],control[3],control[4],control[5],control[6],control[7]
368070548,368069968,0.010447725,0.006236547,0.006506432,0.001,0.0,0.0,0.0,-1.0
368123080,368122446,-0.00035152555,0.0067966594,-0.004253759,0.001,0.0,0.0,0.0,-1.0
368172493,368171895,0.0076011517,0.0019886545,-0.0069078337,0.001,0.0,0.0,0.0,-1.0
368221937,368221354,0.0022642792,0.012732832,0.021552544,0.001,0.0,0.0,0.0,-1.0
368274394,368273813,0.0028699595,0.00043733104,-0.0040680873,0.001,0.0,0.0,0.0,-1.0
368322356,368321781,0.010435953,-0.0036755279,-0.0024020567,0.001,0.0,0.0,0.0,-1.0
368371860,368371242,0.00931241,-0.0011413661,-0.0011852811,0.001,0.0,0.0,0.0,-1.0
368424280,368423702,0.011611366,-0.0030693687,0.002595789,0.001,0.0,0.0,0.0,-1.0
368473836,368473185,0.008024362,-0.004773252,-0.0022581676,0.001,0.0,0.0,0.0,-1.0
368524771,368524136,0.009492016,-0.00329603,-0.00476474,0.001,0.0,0.0,0.0,-1.0
368572697,368572113,0.009051678,-0.00082161586,-0.00010835677,0.001,0.0,0.0,0.0,-1.0
368622151,368621577,0.006898132,-0.0002953836,0.0026676615,0.001,0.0,0.0,0.0,-1.0
368671608,368671031,0.003832723,0.0016969298,0.0008704409,0.001,0.0,0.0,0.0,-1.0
368722566,368721985,0.0046721897,-0.0008184632,-0.0023366488,0.001,0.0,0.0,0.0,-1.0
368775022,368774442,0.005948821,-9.318742e-05,4.299781e-06,0.001,0.0,0.0,0.0,-1.0
368822978,368822405,0.008251843,0.0016354792,0.0022419877,0.001,0.0,0.0,0.0,-1.0
368872455,368871870,0.006775729,0.0011391112,-0.00035418614,0.001,0.0,0.0,0.0,-1.0
368921909,368921333,0.0050798287,0.0010378825,-0.0022766287,0.001,0.0,0.0,0.0,-1.0
368974362,368973794,0.006151993,0.0032435288,-0.0007975803,0.001,0.0,0.0,0.0,-1.0
369022328,369021759,0.00752693,0.003522519,-0.00013381541,0.001,0.0,0.0,0.0,-1.0
369071796,369071227,0.008384808,0.0013016146,-0.0019839911,0.001,0.0,0.0,0.0,-1.0
369124265,369123693,0.00843566,0.00332722,-0.004715732,0.001,0.0,0.0,0.0,-1.0
369173720,369173146,0.005406553,0.0024144026,-0.003205381,0.001,0.0,0.0,0.0,-1.0
369223258,369222616,0.008008277,0.004608107,-0.001165282,0.001,0.0,0.0,0.0,-1.0
369271142,369270575,0.004066666,0.004249262,-0.0015943003,0.001,0.0,0.0,0.0,-1.0
369323670,369323038,0.006179254,0.0016939171,-0.0024653568,0.001,0.0,0.0,0.0,-1.0
369373142,369372504,0.005711018,0.0029176234,-0.0018969711,0.001,0.0,0.0,0.0,-1.0
369422534,369421963,0.0042396607,0.0026480476,-0.00037840204,0.001,0.0,0.0,0.0,-1.0
369474999,369474424,0.0028697338,0.0031739774,-0.0024255493,0.001,0.0,0.0,0.0,-1.0
369521476,369520889,0.0018122448,0.0041386844,-0.0017302636,0.001,0.0,0.0,0.0,-1.0
369572509,369571858,0.0026920922,0.0061134533,-0.0012716326,0.001,0.0,0.0,0.0,-1.0
369621886,369621315,0.003705008,0.008175917,-0.0005861014,0.001,0.0,0.0,0.0,-1.0
369674423,369673781,0.002438298,0.0030851332,-0.0016348872,0.001,0.0,0.0,0.0,-1.0
369722309,369721741,0.003277877,0.0041477988,-0.00077473285,0.001,0.0,0.0,0.0,-1.0
369771811,369771243,0.0017723737,0.0030659565,-0.0006186658,0.001,0.0,0.0,0.0,-1.0
369822745,369822167,0.0036792844,0.0029743153,-0.00050261815,0.001,0.0,0.0,0.0,-1.0
369872200,369871630,0.0051235333,0.0037378836,-0.0012134284,0.001,0.0,0.0,0.0,-1.0
369923186,369922596,0.0053529064,0.0051968005,-0.0020074437,0.001,0.0,0.0,0.0,-1.0
369971126,369970557,0.0034638678,0.00449799,-0.0010856481,0.001,0.0,0.0,0.0,-1.0
370025151,370024524,0.0036547242,0.0006727033,-0.00045923956,0.001,0.0,0.0,0.0,-1.0
370073049,370072482,0.005665677,0.0021213817,-0.0017127878,0.001,0.0,0.0,0.0,-1.0
370122593,370121952,0.0059009437,0.0015603092,-0.0020926234,0.001,0.0,0.0,0.0,-1.0
370174998,370174420,0.008515944,0.005475784,-0.0016506236,0.001,0.0,0.0,0.0,-1.0
370223008,370222394,0.006232264,0.005097999,-0.0010091513,0.001,0.0,0.0,0.0,-1.0
370272428,370271834,0.006905326,0.005328089,-0.0026222991,0.001,0.0,0.0,0.0,-1.0
370321883,370321307,0.0067890924,0.0025448697,-0.0022063411,0.001,0.0,0.0,0.0,-1.0
370371332,370370763,0.0074848915,0.0034252615,-0.00074146927,0.001,0.0,0.0,0.0,-1.0
370422357,370421730,0.0070479466,0.0028574308,-0.0007058473,0.001,0.0,0.0,0.0,-1.0
370471821,370471199,0.004458421,0.0030391237,-0.0020106055,0.001,0.0,0.0,0.0,-1.0
370524267,370523649,0.004795558,0.0036570104,-0.00171821,0.001,0.0,0.0,0.0,-1.0
370573682,370573111,0.0059876842,0.0061357645,-0.0009066746,0.001,0.0,0.0,0.0,-1.0
370623159,370622575,0.004641481,0.005799507,-0.0004091965,0.001,0.0,0.0,0.0,-1.0
370671113,370670539,0.004232618,0.008728782,-0.002191358,0.001,0.0,0.0,0.0,-1.0
370720611,370720034,0.004185783,0.006188458,-0.0027312902,0.001,0.0,0.0,0.0,-1.0
370771547,370770965,0.0050301934,0.004487896,-0.0003622546,0.001,0.0,0.0,0.0,-1.0
370822513,370821935,0.0041132267,0.00407365,0.0017622606,0.001,0.0,0.0,0.0,-1.0
370874969,370874394,0.0043930183,0.0058012567,0.0024883903,0.001,0.0,0.0,0.0,-1.0
370922940,370922358,0.0067146225,0.0027895467,0.0022456006,0.001,0.0,0.0,0.0,-1.0
370972396,370971817,0.009285626,0.0045847045,0.0035207362,0.001,0.0,0.0,0.0,-1.0
371021852,371021280,0.0069708754,0.0044194497,0.0043357247,0.001,0.0,0.0,0.0,-1.0
371074325,371073741,0.0074424017,0.004934486,0.002704814,0.001,0.0,0.0,0.0,-1.0
371122275,371121706,0.0049382793,0.007102011,0.002169732,0.001,0.0,0.0,0.0,-1.0
371171751,371171179,0.0049595144,0.0067059267,0.0026172372,0.001,0.0,0.0,0.0,-1.0
371224262,371223636,0.0054094763,0.0037322163,0.0028834036,0.001,0.0,0.0,0.0,-1.0
371273661,371273094,0.006054926,0.0031288192,0.0018971924,0.001,0.0,0.0,0.0,-1.0
371323196,371322557,0.0033956785,0.003796861,0.0014815204,0.001,0.0,0.0,0.0,-1.0
371371101,371370528,0.0036805845,0.0059715975,0.0011195625,0.001,0.0,0.0,0.0,-1.0
371423611,371422983,0.0023446102,0.0057886797,0.0022976692,0.001,0.0,0.0,0.0,-1.0
371473093,371472453,0.0026757217,0.007862138,0.0019231052,0.001,0.0,0.0,0.0,-1.0
371522480,371521910,0.0040717423,0.008031773,0.0010730593,0.001,0.0,0.0,0.0,-1.0
371571965,371571394,0.006167794,0.00838747,0.0023305032,0.001,0.0,0.0,0.0,-1.0
371621417,371620836,0.0028113427,0.0066749393,0.0032404556,0.001,0.0,0.0,0.0,-1.0
371672439,371671799,0.0039123236,0.005640832,0.0032199586,0.001,0.0,0.0,0.0,-1.0
371721872,371721262,0.0051633115,0.0051555443,0.0021077453,0.001,0.0,0.0,0.0,-1.0
371774344,371773724,0.0025980675,0.004165325,0.006062978,0.001,0.0,0.0,0.0,-1.0
371823833,371823193,0.0045276047,0.0038266198,0.0061469097,0.001,0.0,0.0,0.0,-1.0
371873219,371872651,0.005557528,0.003950171,0.00525904,0.001,0.0,0.0,0.0,-1.0
371921190,371920615,0.003727145,0.0038645954,0.0052815815,0.001,0.0,0.0,0.0,-1.0
371970659,371970079,0.00383345,0.005484942,0.006933234,0.001,0.0,0.0,0.0,-1.0
372023173,372022540,0.0055652703,0.0012112552,0.009215988,0.001,0.0,0.0,0.0,-1.0
372071162,372070532,0.005136877,0.0050540585,0.0077396464,0.001,0.0,0.0,0.0,-1.0
372123601,372122969,0.0050844923,0.0012607074,0.0091299955,0.001,0.0,0.0,0.0,-1.0
372173001,372172429,0.0063103605,0.0018880315,0.010401541,0.001,0.0,0.0,0.0,-1.0
372222477,372221909,0.0061939205,0.000945318,0.009974834,0.001,0.0,0.0,0.0,-1.0
372274931,372274354,0.008226687,0.0023836656,0.0066027553,0.001,0.0,0.0,0.0,-1.0
372322903,372322334,0.008282833,0.0051482483,0.008324789,0.001,0.0,0.0,0.0,-1.0
372372358,372371782,0.006647591,0.005698556,0.0075964304,0.001,0.0,0.0,0.0,-1.0
372421863,372421245,0.007544988,0.0032892807,0.004965858,0.001,0.0,0.0,0.0,-1.0
372474274,372473706,0.008887612,0.001231138,0.0010149494,0.001,0.0,0.0,0.0,-1.0
372523819,372523174,0.008943209,0.00083677744,0.0020946139,0.001,0.0,0.0,0.0,-1.0
372571723,372571159,0.011804097,0.0043431073,0.0021556546,0.001,0.0,0.0,0.0,-1.0
372624237,372623602,0.010068615,0.0030027102,-0.002615999,0.001,0.0,0.0,0.0,-1.0
372673638,372673062,0.012494418,0.0030804968,-0.0020626376,0.001,0.0,0.0,0.0,-1.0
372723092,372722523,0.011514042,0.0016720329,-0.00018410695,0.001,0.0,0.0,0.0,-1.0
372772556,372771987,0.007951237,0.0012308275,-0.0002883603,0.001,0.0,0.0,0.0,-1.0
372822031,372821462,0.006673149,0.002216494,-0.0008072451,0.001,0.0,0.0,0.0,-1.0
372871490,372870914,0.0062640407,0.0045759818,0.00031646405,0.001,0.0,0.0,0.0,-1.0
372922507,372921877,0.005610862,0.003855799,0.0011598637,0.001,0.0,0.0,0.0,-1.0
372974916,372974337,0.002281649,0.0022294074,-0.00012137512,0.001,0.0,0.0,0.0,-1.0
373024433,373023807,0.002027914,0.0016273775,0.00013272505,0.001,0.0,0.0,0.0,-1.0
373072346,373071765,0.005763718,0.0014997269,0.0032692882,0.001,0.0,0.0,0.0,-1.0
373121802,373121229,0.004706029,0.0007298583,0.004194693,0.001,0.0,0.0,0.0,-1.0
373172768,373172191,0.0057177274,0.00019013832,0.0025708326,0.001,0.0,0.0,0.0,-1.0
373223787,373223153,0.0029496965,0.0027918268,0.001102906,0.001,0.0,0.0,0.0,-1.0
373271714,373271146,0.0030444767,0.0032090864,0.004350594,0.001,0.0,0.0,0.0,-1.0
373321165,373320581,0.0033416054,-0.00058488577,0.003963315,0.001,0.0,0.0,0.0,-1.0
373373610,373373043,0.0059700045,0.0009951163,-0.0014589501,0.001,0.0,0.0,0.0,-1.0
373423166,373422513,0.0048997584,0.0033210488,-0.003017564,0.001,0.0,0.0,0.0,-1.0
373471081,373470471,0.004838616,0.0030216824,0.00011618645,0.001,0.0,0.0,0.0,-1.0
373523508,373522932,0.00649399,0.00233484,-0.0055424157,0.001,0.0,0.0,0.0,-1.0
373573021,373572404,0.008413467,0.002020698,-0.00691529,0.001,0.0,0.0,0.0,-1.0
373622439,373621859,0.007950824,0.00043271133,-0.0062847435,0.001,0.0,0.0,0.0,-1.0
373674895,373674320,0.0065526636,0.0011002114,-0.0054973164,0.001,0.0,0.0,0.0,-1.0
373722932,373722305,0.0042152577,0.0031928997,-0.0030576915,0.001,0.0,0.0,0.0,-1.0
373772407,373771753,0.0021476995,0.003885294,-0.0027180626,0.001,0.0,0.0,0.0,-1.0
373821858,373821222,0.0015590617,0.0027272743,-5.4189135e-05,0.001,0.0,0.0,0.0,-1.0
373874297,373873673,-0.0011183858,0.00028443016,0.0028822261,0.001,0.0,0.0,0.0,-1.0
373923768,373923137,-0.0009759969,0.0008529457,0.004896136,0.001,0.0,0.0,0.0,-1.0
373971745,373971142,-0.0018790045,0.002085003,0.0060600103,0.001,0.0,0.0,0.0,-1.0
374021139,374020565,-0.00054405595,0.003484576,0.006589916,0.001,0.0,0.0,0.0,-1.0
374072097,374071528,0.0015389468,0.0015122088,0.008485625,0.001,0.0,0.0,0.0,-1.0
374123108,374122490,0.0012846966,-0.0015132803,0.008109506,0.001,0.0,0.0,0.0,-1.0
374171027,374170455,-6.239317e-05,0.001671141,0.008986464,0.001,0.0,0.0,0.0,-1.0
374223554,374222919,0.004705137,0.001941803,0.005805336,0.001,0.0,0.0,0.0,-1.0
374274461,374273879,0.005308094,0.0017295206,0.0048525385,0.001,0.0,0.0,0.0,-1.0
374322440,374321843,0.005226812,0.001773453,0.006956283,0.001,0.0,0.0,0.0,-1.0
374374881,374374304,0.006130451,0.0059456006,0.0015353878,0.001,0.0,0.0,0.0,-1.0
374422853,374422284,0.0061581135,0.0063548805,0.0021905997,0.001,0.0,0.0,0.0,-1.0
374472397,374471738,0.006437685,0.007282193,0.0011317105,0.001,0.0,0.0,0.0,-1.0
374521769,374521197,0.025006514,-0.016931446,0.00036435874,0.0085222265,0.0,0.0,0.0,-1.0
374574229,374573657,0.015779432,-0.009704407,-0.0036983015,0.016234508,0.0,0.0,0.0,-1.0
374623751,374623121,0.009177063,-0.0017256441,-0.005256665,0.022044165,0.0,0.0,0.0,-1.0
374671713,374671103,0.0032904937,0.0053264857,-0.0027111182,0.030582337,0.0,0.0,0.0,-1.0
374724127,374723547,0.0048042745,0.0022419507,-0.0074974387,0.03977854,0.0,0.0,0.0,-1.0
374773631,374773011,0.008886424,0.0008534068,-0.009590044,0.049457014,0.0,0.0,0.0,-1.0
374823044,374822475,0.0067964136,0.002986703,-0.010176333,0.056183457,0.0,0.0,0.0,-1.0
374872507,374871938,0.005403125,-7.992973e-05,-0.004374942,0.063257195,0.0,0.0,0.0,-1.0
374920549,374919944,0.010931909,0.0016528764,0.0062785414,0.07383063,0.0,0.0,0.0,-1.0
374973005,374972364,0.010258747,0.0023688956,0.0091599375,0.085330874,0.0,0.0,0.0,-1.0
375022491,375021837,0.006065617,-0.007876749,-0.009119236,0.099162675,0.0,0.0,0.0,-1.0
375074865,375074289,0.0032199547,0.0068084854,-0.0023570112,0.111195065,0.0,0.0,0.0,-1.0
375122837,375122269,0.012929281,0.008693201,0.012066916,0.11953781,0.0,0.0,0.0,-1.0
375172292,375171717,0.0074117873,-0.007020819,-0.00940167,0.13003144,0.0,0.0,0.0,-1.0
375221756,375221182,0.0009284051,0.013937846,0.005594109,0.14448236,0.0,0.0,0.0,-1.0
375271223,375270644,0.014600948,-0.01360832,-0.007610226,0.1563384,0.0,0.0,0.0,-1.0
375323762,375323109,-0.00012700343,0.027696058,0.0023748307,0.16891031,0.0,0.0,0.0,-1.0
375371660,375371092,0.015667263,-0.021534646,-0.0028310623,0.18067153,0.0,0.0,0.0,-1.0
375424171,375423540,-0.004622496,0.012573669,-0.0017343598,0.1951738,0.0,0.0,0.0,-1.0
375473564,375472995,0.0019250611,0.007848917,0.0011080571,0.21374913,0.0,0.0,0.0,-1.0
375523033,375522459,-0.000262193,-0.0003493237,0.0041832663,0.23290846,0.0,0.0,0.0,-1.0
375571006,375570424,-0.0034971808,-0.004129095,-0.0029264356,0.24200454,0.0,0.0,0.0,-1.0
375623527,375622885,-0.006325947,-0.00093119725,-0.0030351426,0.26384103,0.0,0.0,0.0,-1.0
375672928,375672349,-0.010396542,0.007930709,-0.0010138466,0.28264394,0.0,0.0,0.0,-1.0
375722392,375721813,-0.005322881,0.009456913,-0.0021591182,0.29527855,0.0,0.0,0.0,-1.0
375771858,375771276,-0.00759409,0.0069218352,-0.0013331191,0.3072656,0.0,0.0,0.0,-1.0
375821327,375820740,-0.0051251566,0.0093237385,-0.0010843482,0.31957084,0.0,0.0,0.0,-1.0
375872336,375871712,0.0020504377,-0.011588534,-0.0016781235,0.3348853,0.0,0.0,0.0,-1.0
375921810,375921172,0.017952425,0.0025227081,-0.002346588,0.35855192,0.0,0.0,0.0,-1.0
375974225,375973634,0.009475889,0.031363804,0.00021640105,0.38123226,0.0,0.0,0.0,-1.0
376023755,376023097,-0.0056324215,0.014704455,-0.0030940217,0.37939903,0.0,0.0,0.0,-1.0
376071644,376071077,0.020105546,0.025778897,0.001438297,0.38419947,0.0,0.0,0.0,-1.0
376122612,376122025,0.005830227,0.010067775,0.0016902387,0.3885523,0.0,0.0,0.0,-1.0
376172058,376171482,0.02680919,0.020352831,0.0018501659,0.36107308,0.0,0.0,0.0,-1.0
376223047,376222456,0.01172037,0.011659742,0.008194169,0.34943745,0.0,0.0,0.0,-1.0
376270999,376270409,0.024589209,0.0038656667,0.00845691,0.32359967,0.0,0.0,0.0,-1.0
376323539,376322876,-0.026060365,0.03241736,0.0046243514,0.31421536,0.0,0.0,0.0,-1.0
376372907,376372334,-0.014617969,0.0051704994,0.008927141,0.3088001,0.0,0.0,0.0,-1.0
376422367,376421798,0.014967684,0.007637576,0.009899243,0.3078717,0.0,0.0,0.0,-1.0
376474836,376474259,-0.0027125052,0.022406267,0.006228782,0.31817526,0.0,0.0,0.0,-1.0
376522811,376522242,-0.0027728644,0.015422213,0.010489559,0.3282066,0.0,0.0,0.0,-1.0
376572264,376571688,0.017024826,-0.015789667,0.011605076,0.32490963,0.0,0.0,0.0,-1.0
376621721,376621151,0.03207342,-0.0022268873,0.0007900021,0.3127777,0.0,0.0,0.0,-1.0
376674182,376673613,-0.02298905,0.047959924,0.0039586914,0.3124511,0.0,0.0,0.0,-1.0
376723736,376723082,-0.0014989591,0.024987966,0.009080939,0.31180388,0.0,0.0,0.0,-1.0
376771680,376771063,0.023320865,0.007671353,0.0058744648,0.3133815,0.0,0.0,0.0,-1.0
376824156,376823509,0.014863075,0.028639223,0.0077032414,0.31615847,0.0,0.0,0.0,-1.0
376873543,376872970,-0.0008426525,0.020735476,0.009936962,0.3257028,0.0,0.0,0.0,-1.0
376923008,376922430,0.024531048,-0.0050129397,0.0061958535,0.326134,0.0,0.0,0.0,-1.0
376970982,376970405,0.029132558,-0.011500485,0.0039897375,0.3260966,0.0,0.0,0.0,-1.0
377021945,377021366,-0.007176427,0.027620373,0.0026498574,0.31986213,0.0,0.0,0.0,-1.0
377072959,377072322,-0.005607636,0.02671233,0.00391161,0.31545848,0.0,0.0,0.0,-1.0
377122430,377121790,0.010027085,0.00950052,0.007817637,0.30486414,0.0,0.0,0.0,-1.0
377174872,377174245,0.014120814,0.018243898,0.006275576,0.30514184,0.0,0.0,0.0,-1.0
377222793,377222224,0.005754283,0.023360854,0.0039372146,0.30988932,0.0,0.0,0.0,-1.0
377272259,377271674,-0.005912095,0.016695939,0.004036479,0.31735748,0.0,0.0,0.0,-1.0
377321724,377321138,-0.004249406,-0.0036255587,0.0077052307,0.31615192,0.0,0.0,0.0,-1.0
377372678,377372101,0.01777484,0.0039702863,0.005927591,0.31617802,0.0,0.0,0.0,-1.0
377423725,377423069,0.00015265077,0.038005568,0.00061109697,0.32392806,0.0,0.0,0.0,-1.0
377471613,377471043,-0.0035253416,0.030659124,0.0059616813,0.33043483,0.0,0.0,0.0,-1.0
377524124,377523493,0.032265436,-0.0057042227,0.0066419854,0.33165398,0.0,0.0,0.0,-1.0
377573522,377572953,0.012187889,0.018457789,-0.004022739,0.32516855,0.0,0.0,0.0,-1.0
377622986,377622417,-0.026450718,0.03708508,0.002989673,0.3285511,0.0,0.0,0.0,-1.0
377670959,377670390,-0.0048690676,0.009881099,0.004184967,0.3245988,0.0,0.0,0.0,-1.0
377723503,377722866,0.018694641,0.016911441,0.0038966436,0.32583562,0.0,0.0,0.0,-1.0
377772942,377772313,-0.0051801964,0.0125975935,0.005368217,0.32533824,0.0,0.0,0.0,-1.0
377822343,377821771,0.0028879978,0.00407282,0.0034329246,0.3264278,0.0,0.0,0.0,-1.0
377871805,377871234,0.007715204,0.0070098727,0.0024418517,0.34128594,0.0,0.0,0.0,-1.0
377921274,377920698,0.010552438,0.027206926,0.0026254116,0.36677113,0.0,0.0,0.0,-1.0
377972250,377971661,0.0025125397,-0.004988144,0.0059427116,0.37025762,0.0,0.0,0.0,-1.0
378021759,378021134,0.016416075,0.016237805,0.0026895562,0.3461125,0.0,0.0,0.0,-1.0
378074212,378073586,0.0004256905,0.017814996,0.006359919,0.3108335,0.0,0.0,0.0,-1.0
378123693,378123050,0.019663617,0.004665198,0.01197791,0.30997896,0.0,0.0,0.0,-1.0
378173090,378172514,0.021373121,0.018249717,0.006357031,0.31318906,0.0,0.0,0.0,-1.0
378222555,378221978,-2.1394782e-05,0.02049238,0.0051198914,0.3341551,0.0,0.0,0.0,-1.0
378270530,378269943,-0.010937911,-0.00031953125,0.008885427,0.34524226,0.0,0.0,0.0,-1.0
378323020,378322436,0.014984458,0.02378759,0.0028044353,0.32829595,0.0,0.0,0.0,-1.0
378370954,378370369,-0.010059629,0.028867558,0.008564515,0.3151614,0.0,0.0,0.0,-1.0
378423463,378422830,0.038459394,-0.016186109,0.014721736,0.31249157,0.0,0.0,0.0,-1.0
378472863,378472294,0.020542495,0.018667648,0.003598222,0.31554967,0.0,0.0,0.0,-1.0
378522327,378521758,-0.01630807,0.029855821,0.007559607,0.31843257,0.0,0.0,0.0,-1.0
378574797,378574220,0.02351945,0.016052274,0.012309129,0.3214745,0.0,0.0,0.0,-1.0
378672226,378671649,-0.011844076,0.03391446,0.01080817,0.32727045,0.0,0.0,0.0,-1.0
378721683,378721112,0.010552804,0.004325424,0.016352454,0.32896033,0.0,0.0,0.0,-1.0
378774143,378773574,0.011984774,0.008041824,0.006679097,0.32732666,0.0,0.0,0.0,-1.0
378823693,378823041,-0.016414804,0.031300116,0.010582411,0.32503355,0.0,0.0,0.0,-1.0
378871595,378871023,0.0046768766,0.009674385,0.009859882,0.32278115,0.0,0.0,0.0,-1.0
378924040,378923464,0.0069788815,0.026989983,0.013121097,0.32315195,0.0,0.0,0.0,-1.0
378973586,378972932,0.013779211,0.012163017,0.015624703,0.32314232,0.0,0.0,0.0,-1.0
379022979,379022412,0.010564831,-0.004691677,0.015257602,0.31765726,0.0,0.0,0.0,-1.0
379072448,379071860,0.0200604,-0.0015517519,0.015894022,0.3271765,0.0,0.0,0.0,-1.0
379121890,379121319,-0.0049186475,0.028345142,0.010271144,0.33107427,0.0,0.0,0.0,-1.0
379172922,379172287,-0.011536922,0.009182383,0.0126287,0.32646555,0.0,0.0,0.0,-1.0
379222335,379221752,0.020293137,0.020763041,0.014811172,0.32196194,0.0,0.0,0.0,-1.0
379274791,379274208,-0.014982627,0.010270375,0.014870218,0.32642272,0.0,0.0,0.0,-1.0
379324244,379323672,0.0144802295,-0.0043116957,0.017570522,0.3438718,0.0,0.0,0.0,-1.0
379372214,379371638,0.031474072,0.00018233206,0.008310564,0.36263138,0.0,0.0,0.0,-1.0
379421670,379421100,-0.02770682,0.02659499,0.0072349804,0.34272814,0.0,0.0,0.0,-1.0
379471152,379470567,0.015903497,0.014257578,0.009464256,0.31800905,0.0,0.0,0.0,-1.0
379523694,379523032,-0.0072328504,0.03036083,0.009806948,0.30598685,0.0,0.0,0.0,-1.0
379571574,379571004,-0.008406932,0.015948007,0.011819062,0.30735934,0.0,0.0,0.0,-1.0
379624088,379623456,0.012316362,-0.0025834858,0.006770191,0.31027544,0.0,0.0,0.0,-1.0
379673493,379672916,0.0029817054,0.017793952,0.0110032335,0.31072688,0.0,0.0,0.0,-1.0
379722976,379722405,-0.0030630373,0.03875667,0.0076378314,0.31548464,0.0,0.0,0.0,-1.0
379770989,379770358,-0.0072090724,0.033345334,0.007066269,0.32429972,0.0,0.0,0.0,-1.0
379823469,379822813,0.014536692,0.0030046082,0.014632833,0.32480842,0.0,0.0,0.0,-1.0
379872891,379872271,0.021176448,0.017601166,0.009563862,0.3269611,0.0,0.0,0.0,-1.0
379922312,379921735,-0.009894954,0.016188169,0.005897602,0.32722107,0.0,0.0,0.0,-1.0
379971769,379971199,0.0013475318,0.009903329,0.012774535,0.325555,0.0,0.0,0.0,-1.0
380021245,380020663,0.030914402,0.012721232,0.008407081,0.32467937,0.0,0.0,0.0,-1.0
380072250,380071625,-0.013261526,0.030893946,0.0076266374,0.32811457,0.0,0.0,0.0,-1.0
380121665,380121089,0.012098518,0.009671259,0.013315202,0.3262241,0.0,0.0,0.0,-1.0
380174167,380173583,0.011686357,0.010124646,0.0076031317,0.32447094,0.0,0.0,0.0,-1.0
380223593,380223016,-0.009117305,0.028858965,0.0063247504,0.38307577,0.0,0.0,0.0,-1.0
380271552,380270983,0.0062557496,0.014386019,0.0064513017,0.3762081,0.0,0.0,0.0,-1.0
380321028,380320453,0.013588837,0.023030842,0.006796793,0.3660667,0.0,0.0,0.0,-1.0
380371992,380371410,0.0012109601,0.006952348,0.005580281,0.3550294,0.0,0.0,0.0,-1.0
380423026,380422398,-0.0018960929,0.02795448,0.007188802,0.34172976,0.0,0.0,0.0,-1.0
380470904,380470335,0.0051947143,0.029855153,0.0091030365,0.34574193,0.0,0.0,0.0,-1.0
380523442,380522796,0.015943121,0.0024624038,0.010083005,0.3396449,0.0,0.0,0.0,-1.0
380572829,380572260,0.00010868471,0.031006541,0.0044581844,0.35095647,0.0,0.0,0.0,-1.0
380623793,380623223,0.0012327302,0.017128892,0.013316551,0.33843693,0.0,0.0,0.0,-1.0
380674760,380674186,0.011732305,0.015913378,0.0066568227,0.31543893,0.0,0.0,0.0,-1.0
380724234,380723650,-0.0102301445,0.021127796,0.011913321,0.3022598,0.0,0.0,0.0,-1.0
380772196,380771615,0.004124408,0.013559559,0.01249319,0.30952698,0.0,0.0,0.0,-1.0
380821650,380821079,0.008285111,0.0040947935,0.007934377,0.32983243,0.0,0.0,0.0,-1.0
380874119,380873544,-0.005219139,0.04159954,0.011275486,0.3426676,0.0,0.0,0.0,-1.0
380923671,380923011,-0.0023948208,0.022220349,0.012408623,0.3501058,0.0,0.0,0.0,-1.0
380971543,380970968,0.011210338,-0.0015084967,0.014938292,0.32988355,0.0,0.0,0.0,-1.0
381024002,381023432,-0.002887059,0.020026537,0.0075115683,0.3220989,0.0,0.0,0.0,-1.0
381073484,381072895,-0.019848542,0.010340888,0.014382345,0.31973514,0.0,0.0,0.0,-1.0
381122988,381122360,0.018477585,0.025337046,0.013943212,0.32052836,0.0,0.0,0.0,-1.0
381172414,381171824,0.008668232,0.03411817,0.012432665,0.32040024,0.0,0.0,0.0,-1.0
381221879,381221288,0.0007429481,0.03137227,0.016624426,0.3165104,0.0,0.0,0.0,-1.0
381271327,381270751,0.026578985,0.0019650022,0.016458511,0.29752702,0.0,0.0,0.0,-1.0
381322342,381321714,0.016509859,0.0006721938,0.012804838,0.28512338,0.0,0.0,0.0,-1.0
381374762,381374177,0.00080880185,0.024804113,0.011075197,0.26611602,0.0,0.0,0.0,-1.0
381424298,381423650,-0.003523932,0.019135032,0.013028931,0.27993587,0.0,0.0,0.0,-1.0
381472180,381471605,0.001025599,0.016413372,0.013720407,0.29635248,0.0,0.0,0.0,-1.0
381521640,381521069,-0.001705689,0.0017422172,0.013867085,0.3152539,0.0,0.0,0.0,-1.0
381571116,381570533,0.01452654,-0.014223851,0.016011989,0.3215143,0.0,0.0,0.0,-1.0
381623671,381623001,0.012781329,0.0026376813,0.0035406223,0.33072045,0.0,0.0,0.0,-1.0
381671531,381670958,-0.018372798,0.028470306,0.0029765302,0.32960075,0.0,0.0,0.0,-1.0
381724055,381723427,0.014741043,0.010627699,0.011267461,0.32831463,0.0,0.0,0.0,-1.0
381773463,381772886,0.02069665,0.015449362,0.005574977,0.3279733,0.0,0.0,0.0,-1.0
381822947,381822354,-0.006527646,0.020388577,0.0058891457,0.32295564,0.0,0.0,0.0,-1.0
381870891,381870322,-0.00032867715,0.003913431,0.0071961936,0.31854573,0.0,0.0,0.0,-1.0
381923441,381922783,-0.005954691,0.01945602,0.0070513124,0.31926686,0.0,0.0,0.0,-1.0
381972879,381972255,0.018285092,0.028136907,0.009108669,0.3179897,0.0,0.0,0.0,-1.0
382022283,382021705,0.008797415,0.026861243,0.008162876,0.31756076,0.0,0.0,0.0,-1.0
382071757,382071186,0.008690099,0.0082332995,0.009962577,0.31933874,0.0,0.0,0.0,-1.0
382124294,382123635,0.026990566,0.0025412801,0.0039383555,0.315328,0.0,0.0,0.0,-1.0
382172219,382171603,0.009557017,0.020492466,0.001559838,0.31493556,0.0,0.0,0.0,-1.0
382221715,382221079,-0.02232909,0.03147324,0.005470799,0.31815764,0.0,0.0,0.0,-1.0
382274138,382273538,0.017429024,0.005783228,0.010916865,0.33283225,0.0,0.0,0.0,-1.0
382323563,382322986,0.031656522,0.008228339,0.0051184925,0.34385094,0.0,0.0,0.0,-1.0
382371517,382370948,0.004510497,0.021401504,0.0076468256,0.33227134,0.0,0.0,0.0,-1.0
382422486,382421915,0.0023936138,0.007965512,0.0067944806,0.31695923,0.0,0.0,0.0,-1.0
382471970,382471387,0.009710345,0.016500797,0.004795805,0.33380648,0.0,0.0,0.0,-1.0
382522968,382522342,0.0026701984,0.038051333,0.008456245,0.34742558,0.0,0.0,0.0,-1.0
382570880,382570307,0.007637342,0.02179237,0.008035868,0.36582512,0.0,0.0,0.0,-1.0
382623434,382622772,0.018204655,0.004309742,0.006036357,0.37238798,0.0,0.0,0.0,-1.0
382672802,382672233,-0.005699033,0.028241366,0.0029599317,0.37962544,0.0,0.0,0.0,-1.0
382722285,382721701,0.018155916,0.010676271,0.009257677,0.37649146,0.0,0.0,0.0,-1.0
382771738,382771161,-0.00498565,0.025122613,0.0022396196,0.3622274,0.0,0.0,0.0,-1.0
382824285,382823630,0.015820311,0.02159053,0.0077776415,0.3436935,0.0,0.0,0.0,-1.0
382872173,382871598,0.0019341436,0.021935543,0.008287134,0.33377922,0.0,0.0,0.0,-1.0
382921632,382921052,0.0014955612,-0.005864214,0.01075953,0.31646642,0.0,0.0,0.0,-1.0
382974083,382973514,-0.0058742557,0.026326666,0.007494196,0.32413504,0.0,0.0,0.0,-1.0
383023608,383022986,-0.0038200333,0.037540227,0.009585045,0.32652017,0.0,0.0,0.0,-1.0
383071582,383070943,0.0133665465,0.021687105,0.0110410685,0.33542883,0.0,0.0,0.0,-1.0
383124032,383123405,0.01493907,0.0033607483,0.011321782,0.32462892,0.0,0.0,0.0,-1.0
383173496,383172869,0.009883794,0.012795068,0.007555657,0.3238306,0.0,0.0,0.0,-1.0
383222904,383222333,-0.005887362,0.017632488,0.007476799,0.3245512,0.0,0.0,0.0,-1.0
383272384,383271806,-0.009470893,0.013795802,0.013226908,0.32419842,0.0,0.0,0.0,-1.0
383321835,383321262,0.017282605,0.031177323,0.00947814,0.3295119,0.0,0.0,0.0,-1.0
383371308,383370736,-0.01301379,0.039138902,0.010743781,0.3303401,0.0,0.0,0.0,-1.0
383422344,383421693,0.017490255,-0.00031045848,0.015491073,0.330761,0.0,0.0,0.0,-1.0
383471789,383471153,0.034714494,1.8290077e-06,0.007140284,0.3285769,0.0,0.0,0.0,-1.0
383524206,383523617,-0.012786011,0.026985263,0.009890305,0.32884255,0.0,0.0,0.0,-1.0
383572169,383571590,-0.0015370318,0.019692956,0.010202683,0.32854274,0.0,0.0,0.0,-1.0
383623114,383622544,0.013171264,0.024043767,0.011603828,0.32993802,0.0,0.0,0.0,-1.0
383672579,383672008,0.014897197,0.025996745,0.010839453,0.33228505,0.0,0.0,0.0,-1.0
383723637,383723025,0.015813535,-0.005546719,0.010737456,0.33217105,0.0,0.0,0.0,-1.0
383771507,383770936,0.019840749,-0.0124159595,0.009222428,0.33032808,0.0,0.0,0.0,-1.0
383824030,383823401,-0.010884678,0.038814828,0.005868219,0.33395576,0.0,0.0,0.0,-1.0
383873441,383872862,-0.016317323,0.020852895,0.011705359,0.33622307,0.0,0.0,0.0,-1.0
383922966,383922330,0.026639499,0.00128773,0.010563213,0.3226543,0.0,0.0,0.0,-1.0
383970890,383970295,0.02818978,0.01588994,0.005181678,0.31049886,0.0,0.0,0.0,-1.0
384023333,384022754,-0.010387294,0.0010667712,0.010230929,0.3000995,0.0,0.0,0.0,-1.0
384072792,384072222,0.0036030402,-0.0005711847,0.010021277,0.31144723,0.0,0.0,0.0,-1.0
384122255,384121682,0.016527198,0.004547646,0.004083792,0.33097345,0.0,0.0,0.0,-1.0
384171734,384171146,-0.013060321,0.03631779,0.0048191664,0.34631526,0.0,0.0,0.0,-1.0
384221222,384220643,0.0018129244,0.027679173,0.00933954,0.3344615,0.0,0.0,0.0,-1.0
384272200,384271574,0.022515727,-0.0042474344,0.0065707103,0.31427476,0.0,0.0,0.0,-1.0
384321684,384321058,0.0041784765,0.012061888,0.0040211533,0.29809627,0.0,0.0,0.0,-1.0
384374098,384373505,-0.008416615,0.026860863,0.0066800653,0.29042283,0.0,0.0,0.0,-1.0
384423654,384423009,-0.005992,0.018192621,0.0076840287,0.3014696,0.0,0.0,0.0,-1.0
384473004,384472429,0.015948981,0.01822875,0.010628499,0.3173078,0.0,0.0,0.0,-1.0
384522475,384521893,0.025813203,0.024606764,0.007730659,0.32980546,0.0,0.0,0.0,-1.0
384570461,384569858,0.011551281,0.035376765,0.0042539183,0.33857444,0.0,0.0,0.0,-1.0
384622963,384622324,0.0014994728,0.0018557446,0.010339817,0.34834364,0.0,0.0,0.0,-1.0
384670864,384670286,0.022740781,-0.00986176,0.006110549,0.33715215,0.0,0.0,0.0,-1.0
384723401,384722754,-0.02475003,0.034926604,0.0025754017,0.3293493,0.0,0.0,0.0,-1.0
384774287,384773711,0.009122758,0.005368629,0.007986206,0.32755527,0.0,0.0,0.0,-1.0
384822261,384821683,0.019079408,-0.0029474,0.0048128814,0.32682243,0.0,0.0,0.0,-1.0
384871720,384871140,0.013619598,0.011366443,0.0036036046,0.32085326,0.0,0.0,0.0,-1.0
384924202,384923607,-0.0051391465,0.027483288,0.005019826,0.31358236,0.0,0.0,0.0,-1.0
384972144,384971568,-0.009228159,0.01547219,0.004992942,0.32638493,0.0,0.0,0.0,-1.0
385021603,385021032,0.008493581,0.011886152,0.009746645,0.3172755,0.0,0.0,0.0,-1.0
385074065,385073496,0.019078046,0.018698549,0.0042992956,0.31779376,0.0,0.0,0.0,-1.0
385123594,385122978,0.003231422,0.016194724,0.0057900953,0.32837188,0.0,0.0,0.0,-1.0
385171528,385170934,-0.0019904268,-0.0009514416,0.0078058844,0.31632626,0.0,0.0,0.0,-1.0
385221039,385220410,0.014163956,-0.0034696432,0.003982577,0.3036207,0.0,0.0,0.0,-1.0
385273510,385272856,-0.005628195,0.03839832,0.0037534325,0.28541368,0.0,0.0,0.0,-1.0
385322885,385322314,-0.015030935,0.03344642,0.0063401856,0.28366485,0.0,0.0,0.0,-1.0
385370849,385370280,-0.014905017,0.033048958,0.00885722,0.29481196,0.0,0.0,0.0,-1.0
385421820,385421243,0.006824971,0.014535139,0.010536839,0.3129334,0.0,0.0,0.0,-1.0
385472817,385472206,0.022238325,-0.0048138252,0.005040674,0.30351272,0.0,0.0,0.0,-1.0
385522296,385521671,0.01630414,0.008485373,0.0067904727,0.28901234,0.0,0.0,0.0,-1.0
385571714,385571135,0.0051926365,0.01866102,0.0064163073,0.29098806,0.0,0.0,0.0,-1.0
385625762,385625110,-0.0027935526,0.014519474,0.0048484826,0.28251472,0.0,0.0,0.0,-1.0
385672140,385671562,-0.0026148055,0.009905773,0.0044634766,0.29300332,0.0,0.0,0.0,-1.0
385723096,385722526,-0.00037895117,0.008397191,0.0043582986,0.30600864,0.0,0.0,0.0,-1.0
385772572,385771990,0.01427677,0.00838083,0.0077093923,0.324844,0.0,0.0,0.0,-1.0
385823594,385822962,0.017772002,0.022336436,0.0021886667,0.3396687,0.0,0.0,0.0,-1.0
385871496,385870919,-0.002641369,0.033648487,0.0016584315,0.33953786,0.0,0.0,0.0,-1.0
385923987,385923397,0.019111449,0.00011261774,0.009941661,0.3322753,0.0,0.0,0.0,-1.0
385973427,385972845,0.023151744,0.010477011,0.0009250516,0.32755008,0.0,0.0,0.0,-1.0
386022889,386022309,-0.022311326,0.035557035,0.0011902539,0.32759443,0.0,0.0,0.0,-1.0
386070872,386070281,-0.010473647,0.02426815,0.0077866726,0.32394895,0.0,0.0,0.0,-1.0
386123316,386122738,0.020020125,0.008616789,0.0062131253,0.32358918,0.0,0.0,0.0,-1.0
386172783,386172212,0.0065876553,0.018895822,0.005159205,0.32170126,0.0,0.0,0.0,-1.0
386222236,386221666,0.001894199,0.017984172,0.0057753003,0.32145682,0.0,0.0,0.0,-1.0
386271720,386271134,0.008956938,0.001188868,0.0030705528,0.32252255,0.0,0.0,0.0,-1.0
386321185,386320598,0.000394201,0.009264679,0.0062614596,0.33540055,0.0,0.0,0.0,-1.0
386372191,386371558,0.0160467,0.031764038,0.0052319188,0.35568762,0.0,0.0,0.0,-1.0
386421599,386421030,0.0012397366,0.0051331148,0.0082885595,0.36412853,0.0,0.0,0.0,-1.0
386474088,386473491,0.009471001,0.025989449,-0.00041885895,0.3874485,0.0,0.0,0.0,-1.0
386523646,386523009,0.001257072,0.010090071,0.00800303,0.39272064,0.0,0.0,0.0,-1.0
386571491,386570914,0.030154925,0.020660702,0.0049823895,0.4032193,0.0,0.0,0.0,-1.0
386622474,386621878,0.00020777404,0.021224784,0.008968205,0.38678998,0.0,0.0,0.0,-1.0
386671922,386671342,0.0100741265,0.031002805,0.0036826606,0.36811736,0.0,0.0,0.0,-1.0
386722875,386722305,0.009012434,0.00882738,0.009094904,0.34799537,0.0,0.0,0.0,-1.0
386770855,386770273,0.005329333,0.0390861,0.008567845,0.33326566,0.0,0.0,0.0,-1.0
386823369,386822740,0.020028558,-0.00544003,0.012994348,0.32197446,0.0,0.0,0.0,-1.0
386872767,386872197,0.019923799,-0.0038705866,0.00618927,0.31549603,0.0,0.0,0.0,-1.0
386922235,386921662,-0.010900428,0.025534386,0.007116109,0.3184104,0.0,0.0,0.0,-1.0
386973207,386972626,0.0040295688,0.022865217,0.010695499,0.32440913,0.0,0.0,0.0,-1.0
387024246,387023596,0.015718162,0.01234671,0.014881151,0.32897356,0.0,0.0,0.0,-1.0
387072124,387071554,0.01551821,0.028593978,0.013209705,0.3346326,0.0,0.0,0.0,-1.0
387121589,387121019,0.015856417,0.0130172735,0.010907937,0.33822885,0.0,0.0,0.0,-1.0
387175564,387174987,0.012303482,0.000447577,0.0100778565,0.3362723,0.0,0.0,0.0,-1.0
387223583,387222953,-0.0041278345,0.026800621,0.00798113,0.33736065,0.0,0.0,0.0,-1.0
387271500,387270917,-0.01830783,0.02658532,0.009738465,0.32838798,0.0,0.0,0.0,-1.0
387324028,387323390,0.027654452,0.021059068,0.012130326,0.325394,0.0,0.0,0.0,-1.0
387373444,387372844,0.0008537706,0.017114758,0.00948933,0.3018282,0.0,0.0,0.0,-1.0
387422879,387422309,0.0011526624,0.0106133735,0.01257229,0.2927743,0.0,0.0,0.0,-1.0
387470845,387470268,0.009473917,-0.0059080455,0.015332128,0.27921003,0.0,0.0,0.0,-1.0
387521807,387521231,0.018112468,0.0010410426,0.009330303,0.25318944,0.0,0.0,0.0,-1.0
387572763,387572194,-0.003242194,0.0122503685,0.009543595,0.2377855,0.0,0.0,0.0,-1.0
387622281,387621659,-3.8986003e-05,0.016029328,0.011498082,0.24090268,0.0,0.0,0.0,-1.0
387671724,387671127,0.00818996,0.0156104,0.01479933,0.2561277,0.0,0.0,0.0,-1.0
387724176,387723586,0.006796338,0.021081937,0.016520765,0.2781866,0.0,0.0,0.0,-1.0
387772120,387771551,0.011489305,0.026229395,0.018438695,0.29296118,0.0,0.0,0.0,-1.0
387821591,387821022,0.0056171673,0.029869905,0.01396982,0.31069407,0.0,0.0,0.0,-1.0
387871052,387870483,-0.007736878,0.025230749,0.011471099,0.33131543,0.0,0.0,0.0,-1.0
387923598,387922951,0.023699738,-0.005845498,0.013425836,0.3445834,0.0,0.0,0.0,-1.0
387971482,387970908,0.033745967,0.009529699,0.011189151,0.325848,0.0,0.0,0.0,-1.0
388024022,388023395,-0.016283898,0.016504865,0.008030048,0.3292168,0.0,0.0,0.0,-1.0
388073413,388072835,0.008466308,0.008398658,0.01321266,0.32360676,0.0,0.0,0.0,-1.0
388122881,388122305,0.020340066,0.033486824,0.00952914,0.3249107,0.0,0.0,0.0,-1.0
388170844,388170272,-0.00888204,0.04169485,0.010173924,0.32637474,0.0,0.0,0.0,-1.0
388223368,388222736,0.028134616,0.0003002486,0.015598017,0.3055402,0.0,0.0,0.0,-1.0
388272780,388272213,0.0269764,0.002808356,0.008412023,0.31451944,0.0,0.0,0.0,-1.0
388322227,388321657,-0.0047319643,0.014797908,0.007671102,0.30681476,0.0,0.0,0.0,-1.0
388371710,388371121,-0.0089917695,0.016038558,0.009903097,0.31885207,0.0,0.0,0.0,-1.0
388421155,388420585,0.0093659405,0.0016839287,0.009603942,0.3117902,0.0,0.0,0.0,-1.0
388472177,388471553,-0.0023390832,0.02709832,0.011923296,0.30751523,0.0,0.0,0.0,-1.0
388521589,388521013,0.0074336044,0.034542926,0.013726067,0.3200566,0.0,0.0,0.0,-1.0
388574088,388573476,0.0036013569,0.005977398,0.01395888,0.3241406,0.0,0.0,0.0,-1.0
388623611,388622966,0.010612879,-0.007366846,0.012583964,0.32332933,0.0,0.0,0.0,-1.0
388671491,388670911,0.021652043,0.008082003,0.011377626,0.3276051,0.0,0.0,0.0,-1.0
388720951,388720370,-0.008832195,0.016915059,0.0059709204,0.32632962,0.0,0.0,0.0,-1.0
388771917,388771334,-0.008162484,0.011727742,0.014356801,0.31698453,0.0,0.0,0.0,-1.0
388822942,388822304,0.02366772,0.028580952,0.014181779,0.29842162,0.0,0.0,0.0,-1.0
388870862,388870293,-0.0004998332,0.04404348,0.013850163,0.30657867,0.0,0.0,0.0,-1.0
388923378,388922729,0.010787981,0.011391255,0.017049182,0.31127077,0.0,0.0,0.0,-1.0
388972765,388972190,0.03088183,-0.008540426,0.01414758,0.32709432,0.0,0.0,0.0,-1.0
389022223,389021654,0.02133969,-0.0021497656,0.010320178,0.3405601,0.0,0.0,0.0,-1.0
389073206,389072638,-0.009890375,0.019397434,0.008025776,0.32904908,0.0,0.0,0.0,-1.0
389124206,389123588,-0.0010542305,0.014152128,0.01055693,0.313077,0.0,0.0,0.0,-1.0
389172132,389171553,0.0018003292,0.027873347,0.0134221455,0.33180225,0.0,0.0,0.0,-1.0
389221597,389221028,0.01621329,0.02870997,0.013174263,0.31991127,0.0,0.0,0.0,-1.0
389274052,389273474,0.0013755506,0.0020023123,0.012198742,0.31627277,0.0,0.0,0.0,-1.0
389323585,389322943,0.016139004,-0.0131073985,0.0139414165,0.32402477,0.0,0.0,0.0,-1.0
389371557,389370908,0.020644855,-0.0026194607,0.007861735,0.34308627,0.0,0.0,0.0,-1.0
389423944,389423367,-0.019483227,0.019604547,0.0087388875,0.34195602,0.0,0.0,0.0,-1.0
389473434,389472835,0.019508166,0.014318117,0.014503749,0.33030915,0.0,0.0,0.0,-1.0
389522874,389522296,0.01368922,0.019448994,0.008891291,0.33076146,0.0,0.0,0.0,-1.0
389572331,389571761,-0.015981924,0.009887685,0.009011328,0.32515907,0.0,0.0,0.0,-1.0
389621809,389621231,0.009682867,-0.0003024332,0.0076509123,0.3262548,0.0,0.0,0.0,-1.0
389672820,389672188,-0.0022762145,0.027217126,0.011450516,0.3149421,0.0,0.0,0.0,-1.0
389722243,389721657,0.007051802,0.032357942,0.012400882,0.30188215,0.0,0.0,0.0,-1.0
389771737,389771122,0.011334992,0.01793692,0.014129682,0.3048383,0.0,0.0,0.0,-1.0
389824169,389823580,0.013112821,-0.0002945161,0.013965823,0.31384495,0.0,0.0,0.0,-1.0
389872115,389871546,0.027036475,0.009473721,0.013437267,0.32613733,0.0,0.0,0.0,-1.0
389921588,389921011,0.0059283674,0.013821936,0.009472477,0.32659584,0.0,0.0,0.0,-1.0
389971044,389970475,-0.017576573,-0.0041720867,0.012883241,0.32738867,0.0,0.0,0.0,-1.0
390023537,390022947,0.010099272,0.01638203,0.014536107,0.3213688,0.0,0.0,0.0,-1.0
390071485,390070904,-0.0111446325,0.035830155,0.014597012,0.32585114,0.0,0.0,0.0,-1.0
390124033,390123407,0.005955977,0.0034881711,0.020345492,0.3112291,0.0,0.0,0.0,-1.0
390173413,390172831,0.036201973,-0.0035023983,0.014543014,0.2948564,0.0,0.0,0.0,-1.0
390222877,390222295,-0.0035000388,0.019521942,0.01604506,0.29984722,0.0,0.0,0.0,-1.0
390270878,390270258,-0.012431037,0.018014954,0.01914633,0.3142457,0.0,0.0,0.0,-1.0
390323344,390322724,-0.0063741626,0.004152158,0.016493961,0.33350244,0.0,0.0,0.0,-1.0
390372792,390372217,-0.008217306,0.007263049,0.01818849,0.3438845,0.0,0.0,0.0,-1.0
390422239,390421670,-0.016562013,0.03325732,0.015926292,0.36119416,0.0,0.0,0.0,-1.0
390471721,390471139,-0.013460808,0.006886324,0.022902885,0.3486987,0.0,0.0,0.0,-1.0
390524211,390523580,-0.02371792,0.023988912,0.014159042,0.32558596,0.0,0.0,0.0,-1.0
390572184,390571549,-0.016948054,0.03612724,0.020926319,0.3264537,0.0,0.0,0.0,-1.0
390621653,390621029,0.0026734183,0.02210109,0.020711748,0.32848355,0.0,0.0,0.0,-1.0
390674056,390673480,0.0016515709,0.029190531,0.017177794,0.32976168,0.0,0.0,0.0,-1.0
390723580,390722944,-0.013433964,0.0086296415,0.016001066,0.31947312,0.0,0.0,0.0,-1.0
390771485,390770903,0.0017612575,-0.0053665303,0.017781613,0.30997095,0.0,0.0,0.0,-1.0
390822453,390821867,-0.008183294,0.01904905,0.011678732,0.30081534,0.0,0.0,0.0,-1.0
390871908,390871332,-0.029469645,0.040097807,0.014673823,0.32258216,0.0,0.0,0.0,-1.0
390922954,390922324,-0.0060873884,0.022539679,0.014015156,0.34097782,0.0,0.0,0.0,-1.0
390970838,390970261,-0.00020119351,0.0057618995,0.014264282,0.33566353,0.0,0.0,0.0,-1.0
391024814,391024230,-0.005574648,0.018268086,0.006271119,0.33309957,0.0,0.0,0.0,-1.0
391072769,391072188,-0.031582247,0.019721858,0.005701772,0.3328287,0.0,0.0,0.0,-1.0
391122279,391121660,0.00026022337,0.016890569,0.01017356,0.33158758,0.0,0.0,0.0,-1.0
391173194,391172618,0.006686865,0.013957032,0.006719262,0.33313596,0.0,0.0,0.0,-1.0
391224161,391223581,-0.003413944,0.011222746,0.0060334005,0.33312514,0.0,0.0,0.0,-1.0
391272123,391271547,0.0016913083,0.00375544,0.0012970578,0.33272073,0.0,0.0,0.0,-1.0
391321581,391321011,-0.012596559,0.003858777,0.00631454,0.32790303,0.0,0.0,0.0,-1.0
391374090,391373512,0.004914746,0.023907572,0.002106134,0.32914522,0.0,0.0,0.0,-1.0
391423579,391422942,0.000420797,0.017654706,0.0030798372,0.32539046,0.0,0.0,0.0,-1.0
391471549,391470908,-0.00083978,-0.00370371,0.004233433,0.30292752,0.0,0.0,0.0,-1.0
391523958,391523379,0.003945763,0.021437518,-0.0011545195,0.30190113,0.0,0.0,0.0,-1.0
391573433,391572835,-0.010537842,0.035969615,6.812862e-05,0.31956384,0.0,0.0,0.0,-1.0
391622896,391622328,-0.011980355,0.02676785,0.0018651668,0.32985288,0.0,0.0,0.0,-1.0
391670831,391670262,-0.008288436,0.019228902,0.0015146709,0.32815826,0.0,0.0,0.0,-1.0
391721802,391721226,-0.0046971906,-0.0038690437,-0.005024787,0.31951448,0.0,0.0,0.0,-1.0
391772806,391772189,0.005656816,0.007786529,-0.0027458202,0.3166495,0.0,0.0,0.0,-1.0
391822295,391821657,0.017480683,0.024580792,-0.004682671,0.3234012,0.0,0.0,0.0,-1.0
391871774,391871147,0.0013181495,0.027930943,-0.005937796,0.32541457,0.0,0.0,0.0,-1.0
391924168,391923581,-0.009144167,-0.0015748737,-0.0041801045,0.32261783,0.0,0.0,0.0,-1.0
391973617,391973047,0.017237376,-0.006801678,-0.0053109573,0.32422525,0.0,0.0,0.0,-1.0
392023082,392022511,0.024175638,0.007658384,-0.0071780942,0.3240419,0.0,0.0,0.0,-1.0
392072546,392071976,0.0011657747,0.02378669,-0.0034441624,0.33114436,0.0,0.0,0.0,-1.0
392123571,392122940,-5.016376e-05,0.0086541325,-0.0017637226,0.3333056,0.0,0.0,0.0,-1.0
392171491,392170905,0.0008826917,0.0005160463,-0.0015129346,0.33017686,0.0,0.0,0.0,-1.0
392223987,392223362,0.0010007847,0.020586023,-0.0025588288,0.33300927,0.0,0.0,0.0,-1.0
392273411,392272833,-0.0035767024,0.026491698,-0.00035771783,0.33477357,0.0,0.0,0.0,-1.0
392322970,392322330,-0.002258857,0.01199803,-0.00087209797,0.33292,0.0,0.0,0.0,-1.0
392370861,392370270,-0.0107027115,0.0055010747,-0.00526462,0.32724383,0.0,0.0,0.0,-1.0
392423350,392422726,0.026199158,0.025397964,0.0005943004,0.3208848,0.0,0.0,0.0,-1.0
392472780,392472212,0.009504276,0.036773384,-0.003443677,0.32495376,0.0,0.0,0.0,-1.0
392522229,392521656,-0.0098304385,0.029140746,-0.0043335534,0.32024673,0.0,0.0,0.0,-1.0
392571714,392571128,-0.0010351259,0.012606405,-0.004313627,0.32048082,0.0,0.0,0.0,-1.0
392624236,392623589,0.020662533,0.0140686035,-0.0051244115,0.3059867,0.0,0.0,0.0,-1.0
392672170,392671553,0.016813794,0.02680075,-0.0038158821,0.29098782,0.0,0.0,0.0,-1.0
392721590,392721021,0.008405529,0.03797515,-0.00028568742,0.2829231,0.0,0.0,0.0,-1.0
392774093,392773498,0.01085704,0.01805215,0.0036128312,0.29296607,0.0,0.0,0.0,-1.0
392823612,392822953,0.005965923,0.013058886,0.004601451,0.30829197,0.0,0.0,0.0,-1.0
392871493,392870907,0.020445872,0.010621072,0.006141218,0.32677844,0.0,0.0,0.0,-1.0
392922456,392921871,0.021489104,-0.010473067,0.0028969191,0.3425681,0.0,0.0,0.0,-1.0
392971907,392971336,0.0086779585,0.005688405,0.002744387,0.34923568,0.0,0.0,0.0,-1.0
393022923,393022299,0.0107079595,0.007135877,0.0096944645,0.35536563,0.0,0.0,0.0,-1.0
393070845,393070271,0.01580588,0.017599823,0.012973884,0.34953454,0.0,0.0,0.0,-1.0
393123365,393122734,0.0028012262,0.010730196,0.016355997,0.3465379,0.0,0.0,0.0,-1.0
393172763,393172193,0.011399498,-0.000110758134,0.01551725,0.34992233,0.0,0.0,0.0,-1.0
393223735,393223157,-0.01349853,0.043252222,0.02458783,0.35240546,0.0,0.0,0.0,-1.0
393271777,393271137,0.007452643,0.0040819435,0.02963065,0.3496475,0.0,0.0,0.0,-1.0
393324180,393323595,0.014098157,0.016777616,0.030454151,0.3489492,0.0,0.0,0.0,-1.0
393372123,393371552,-0.0011869138,-0.0046797316,0.034665335,0.34685478,0.0,0.0,0.0,-1.0
393421587,393421017,0.011836661,0.017922584,0.02767837,0.34008455,0.0,0.0,0.0,-1.0
393474081,393473495,0.0022793417,0.026930673,0.0399929,0.32121438,0.0,0.0,0.0,-1.0
393523536,393522951,-0.00035033314,0.04648758,0.042093508,0.32122874,0.0,0.0,0.0,-1.0
393571488,393570910,-0.007103168,0.025142336,0.04749862,0.31620374,0.0,0.0,0.0,-1.0
393623965,393623379,0.011786569,0.030718483,0.040475946,0.31612825,0.0,0.0,0.0,-1.0
393673439,393672843,0.009412576,0.008966723,0.04733825,0.32138735,0.0,0.0,0.0,-1.0
393722873,393722303,0.017708264,0.030879445,0.040825237,0.32513946,0.0,0.0,0.0,-1.0
393770838,393770269,-0.007625767,0.034998216,0.04328779,0.3281671,0.0,0.0,0.0,-1.0
393821810,393821234,0.026929816,0.016676964,0.04259077,0.33086362,0.0,0.0,0.0,-1.0
393872769,393872200,-0.004622296,0.01761799,0.04379946,0.33644035,0.0,0.0,0.0,-1.0
393922237,393921661,0.04473352,0.00019249394,0.03665884,0.33322263,0.0,0.0,0.0,-1.0
393971706,393971126,0.00095740095,0.025537893,0.036708497,0.32769355,0.0,0.0,0.0,-1.0
394024176,394023589,0.0069228914,0.014388979,0.029166073,0.30876952,0.0,0.0,0.0,-1.0
394072124,394071555,-0.013744317,0.024525428,0.02974887,0.29587734,0.0,0.0,0.0,-1.0
394121600,394121020,0.005660164,0.00033260643,0.028402204,0.27100372,0.0,0.0,0.0,-1.0
394172586,394172018,0.012197044,0.008187067,0.025959266,0.27653334,0.0,0.0,0.0,-1.0
394223535,394222952,0.0023910047,0.020014407,0.025258472,0.29378965,0.0,0.0,0.0,-1.0
394271492,394270913,0.0032490068,0.01545989,0.026428398,0.31430086,0.0,0.0,0.0,-1.0
394324022,394323393,0.0035392235,-0.012504646,0.025352411,0.3314234,0.0,0.0,0.0,-1.0
394373425,394372842,0.020890957,0.0037931986,0.017007083,0.34407797,0.0,0.0,0.0,-1.0
394422876,394422306,-0.027140599,0.021042332,0.013921221,0.35570285,0.0,0.0,0.0,-1.0
394470879,394470290,-0.0011650249,0.01273734,0.015861139,0.36386037,0.0,0.0,0.0,-1.0
394523305,394522735,-7.525794e-05,0.02690442,0.011361134,0.35366684,0.0,0.0,0.0,-1.0
394572784,394572213,0.014982389,0.0077282824,0.0045053256,0.3374059,0.0,0.0,0.0,-1.0
394622236,394621665,-0.015695633,0.03946876,0.005673284,0.31651062,0.0,0.0,0.0,-1.0
394671714,394671130,-0.009443084,0.03814637,0.0069305077,0.29777598,0.0,0.0,0.0,-1.0
394727174,394726598,0.018227315,0.02544503,0.0054062167,0.2852143,0.0,0.0,0.0,-1.0
394772169,394771559,0.021057218,0.018449454,0.0070659006,0.2768173,0.0,0.0,0.0,-1.0
394821678,394821044,0.019409372,0.030883247,0.007068688,0.29247582,0.0,0.0,0.0,-1.0
394874064,394873484,0.0007579119,0.023469118,0.000555051,0.3102499,0.0,0.0,0.0,-1.0
394923595,394922959,-0.015983902,0.027739726,0.0027121564,0.3244541,0.0,0.0,0.0,-1.0
394971498,394970918,0.008095496,0.011846254,0.0065683387,0.343026,0.0,0.0,0.0,-1.0
395071928,395071347,-0.0070005315,0.032606866,-0.00019362186,0.35031092,0.0,0.0,0.0,-1.0
395122913,395122314,0.010381482,-0.0008004406,0.006872215,0.33108333,0.0,0.0,0.0,-1.0
395170858,395170277,0.009021693,0.03019745,-0.0014773809,0.32293463,0.0,0.0,0.0,-1.0
395223387,395222746,-0.0059299413,0.046937417,0.004610258,0.3211567,0.0,0.0,0.0,-1.0
395272773,395272204,0.010735462,0.016278883,0.004270588,0.3281454,0.0,0.0,0.0,-1.0
395322249,395321669,0.017573057,0.00028154918,0.008351103,0.32406458,0.0,0.0,0.0,-1.0
395373211,395372634,0.018533992,0.022176122,0.007187928,0.32783195,0.0,0.0,0.0,-1.0
395424195,395423604,-0.0032933813,0.027321462,0.004082413,0.343868,0.0,0.0,0.0,-1.0
395472135,395471564,0.009398539,0.00053757895,0.00880339,0.35090816,0.0,0.0,0.0,-1.0
395521603,395521028,0.021345248,0.019219283,0.0012448012,0.362783,0.0,0.0,0.0,-1.0
395574060,395573491,-0.005213178,0.013749194,0.010566159,0.34839436,0.0,0.0,0.0,-1.0
395623595,395622967,0.02378581,0.022762712,0.0010908311,0.33651274,0.0,0.0,0.0,-1.0
395671521,395670929,-0.009067852,0.036956277,0.0010841023,0.32617325,0.0,0.0,0.0,-1.0
395724020,395723394,0.025760947,0.012159532,0.012417526,0.31747365,0.0,0.0,0.0,-1.0
395773487,395772850,0.012579518,0.021378107,0.009962742,0.29379627,0.0,0.0,0.0,-1.0
395822903,395822316,0.015886355,0.021320598,0.015193088,0.2947033,0.0,0.0,0.0,-1.0
395870860,395870281,0.0058029126,0.024768215,0.019259483,0.3095393,0.0,0.0,0.0,-1.0
395921828,395921246,0.022637194,-0.0053116386,0.01665192,0.33019727,0.0,0.0,0.0,-1.0
395971283,395970711,0.025420878,-0.0020332509,0.01544077,0.34110036,0.0,0.0,0.0,-1.0
396022258,396021681,0.006799707,0.027215011,0.0140618,0.33987933,0.0,0.0,0.0,-1.0
396071781,396071139,-0.0021467782,0.0070880605,0.012792919,0.34241986,0.0,0.0,0.0,-1.0
396124184,396123602,0.011007543,0.020233685,0.018898524,0.3426152,0.0,0.0,0.0,-1.0
396172201,396171572,0.0043605426,0.0041029546,0.02404134,0.34091386,0.0,0.0,0.0,-1.0
396221646,396221033,0.028065683,0.0013248165,0.021348916,0.3343995,0.0,0.0,0.0,-1.0
396271120,396270508,0.004499964,0.010933088,0.021023858,0.3378431,0.0,0.0,0.0,-1.0
396323606,396322962,0.0038821192,0.024143225,0.02596538,0.3314149,0.0,0.0,0.0,-1.0
396371512,396370928,0.0044656596,0.026249018,0.023422886,0.3366665,0.0,0.0,0.0,-1.0
396424039,396423408,0.025851348,0.0056366655,0.029206345,0.33197463,0.0,0.0,0.0,-1.0
396473466,396472887,0.006778259,0.009331675,0.025271136,0.3319857,0.0,0.0,0.0,-1.0
396522969,396522327,0.0021816883,0.0065732906,0.026432931,0.32997128,0.0,0.0,0.0,-1.0
396570883,396570293,0.01006946,0.021157995,0.021984698,0.33287093,0.0,0.0,0.0,-1.0
396623401,396622760,0.00479069,0.010823974,0.02630397,0.32665867,0.0,0.0,0.0,-1.0
396672783,396672213,0.014757765,0.031132782,0.022795146,0.32948372,0.0,0.0,0.0,-1.0
396722266,396721691,0.000528718,0.015953615,0.024894422,0.33862072,0.0,0.0,0.0,-1.0
396771744,396771164,0.04553701,0.005542662,0.0242347,0.33882767,0.0,0.0,0.0,-1.0
396824268,396823614,-0.0071382183,0.011521864,0.019830262,0.32877043,0.0,0.0,0.0,-1.0
396872210,396871580,0.0067400495,0.008288389,0.021273281,0.33402166,0.0,0.0,0.0,-1.0
396921708,396921083,0.009511699,0.016846577,0.01430832,0.3249134,0.0,0.0,0.0,-1.0
396974134,396973502,0.0059442874,0.012112163,0.021578856,0.3227993,0.0,0.0,0.0,-1.0
397023590,397022967,0.025928177,0.027363248,0.016711492,0.3290783,0.0,0.0,0.0,-1.0
397073011,397072433,0.007136384,0.0056902408,0.019691216,0.33386266,0.0,0.0,0.0,-1.0
397122480,397121898,0.038065966,-0.0016532632,0.021468557,0.33859643,0.0,0.0,0.0,-1.0
397171940,397171363,0.00566559,0.018594503,0.012421823,0.34343705,0.0,0.0,0.0,-1.0
397222916,397222334,0.0006763831,-0.0072790105,0.016832635,0.33189908,0.0,0.0,0.0,-1.0
397270875,397270293,0.02507512,0.028050367,0.014334546,0.33231905,0.0,0.0,0.0,-1.0
397323401,397322759,-0.00093766564,0.0054922393,0.020875093,0.32668978,0.0,0.0,0.0,-1.0
397372832,397372221,0.018724034,0.00804447,0.018886773,0.3312806,0.0,0.0,0.0,-1.0
397422284,397421692,0.023357168,0.005802988,0.016823431,0.32944742,0.0,0.0,0.0,-1.0
397471737,397471151,0.005995618,-0.0040027997,0.020229436,0.3269321,0.0,0.0,0.0,-1.0
397524211,397523620,-0.007435947,0.03474928,0.019094106,0.32613733,0.0,0.0,0.0,-1.0
397572153,397571581,0.0004774061,0.004854672,0.022444742,0.31957343,0.0,0.0,0.0,-1.0
397621616,397621046,0.033411693,0.011837692,0.024323156,0.3154208,0.0,0.0,0.0,-1.0
397674085,397673511,0.00945046,0.0077856947,0.026889546,0.32047018,0.0,0.0,0.0,-1.0
397723621,397722980,0.012121572,-0.0023507194,0.028837431,0.32227236,0.0,0.0,0.0,-1.0
397771540,397770945,0.016003992,0.016272726,0.027141314,0.3280585,0.0,0.0,0.0,-1.0
397823974,397823404,0.007997805,-0.005594878,0.025642412,0.34221363,0.0,0.0,0.0,-1.0
397873541,397872884,0.010807162,0.010416269,0.021587195,0.34701037,0.0,0.0,0.0,-1.0
397922960,397922334,-0.016033625,0.0067867637,0.022086482,0.34019107,0.0,0.0,0.0,-1.0
397970869,397970300,-0.0005193494,0.017094595,0.02562064,0.33872673,0.0,0.0,0.0,-1.0
398021840,398021264,0.006394401,0.012208467,0.027416676,0.3382541,0.0,0.0,0.0,-1.0
398072851,398072228,0.020564236,0.011774027,0.029563244,0.32843423,0.0,0.0,0.0,-1.0
398122342,398121693,-0.005845385,0.002282722,0.025360938,0.3178634,0.0,0.0,0.0,-1.0
398171801,398171165,0.008043683,0.002676525,0.030917486,0.29324302,0.0,0.0,0.0,-1.0
398224274,398223628,-0.011173296,0.02989003,0.025796242,0.3080025,0.0,0.0,0.0,-1.0
398272213,398271588,-0.017871244,0.020357553,0.028373716,0.3219113,0.0,0.0,0.0,-1.0
398323130,398322560,0.023747604,0.016975533,0.026421323,0.33613995,0.0,0.0,0.0,-1.0
398374096,398373517,0.0032934968,0.011310183,0.026531726,0.3437151,0.0,0.0,0.0,-1.0
398423623,398422988,0.027867239,0.01559823,0.031019468,0.34261698,0.0,0.0,0.0,-1.0
398471525,398470948,0.009021484,0.019332133,0.028265666,0.3475599,0.0,0.0,0.0,-1.0
398520989,398520417,-0.0023002555,-0.002425662,0.034831025,0.3321868,0.0,0.0,0.0,-1.0
398573458,398572876,-0.009241106,0.00857058,0.027343564,0.325012,0.0,0.0,0.0,-1.0
398622996,398622347,0.006279349,0.013279255,0.029716408,0.3116417,0.0,0.0,0.0,-1.0
398670884,398670307,0.0013852401,0.028066158,0.027655737,0.29163933,0.0,0.0,0.0,-1.0
398724908,398724273,0.004522847,0.0031928297,0.037514605,0.2865926,0.0,0.0,0.0,-1.0
398772806,398772236,0.021962292,0.002796926,0.03420887,0.29355806,0.0,0.0,0.0,-1.0
398822271,398821701,-0.0013018866,0.0274052,0.031336147,0.31396833,0.0,0.0,0.0,-1.0
398871759,398871173,-0.008135677,0.0302936,0.035736587,0.31689224,0.0,0.0,0.0,-1.0
398924264,398923629,0.029521273,0.01991813,0.029316612,0.3474318,0.0,0.0,0.0,-1.0
398972232,398971602,0.008163816,0.017988836,0.030380897,0.36229694,0.0,0.0,0.0,-1.0
399021720,399021085,0.017627375,-0.015712658,0.030072194,0.3489861,0.0,0.0,0.0,-1.0
399074159,399073531,-0.011813731,0.018724736,0.027417256,0.33373705,0.0,0.0,0.0,-1.0
399123611,399122989,0.0045510256,0.012109016,0.020344868,0.3326797,0.0,0.0,0.0,-1.0
399171530,399170961,0.0008073811,0.036677595,0.024958579,0.329627,0.0,0.0,0.0,-1.0
399221011,399220444,0.0075209495,0.0031560445,0.027026497,0.32405275,0.0,0.0,0.0,-1.0
399271985,399271406,0.008572563,0.019628447,0.02631258,0.3248959,0.0,0.0,0.0,-1.0
399322930,399322349,0.008545358,-0.0017375998,0.02488914,0.32532802,0.0,0.0,0.0,-1.0
399370886,399370316,0.018661669,-0.0013210287,0.021045037,0.32634076,0.0,0.0,0.0,-1.0
399423357,399422778,-0.012237214,0.024149375,0.021112392,0.33368412,0.0,0.0,0.0,-1.0
399472821,399472244,-0.008092683,0.020033415,0.021094304,0.33418772,0.0,0.0,0.0,-1.0
399522292,399521709,-0.0112834405,0.025926726,0.021290075,0.33220002,0.0,0.0,0.0,-1.0
399571798,399571174,0.008557366,0.015399592,0.023743207,0.33206245,0.0,0.0,0.0,-1.0
399624295,399623641,0.013935533,-0.00077798724,0.02281316,0.32893202,0.0,0.0,0.0,-1.0
399672174,399671604,-0.009511459,0.028060453,0.016985795,0.32436493,0.0,0.0,0.0,-1.0
399721649,399721069,-0.009552993,0.014970636,0.022573326,0.31995958,0.0,0.0,0.0,-1.0
399774104,399773533,0.016204374,0.037596695,0.017064927,0.32384622,0.0,0.0,0.0,-1.0
399823616,399822998,-0.021582486,0.03249577,0.021455003,0.32372785,0.0,0.0,0.0,-1.0
399871604,399870970,0.016690716,0.016444184,0.020091906,0.32157373,0.0,0.0,0.0,-1.0
399924022,399923429,0.012514545,0.02158069,0.020218968,0.32670578,0.0,0.0,0.0,-1.0
399973557,399972896,0.0047215275,0.019897724,0.019218642,0.32664198,0.0,0.0,0.0,-1.0
400022953,400022379,0.005042269,-0.0018094975,0.01627353,0.32335958,0.0,0.0,0.0,-1.0
400070897,400070324,0.0020789998,0.001655885,0.016983097,0.3194094,0.0,0.0,0.0,-1.0
400121874,400121298,0.0006302938,0.027239,0.008074224,0.32136703,0.0,0.0,0.0,-1.0
400172887,400172260,-0.018630523,0.027521282,0.008917928,0.32672465,0.0,0.0,0.0,-1.0
400222293,400221719,0.00543588,0.012035289,0.011888538,0.32565743,0.0,0.0,0.0,-1.0
400271755,400271183,0.018158846,0.016986266,0.0051047117,0.3263011,0.0,0.0,0.0,-1.0
400324306,400323653,0.0016935396,0.00786323,0.008368242,0.30880377,0.0,0.0,0.0,-1.0
400372198,400371613,0.0015180669,0.0103542,0.004677233,0.29823306,0.0,0.0,0.0,-1.0
400421655,400421085,0.004942798,0.022245932,-2.9317871e-05,0.30053744,0.0,0.0,0.0,-1.0
400472617,400472042,-0.0046874937,0.028174723,0.0007708136,0.2984829,0.0,0.0,0.0,-1.0
400523678,400523015,0.0006193612,0.03920389,0.005779196,0.29048598,0.0,0.0,0.0,-1.0
400571565,400570991,-0.0066930847,0.04166963,0.0037081281,0.29612982,0.0,0.0,0.0,-1.0
400624020,400623450,-0.0041932734,0.026760533,0.0034712784,0.30829015,0.0,0.0,0.0,-1.0
400673487,400672902,0.0051551694,0.018316802,0.006370883,0.32875943,0.0,0.0,0.0,-1.0
400723000,400722367,0.016584802,0.0065323478,0.0056374003,0.33049372,0.0,0.0,0.0,-1.0
400771004,400770406,0.022119708,0.0075639416,0.003113943,0.32448786,0.0,0.0,0.0,-1.0
400823451,400822801,-0.0030355132,0.023158662,-0.0015475263,0.3270551,0.0,0.0,0.0,-1.0
400872853,400872283,-0.00452321,0.029833477,0.0031137713,0.33050892,0.0,0.0,0.0,-1.0
400922305,400921727,0.01119769,0.011907087,0.0021030158,0.35254955,0.0,0.0,0.0,-1.0
400971842,400971196,-0.0031195309,0.015201929,0.005357492,0.37453526,0.0,0.0,0.0,-1.0
401021236,401020658,-0.0023182775,0.028773284,0.0004210171,0.3852763,0.0,0.0,0.0,-1.0
401072248,401071630,0.009377513,0.019325864,0.0041682543,0.38993976,0.0,0.0,0.0,-1.0
401121734,401121107,-0.0035695042,0.024876922,-0.0026733028,0.37860662,0.0,0.0,0.0,-1.0
401174136,401173567,0.019898292,0.017942848,-0.000253576,0.36592585,0.0,0.0,0.0,-1.0
401223663,401223016,-0.007872393,0.018117549,-0.00010925647,0.35037553,0.0,0.0,0.0,-1.0
401271551,401270982,-0.0014132222,0.010477228,-0.00020067708,0.3389604,0.0,0.0,0.0,-1.0
401322525,401321947,-0.010561863,0.018589444,0.0009889014,0.3406256,0.0,0.0,0.0,-1.0
401371990,401371412,-0.0013162922,0.00607827,0.002168876,0.3447231,0.0,0.0,0.0,-1.0
401422995,401422417,-0.0042574676,0.009407753,-0.006123083,0.33105007,0.0,0.0,0.0,-1.0
401470931,401470343,0.010637549,0.016828647,0.0003605366,0.33172166,0.0,0.0,0.0,-1.0
401526477,401525811,-0.0009350409,0.015878487,-0.0061751404,0.33099768,0.0,0.0,0.0,-1.0
401572850,401572278,-0.00072330405,0.009348208,-0.005137057,0.32839632,0.0,0.0,0.0,-1.0
401623806,401623236,0.0042196927,0.009978571,-0.00034172472,0.32155862,0.0,0.0,0.0,-1.0
401673272,401672702,0.0054848217,0.027657626,-0.0033041704,0.31288925,0.0,0.0,0.0,-1.0
401724290,401723666,-0.004251798,0.014881796,-0.0032603631,0.3044983,0.0,0.0,0.0,-1.0
401772203,401771632,-0.004909468,0.010256788,-0.0011956807,0.29931375,0.0,0.0,0.0,-1.0
401821670,401821100,-0.0011029873,0.013072303,7.397497e-05,0.30994692,0.0,0.0,0.0,-1.0
401874135,401873561,0.013901177,0.009040306,-0.0050109075,0.29314575,0.0,0.0,0.0,-1.0
401923691,401923035,0.009423816,0.024728525,-0.0006538207,0.30594665,0.0,0.0,0.0,-1.0
401971634,401970997,0.0051819095,0.025595313,0.0014099167,0.3209816,0.0,0.0,0.0,-1.0
402024116,402023476,0.0021199533,0.009622919,0.00093953154,0.3330619,0.0,0.0,0.0,-1.0
402073498,402072921,-0.007943534,0.022588603,-0.0033526334,0.33279014,0.0,0.0,0.0,-1.0
402123017,402122400,-0.00033452932,0.016726911,-0.00052706065,0.33639538,0.0,0.0,0.0,-1.0
402170939,402170353,0.0027209758,0.011309719,-3.2344327e-05,0.33467627,0.0,0.0,0.0,-1.0
402221888,402221318,0.0035782102,0.027202487,-0.0020876892,0.34100637,0.0,0.0,0.0,-1.0
402271427,402270845,-0.0033008012,0.013856681,0.0015670381,0.3379794,0.0,0.0,0.0,-1.0
402322325,402321747,0.015221705,0.008125773,-0.0016056339,0.3359525,0.0,0.0,0.0,-1.0
402374800,402374211,-0.009683434,0.033262674,0.00061839836,0.3439094,0.0,0.0,0.0,-1.0
402422746,402422177,-0.0006472538,0.006851645,0.0037528677,0.34437358,0.0,0.0,0.0,-1.0
402472212,402471643,0.008547898,0.004323011,-0.0026747284,0.34655285,0.0,0.0,0.0,-1.0
402521687,402521109,0.007115927,0.006997489,-0.0021101786,0.3644591,0.0,0.0,0.0,-1.0
402574141,402573572,-0.003093469,0.021236,-0.001490686,0.35678622,0.0,0.0,0.0,-1.0
402623700,402623042,0.019023562,0.009677193,-0.0013080703,0.34892327,0.0,0.0,0.0,-1.0
402671589,402671008,0.011969632,0.035663523,-0.0062676854,0.36409923,0.0,0.0,0.0,-1.0
402724115,402723480,-0.004869415,0.012535404,0.0018111685,0.35435215,0.0,0.0,0.0,-1.0
402773509,402772932,0.015651066,0.016078867,-0.0076047895,0.34392133,0.0,0.0,0.0,-1.0
402823035,402822404,-0.009168209,0.031004975,-0.0038088672,0.33521038,0.0,0.0,0.0,-1.0
402871006,402870406,-0.008733422,0.008495435,0.00080619456,0.3314215,0.0,0.0,0.0,-1.0
402923446,402922862,0.011140985,0.009146396,-0.009089582,0.321073,0.0,0.0,0.0,-1.0
402972864,402972293,-0.0035755318,0.034366213,-0.0045470386,0.31140772,0.0,0.0,0.0,-1.0
403022336,403021759,-0.0011919435,0.036880314,-0.0047150864,0.32392418,0.0,0.0,0.0,-1.0
403071797,403071224,-0.007283438,0.029156117,-0.0053189946,0.31314388,0.0,0.0,0.0,-1.0
403122819,403122193,-0.0028087217,0.0074529317,-0.003215147,0.2958759,0.0,0.0,0.0,-1.0
403172292,403171657,0.00023627841,0.005730772,-0.0053425096,0.29063055,0.0,0.0,0.0,-1.0
403221696,403221120,0.017307866,0.006963924,-0.008455716,0.3049764,0.0,0.0,0.0,-1.0
