timestamp,accel_device_id,gyro_device_id,accel_clipping[0],accel_clipping[1],accel_clipping[2],accel_error_count,gyro_error_count,accel_rate_hz,gyro_rate_hz,accel_raw_rate_hz,gyro_raw_rate_hz,accel_vibration_metric,gyro_vibration_metric,gyro_coning_vibration,mean_accel[0],mean_accel[1],mean_accel[2],mean_gyro[0],mean_gyro[1],mean_gyro[2],temperature_accel,temperature_gyro
368125369,1114122,2228234,0,0,0,0,0,761.1617,759.8092,761.1617,759.8092,0.010280854,0.00012282889,1.8893019e-08,0.05220816,0.3010089,-9.898694,-0.0024424582,0.008994867,0.009077786,52.32276,53.0
369019558,1114122,2228234,0,0,0,0,0,761.1572,759.8092,761.1572,759.8092,0.009376274,0.00010735198,8.959257e-09,-0.09094836,0.13883372,-9.837385,-0.006205913,0.0026209643,0.0014197316,52.375,53.0
370016324,1114122,2228234,0,0,0,0,0,761.9247,766.3909,761.9247,766.3909,0.009466667,0.00011542618,6.6377237e-09,-0.06784507,0.09696541,-9.7859955,-0.010769065,0.00034207024,0.0015219606,52.32716,53.0
371070468,1114122,2228234,0,0,0,0,0,761.1258,760.86224,761.1258,760.86224,0.009203063,0.00010468716,6.386926e-09,-0.026496306,0.31037644,-9.736573,-0.00926701,-0.00030182794,0.002254108,52.429485,52.0
372040046,1114122,2228234,0,0,0,0,0,761.87646,760.79126,761.87646,760.79126,0.0107016815,0.00012786624,1.00156266e-08,-0.12866656,0.07802282,-9.579026,-0.009939688,0.0111830775,-0.0072987685,52.5,53.0
372990926,1114122,2228234,0,0,0,0,0,761.87646,760.8207,761.87646,760.8207,0.009539141,0.00013457797,1.108767e-08,-0.10427626,0.1492254,-9.764819,-0.006245002,-0.0013159107,0.00030524321,52.449276,53.0
374037820,1114122,2228234,0,0,0,0,0,754.4909,760.04834,754.4909,760.04834,0.009419566,0.00012250787,9.678213e-09,-0.07258123,-0.3799273,-9.742349,-0.005207715,-0.0009075631,-0.0019631272,52.5,53.0
375046764,1114122,2228234,0,0,0,0,0,759.0912,760.8135,759.0912,760.8135,0.008790857,0.00013165512,1.3054214e-08,-0.06307141,0.21499984,-9.7438965,-0.004052868,0.013665673,0.006246794,52.46212,53.0
376010493,1114122,2228234,0,0,0,0,0,757.9724,760.0416,757.9724,760.0416,0.014361632,0.00019641349,2.6341981e-08,-0.29199523,0.087957606,-11.330855,-0.0029016463,-0.053442474,0.0004198063,52.625,53.0
377071108,1114122,2228234,0,0,0,0,0,757.92487,760.0416,757.92487,760.0416,0.017917834,0.00033313135,6.7584686e-08,-0.2979832,-0.065103374,-9.645869,0.0606506,-0.0016121849,0.007419276,52.527245,53.0
377981451,1114122,2228234,0,0,0,0,0,758.7193,760.0416,758.7193,760.0416,0.01825145,0.00030817415,5.8194942e-08,-0.20516288,0.10890245,-10.499688,-0.0690455,0.0077208723,0.0064730714,52.666668,53.0
379048866,1114122,2228234,0,0,0,0,0,760.2171,760.0416,760.2171,760.0416,0.01664677,0.00032334373,4.9012357e-08,-0.4267568,-0.7543757,-6.4959073,-0.026346078,0.0070059206,-0.0052756593,52.75,53.0
379995124,1114122,2228234,0,0,0,0,0,760.21716,760.0416,760.21716,760.0416,0.015393999,0.00032647848,4.2741608e-08,-0.24036515,0.06089161,-9.744216,-0.022627503,-0.0104099,0.0014842915,52.730392,53.0
381015232,1114122,2228234,0,0,0,0,0,760.21716,760.0416,760.21716,760.0416,0.016532252,0.00031686932,5.625446e-08,-0.18867834,0.29279983,-10.282745,0.048125803,0.042084478,-6.892948e-05,52.807693,54.0
381997134,1114122,2228234,0,0,0,0,0,759.42957,759.27856,759.42957,759.27856,0.018297648,0.00030143943,5.8322165e-08,-0.28796884,0.13672747,-9.693672,-0.033113353,-0.0064739073,0.009182064,52.855114,53.0
383036078,1114122,2228234,0,0,0,0,0,760.2015,763.6336,760.2015,763.6336,0.017699549,0.00029928787,4.1031086e-08,-1.4897177,-0.838082,-6.3204117,-0.031795066,0.018148633,0.014254864,52.875,53.0
384052714,1114122,2228234,0,0,0,0,0,760.96735,760.6527,760.96735,760.6527,0.017994095,0.00031898916,4.3822748e-08,-0.091989666,-0.1276985,-8.336073,-0.0071209287,-0.005077982,-0.0009631599,52.875,53.0
385056581,1114122,2228234,0,0,0,0,0,760.96735,759.06305,760.96735,759.06305,0.015200471,0.00028454684,3.894701e-08,-0.14713222,0.08911925,-9.549319,-0.009511425,0.00851912,-0.0012740992,52.973766,53.0
386043555,1114122,2228234,0,0,0,0,0,763.2295,758.99744,763.2295,758.99744,0.017941825,0.00030566374,5.089942e-08,-0.30043414,0.1169621,-9.988391,0.00041799675,-0.04452622,0.0029499012,53.01406,53.0
387063901,1114122,2228234,0,0,0,0,0,761.26337,759.791,761.26337,759.791,0.018114548,0.0003301693,4.9781505e-08,0.10998894,-0.1552864,-8.249856,-0.0006440621,0.009092493,0.00013392008,53.0,53.0
388066728,1114122,2228234,0,0,0,0,0,756.91455,759.0229,756.91455,759.0229,0.016728273,0.00030067487,4.3576602e-08,-0.054292794,0.17753826,-9.681171,0.011606733,-0.010176032,0.0028414673,53.15,54.0
389016952,1114122,2228234,0,0,0,0,0,759.9765,759.788,759.9765,759.788,0.01635526,0.00031327587,4.223065e-08,-0.1870306,0.33426127,-9.686899,-0.019586759,0.022775482,0.004782513,53.020832,54.0
390032731,1114122,2228234,0,0,0,0,0,759.2071,759.788,759.2071,759.788,0.017463354,0.00028916966,3.5505707e-08,-0.2638639,0.20267117,-9.832069,0.008000434,0.016320268,-0.0059905555,53.139423,54.0
391046136,1114122,2228234,0,0,0,0,0,759.21564,759.788,759.21564,759.788,0.016912961,0.00033899068,6.251539e-08,-0.224935,0.46111843,-10.185853,-0.03466126,0.025662906,0.018561589,53.125,54.0
392014289,1114122,2228234,0,0,0,0,0,760.00336,759.788,760.00336,759.788,0.02017294,0.00028556157,5.1785946e-08,-0.1790531,0.15213485,-9.54291,-0.048519623,0.054061774,0.014753453,53.24513,54.0
393062549,1114122,2228234,0,0,0,0,0,759.9749,759.788,759.9749,759.788,0.018210376,0.00025706348,5.123853e-08,-0.03148368,0.26229134,-10.2824745,0.033231653,0.030899512,-0.024201676,53.2753,54.0
394041087,1114122,2228234,0,0,0,0,0,759.9773,759.788,759.9773,759.788,0.019088944,0.0003984059,8.429924e-08,0.014393351,0.44827464,-10.456566,0.0047243573,-0.0018832394,0.016779164,53.226665,54.0
395037637,1114122,2228234,0,0,0,0,0,759.9669,759.788,759.9669,759.788,0.01824052,0.0003322424,9.61311e-08,-0.118973054,0.31746757,-10.199136,-0.034443516,0.08014276,0.027579851,53.343372,54.0
396024495,1114122,2228234,0,0,0,0,0,759.9669,760.4917,759.9669,760.4917,0.019439198,0.0003146472,6.5209335e-08,-0.5509081,0.18733944,-11.199209,0.040506177,0.047935028,-0.0075152284,53.25,54.0
397020098,1114122,2228234,0,0,0,0,0,759.9669,760.4325,759.9669,760.4325,0.01676366,0.0003398555,5.7209867e-08,-0.07709355,0.20243733,-9.7985325,0.016101927,-0.008453877,0.015263683,53.349358,54.0
398007223,1114122,2228234,0,0,0,0,0,760.7305,761.36456,760.7305,761.36456,0.017522698,0.00035497427,5.983057e-08,-0.092876144,0.20770182,-10.141916,0.009047778,-0.00057942164,-0.0018201034,53.350903,54.0
399048771,1114122,2228234,0,0,0,0,0,764.6781,760.51385,764.6781,760.51385,0.016093962,0.0003811313,6.137553e-08,-0.1214876,0.29269403,-10.340463,-0.022870343,0.029991964,0.014083029,53.427883,54.0
400032304,1114122,2228234,0,0,0,0,0,751.7336,760.5276,751.7336,760.5276,0.01736396,0.00039908642,6.519703e-08,-0.24907698,0.02508096,-8.862257,0.0050112163,0.045876905,0.021178855,53.375,54.0
401067878,1114122,2228234,0,0,0,0,0,754.38116,760.5411,754.38116,760.5411,0.019041063,0.0003200251,5.212384e-08,0.08510794,-0.8674904,-9.957262,0.0023682448,0.03846674,0.012344797,53.5,54.0
402011647,1114122,2228234,0,0,0,0,0,758.2706,760.5411,758.2706,760.5411,0.017987791,0.00024110367,2.9866815e-08,0.04512122,0.3027385,-8.748607,-0.028055795,-0.032064416,-0.00843064,53.5,55.0
403010687,1114122,2228234,0,0,0,0,0,757.32855,760.5411,757.32855,760.5411,0.021397188,0.00030362196,4.1928036e-08,-0.04616539,0.38512626,-9.460963,-0.02717063,-0.038220983,-7.5760036e-05,53.5,55.0
404073675,1114122,2228234,0,0,0,0,0,758.144,760.5411,758.144,760.5411,0.017773323,0.00023834372,3.3445293e-08,-0.21973675,0.12641658,-9.242164,-0.016555455,-0.011851238,-0.0050858986,53.594204,54.8
405043743,1114122,2228234,0,0,0,0,0,758.12726,760.5411,758.12726,760.5411,0.01933239,0.00027041935,4.0974186e-08,-0.11601715,0.11000916,-10.388687,0.023401167,0.00643903,-0.013247938,53.62031,54.0
406071501,1114122,2228234,0,0,0,0,0,758.67645,760.5411,758.67645,760.5411,0.017112363,0.00031493205,4.5214914e-08,0.021046687,0.86641514,-10.312214,-0.035666082,0.024076153,-0.0007440901,53.703125,54.0
407036903,1114122,2228234,0,0,0,0,0,759.4264,760.5411,759.4264,760.5411,0.016799418,0.00029706574,5.057059e-08,-0.36004934,0.19292289,-8.437556,-0.07889198,0.03653731,0.0026412203,53.71875,54.0
408004006,1114122,2228234,0,0,0,0,0,758.66174,760.5411,758.66174,760.5411,0.018210655,0.00028679878,5.1196917e-08,-0.3968273,1.4845244,-12.305435,-0.06610284,0.023338115,0.03441082,53.75,54.0
408995832,1114122,2228234,0,0,0,0,0,758.65826,760.5411,758.65826,760.5411,0.017981477,0.00029213942,4.4205972e-08,-0.2752147,0.15107621,-9.813762,-0.012002799,0.03422113,0.0002836291,53.720314,54.0
409997958,1114122,2228234,0,0,0,0,0,758.65826,758.6079,758.65826,758.6079,0.018983483,0.0003025543,4.503947e-08,-0.30397922,0.07744514,-9.9688015,0.017850071,0.020162646,0.0013009488,53.741776,54.0
411018035,1114122,2228234,0,0,0,0,0,757.88464,757.6532,757.88464,757.6532,0.017463675,0.00028735455,4.1206032e-08,-0.26455632,0.17010307,-9.795191,0.009262716,-0.019392852,-0.0025059227,53.787975,55.0
412024352,1114122,2228234,0,0,0,0,0,751.0512,758.4145,751.0512,758.4145,0.018357828,0.0002936115,4.945854e-08,-0.35332078,0.07721885,-9.938242,0.025620015,-0.018017787,0.005480568,53.885273,55.0
413046676,1114122,2228234,0,0,0,0,0,750.7467,759.1772,750.7467,759.1772,0.018159011,0.00029729816,5.1865232e-08,-0.015781391,0.6660657,-10.827901,-0.03021691,0.038827315,0.006730611,53.875,54.0
414066967,1114122,2228234,0,0,0,0,0,753.7726,759.9803,753.7726,759.9803,0.01674707,0.0002629531,4.34212e-08,-0.28565392,0.3829443,-9.528966,-0.04230025,0.020456713,0.011412547,53.875,55.0
415005447,1114122,2228234,0,0,0,0,0,756.12823,759.9803,756.12823,759.9803,0.017055282,0.00026070574,3.8397463e-08,-0.3024252,0.18661821,-9.181565,0.017669562,0.0023692143,-0.0066285636,53.875,55.0
416051550,1114122,2228234,0,0,0,0,0,758.4689,759.20404,758.4689,759.20404,0.017506074,0.00022392783,2.7728884e-08,-0.16526252,0.27101105,-8.753429,-0.02459497,-0.018286044,-0.008664028,53.871876,55.0
416989499,1114122,2228234,0,0,0,0,0,759.9333,759.20404,759.9333,759.20404,0.01815443,0.00024410016,3.4947874e-08,-0.2524012,-0.029209206,-7.9229918,-0.042313643,0.0652922,-0.006640627,54.0,55.0
417992765,1114122,2228234,0,0,0,0,0,759.09204,759.97076,759.09204,759.97076,0.0173069,0.00028735414,4.9482395e-08,-0.25361603,0.19570142,-9.438596,-0.034851424,-0.014595376,-0.00891316,54.040585,55.0
419010008,1114122,2228234,0,0,0,0,0,759.05597,759.97076,759.05597,759.97076,0.018445736,0.0003143292,4.9874096e-08,-0.69201,-0.66619825,-10.319707,-0.026290618,0.028633133,0.014357801,54.125,55.0
420074928,1114122,2228234,0,0,0,0,0,759.7803,759.97076,759.7803,759.97076,0.018587993,0.00047542198,5.0590694e-07,-3.112216,0.66701025,-9.495882,0.071212105,0.13621704,-0.10089392,54.10033,55.0
421040414,1114122,2228234,0,0,0,0,0,758.9972,759.97076,758.9972,759.97076,0.010483594,0.0001541297,9.380466e-08,-0.20496306,0.1788627,-9.714936,-0.010962087,0.0035527293,0.00039430242,54.126545,55.0
422028563,1114122,2228234,0,0,0,0,0,760.52277,759.1947,760.52277,759.1947,0.008242199,7.8025245e-05,1.8025695e-08,-0.18236324,0.10564058,-9.729117,-0.014896735,-0.000118822696,-0.0046991194,54.21131,55.0
422985875,1114122,2228234,0,0,0,0,0,759.7441,753.5617,759.7441,753.5617,0.009875594,6.16456e-05,6.110848e-09,-0.14397076,0.106447175,-9.73409,-0.011512107,0.0013206326,-0.0040904377,54.086147,55.0
424005183,1114122,2228234,0,0,0,0,0,759.7441,763.9611,759.7441,763.9611,0.008497781,5.9206617e-05,3.8419037e-09,-0.16747221,0.07498429,-9.486849,-0.019273236,0.0035876601,0.014015717,54.25,56.0
425016064,1114122,2228234,0,0,0,0,0,799.2691,760.3559,799.2691,760.3559,0.0109690735,5.9887327e-05,3.1531877e-09,-0.17711955,0.09093246,-9.770952,-0.011712869,-0.0007267076,0.00041385985,54.25,55.0
