timestamp,timestamp_sample,ref_timestamp,ref_lat,ref_lon,x,y,z,delta_xy[0],delta_xy[1],delta_z,vx,vy,vz,z_deriv,delta_vxy[0],delta_vxy[1],delta_vz,ax,ay,az,heading,delta_heading,ref_alt,dist_bottom,eph,epv,evh,evv,vxy_max,vz_max,hagl_min,hagl_max,xy_valid,z_valid,v_xy_valid,v_z_valid,xy_reset_counter,z_reset_counter,vxy_reset_counter,vz_reset_counter,heading_reset_counter,xy_global,z_global,dist_bottom_valid,dist_bottom_sensor_bitfield
368082105,368080459,87964659,-6.3607016000000005,106.82454369999999,13.68699,-3.301613,0.106839366,0.010761263,0.016180344,0.0,-0.013110748,0.0029454385,-0.099253766,-0.16609609,0.10868411,0.077194646,-0.21394694,3.3507895,0.67268836,0.544804,-0.06200923,-0.0006439539,90.90057,0.1,0.38941008,0.39631632,0.14343752,0.10618548,inf,inf,inf,inf,1,1,1,1,2,0,2,1,3,1,1,1,0
368172115,368170408,87964659,-6.3607016000000005,106.82454369999999,13.684264,-3.2981443,0.088638745,0.010761263,0.016180344,0.0,-0.010490164,-0.00439721,-0.14220554,-0.20815124,0.10868411,0.077194646,-0.21394694,-0.16773552,-1.7457618,0.3258296,-0.060501095,-0.0006439539,90.90057,0.1142231,0.3965508,0.3973125,0.14788799,0.107407466,inf,inf,inf,inf,1,1,1,1,2,0,2,1,3,1,1,1,0
368270934,368269317,87964659,-6.3607016000000005,106.82454369999999,13.681587,-3.29888,0.07627983,0.010761263,0.016180344,0.0,-0.022930086,-0.002866832,-0.15071803,-0.20745724,0.10868411,0.077194646,-0.21394694,0.1344814,0.16032295,-0.4272077,-0.061880555,-0.0006439539,90.90057,0.13676307,0.38845548,0.3945191,0.14337845,0.10585787,inf,inf,inf,inf,1,1,1,1,2,0,2,1,3,1,1,1,0
368369986,368368243,87964659,-6.3607016000000005,106.82454369999999,13.679086,-3.2994485,0.06443897,0.010761263,0.016180344,0.0,-0.023163727,0.009140206,-0.1522291,-0.19989528,0.10868411,0.077194646,-0.21394694,-0.93519086,-0.7529822,0.3171509,-0.06069286,-0.0006439539,90.90057,0.13408428,0.39637926,0.39873686,0.14821899,0.10755391,inf,inf,inf,inf,1,1,1,1,2,0,2,1,3,1,1,1,0
368468818,368467184,87964659,-6.3607016000000005,106.82454369999999,13.674834,-3.3027256,0.061810005,0.010761263,0.016180344,0.0,-0.01526606,0.010189438,-0.14905477,-0.17983223,0.10868411,0.077194646,-0.21394694,-0.10772434,-0.49587956,-0.23431851,-0.06175279,-0.0006439539,90.90057,0.15674266,0.38828808,0.39591786,0.14345811,0.10599917,inf,inf,inf,inf,1,1,1,1,2,0,2,1,3,1,1,1,0
368572291,368570596,87964659,-6.3607016000000005,106.82454369999999,13.670731,-3.3053246,0.057816464,0.010761263,0.016180344,0.0,-0.01681852,0.011722125,-0.13404505,-0.15134162,0.10868411,0.077194646,-0.21394694,-0.010364044,-0.40082407,0.18917476,-0.060910266,-0.0006439539,90.90057,0.14671917,0.3962103,0.39758492,0.14809488,0.10741907,inf,inf,inf,inf,1,1,1,1,2,0,2,1,3,1,1,1,0
368670955,368669521,87964659,-6.3607016000000005,106.82454369999999,13.666265,-3.3086493,0.060869157,0.010761263,0.016180344,0.0,-0.016547598,0.00951047,-0.13207616,-0.13192955,0.10868411,0.077194646,-0.21394694,-0.38853315,-0.88828343,-0.13236088,-0.06155713,-0.0006439539,90.90057,0.16012524,0.38813043,0.3947944,0.14326845,0.10587214,inf,inf,inf,inf,1,1,1,1,2,0,2,1,3,1,1,1,0
368774560,368772943,87964659,-6.3607016000000005,106.82454369999999,13.662015,-3.3111296,0.060828097,0.010761263,0.016180344,0.0,-0.02087981,0.007508922,-0.13604659,-0.123043396,0.10868411,0.077194646,-0.21394694,-0.31755766,-0.46090004,-0.366129,-0.06093524,-0.0006439539,90.90057,0.1483165,0.3960518,0.39645022,0.14809197,0.107288785,inf,inf,inf,inf,1,1,1,1,2,0,2,1,3,1,1,1,0
368868739,368867379,87964659,-6.3607016000000005,106.82454369999999,13.656825,-3.3176796,0.06620663,0.010761263,0.016180344,0.0,-0.018188056,0.005084817,-0.12896824,-0.10053943,0.10868411,0.077194646,-0.21394694,-0.53968936,-0.782536,-0.09700961,-0.061453044,-0.0006439539,90.90057,0.15603241,0.38862374,0.3966137,0.14413176,0.10629543,inf,inf,inf,inf,1,1,1,1,2,0,2,1,3,1,1,1,0
368972231,368970796,87964659,-6.3607016000000005,106.82454369999999,13.652124,-3.322934,0.066919334,0.010761263,0.016180344,0.0,-0.022508891,-0.0007312137,-0.12744047,-0.08934657,0.10868411,0.077194646,-0.21394694,-0.52221054,-1.3018922,-0.22222456,-0.060968895,-0.0006439539,90.90057,0.14395455,0.39662227,0.39830256,0.148787,0.10771672,inf,inf,inf,inf,1,1,1,1,2,0,2,1,3,1,1,1,0
369071467,369069723,87964659,-6.3607016000000005,106.82454369999999,13.646841,-3.3276439,0.07254365,0.010761263,0.016180344,0.0,-0.02214337,-0.0021791027,-0.12295278,-0.07204146,0.10868411,0.077194646,-0.21394694,-0.1598205,-1.1505659,0.3350834,-0.06130514,-0.0006439539,90.90057,0.15528435,0.38844433,0.39548445,0.14388116,0.10614696,inf,inf,inf,inf,1,1,1,1,2,0,2,1,3,1,1,1,0
369170236,369168650,87964659,-6.3607016000000005,106.82454369999999,13.641912,-3.331179,0.07547298,0.010761263,0.016180344,0.0,-0.025053216,-0.0019334336,-0.1195081,-0.060468577,0.10868411,0.077194646,-0.21394694,-0.19014712,-0.8423888,0.09263252,-0.06093457,-0.0006439539,90.90057,0.14131942,0.39643252,0.397152,0.14871496,0.1075623,inf,inf,inf,inf,1,1,1,1,2,0,2,1,3,1,1,1,0
369269020,369267577,87964659,-6.3607016000000005,106.82454369999999,13.6357765,-3.337102,0.08308396,0.010761263,0.016180344,0.0,-0.025067708,-0.004831141,-0.10733749,-0.036793225,0.10868411,0.077194646,-0.21394694,-0.7270328,-1.1225882,-0.024745196,-0.061153848,-0.0006439539,90.90057,0.15272903,0.38828003,0.39435434,0.14382803,0.105999336,inf,inf,inf,inf,1,1,1,1,2,0,2,1,3,1,1,1,0
369367757,369366529,87964659,-6.3607016000000005,106.82454369999999,13.630173,-3.3422897,0.08770172,0.010761263,0.016180344,0.0,-0.028392257,-0.0070879343,-0.115912154,-0.03866226,0.10868411,0.077194646,-0.21394694,-0.9926928,-0.73720074,-0.11948145,-0.060974747,-0.0006439539,90.90057,0.1384451,0.3962615,0.3985777,0.14846985,0.1076944,inf,inf,inf,inf,1,1,1,1,2,0,2,1,3,1,1,1,0
369471175,369469927,87964659,-6.3607016000000005,106.82454369999999,13.625855,-3.347138,0.094664976,0.010761263,0.016180344,0.0,-0.029227724,-0.009990358,-0.10023208,-0.014562582,0.10868411,0.077194646,-0.21394694,-0.42070535,-0.7841604,-0.051936198,-0.061163936,-0.0006439539,90.90057,0.1457573,0.38811043,0.39574608,0.14364406,0.106124915,inf,inf,inf,inf,1,1,1,1,2,0,2,1,3,1,1,1,0
369570119,369568873,87964659,-6.3607016000000005,106.82454369999999,13.622405,-3.3510163,0.09932459,0.010761263,0.016180344,0.0,-0.026628314,-0.0116743,-0.09599177,-0.006475776,0.10868411,0.077194646,-0.21394694,-0.5172893,-0.98086655,-0.48270866,-0.060995895,-0.0006439539,90.90057,0.1317527,0.39608485,0.39741236,0.1484178,0.107541025,inf,inf,inf,inf,1,1,1,1,2,0,2,1,3,1,1,1,0
369669593,369667781,87964659,-6.3607016000000005,106.82454369999999,13.618465,-3.356201,0.10651725,0.010761263,0.016180344,0.0,-0.027577164,-0.014787581,-0.101546235,-0.0058655674,0.10868411,0.077194646,-0.21394694,-0.45030153,-0.52582604,-0.50740993,-0.061074898,-0.0006439539,90.90057,0.13770863,0.38811752,0.3947108,0.14379464,0.106052436,inf,inf,inf,inf,1,1,1,1,2,0,2,1,3,1,1,1,0
369768298,369766707,87964659,-6.3607016000000005,106.82454369999999,13.615011,-3.3606005,0.10956372,0.010761263,0.016180344,0.0,-0.027732966,-0.01516893,-0.09933198,-0.0023088325,0.10868411,0.077194646,-0.21394694,-0.50923663,-0.019056706,-0.49419647,-0.060929786,-0.0006439539,90.90057,0.12628917,0.39610776,0.39894342,0.14848799,0.107749,inf,inf,inf,inf,1,1,1,1,2,0,2,1,3,1,1,1,0
369871708,369870131,87964659,-6.3607016000000005,106.82454369999999,13.611194,-3.3620954,0.11433048,0.010761263,0.016180344,0.0,-0.026308915,-0.016395751,-0.08614055,0.013796466,0.10868411,0.077194646,-0.21394694,0.16305164,-0.35996288,0.3106022,-0.060931724,-0.0006439539,90.90057,0.13141319,0.38794938,0.39610863,0.14361767,0.10617781,inf,inf,inf,inf,1,1,1,1,2,0,2,1,3,1,1,1,0
369970304,369969060,87964659,-6.3607016000000005,106.82454369999999,13.607949,-3.362813,0.11753942,0.010761263,0.016180344,0.0,-0.024752805,-0.015035651,-0.0785643,0.020956028,0.10868411,0.077194646,-0.21394694,0.29752725,-0.4331604,0.4121021,-0.06076025,-0.0006439539,90.90057,0.120059446,0.39593053,0.39778575,0.14824457,0.107596755,inf,inf,inf,inf,1,1,1,1,2,0,2,1,3,1,1,1,0
370069234,370067986,87964659,-6.3607016000000005,106.82454369999999,13.604509,-3.3647816,0.120567754,0.010761263,0.016180344,0.0,-0.023052415,-0.016011922,-0.08437902,0.01485364,0.10868411,0.077194646,-0.21394694,0.13391241,-0.5180597,0.019424917,-0.060823727,-0.0006439539,90.90057,0.121140495,0.38857314,0.3955062,0.14450088,0.10638078,inf,inf,inf,inf,1,1,1,1,2,0,2,1,3,1,1,1,0
370168363,370166912,87964659,-6.3607016000000005,106.82454369999999,13.60141,-3.3666496,0.121419154,0.010761263,0.016180344,0.0,-0.025365684,-0.014774991,-0.07708097,0.019274691,0.10868411,0.077194646,-0.21394694,-0.15092331,-0.42974964,-0.19345215,-0.060632497,-0.0006439539,90.90057,0.1127973,0.3966409,0.39718568,0.14918838,0.107793055,inf,inf,inf,inf,1,1,1,1,2,0,2,1,3,1,1,1,0
370271580,370270344,87964659,-6.3607016000000005,106.82454369999999,13.596438,-3.3670185,0.12613651,0.010761263,0.016180344,0.0,-0.02524576,-0.01208407,-0.07053365,0.02693852,0.10868411,0.077194646,-0.21394694,-0.16835801,0.2049066,-0.17674126,-0.060711917,-0.0006439539,90.90057,0.120709,0.38844505,0.39690617,0.14426649,0.10649428,inf,inf,inf,inf,1,1,1,1,2,0,2,1,3,1,1,1,0
370370853,370369262,87964659,-6.3607016000000005,106.82454369999999,13.592022,-3.3670456,0.12856895,0.010761263,0.016180344,0.0,-0.025854195,-0.011356284,-0.0641266,0.031354044,0.10868411,0.077194646,-0.21394694,-0.15752777,0.3351222,-0.46289325,-0.06053027,-0.0006439539,90.90057,0.11190009,0.39650106,0.39859632,0.14889905,0.10791085,inf,inf,inf,inf,1,1,1,1,2,0,2,1,3,1,1,1,0
370469858,370468189,87964659,-6.3607016000000005,106.82454369999999,13.587872,-3.3695817,0.13314183,0.010761263,0.016180344,0.0,-0.027807824,-0.009981925,-0.06626053,0.029021863,0.10868411,0.077194646,-0.21394694,-0.03443183,0.025804263,-0.28678074,-0.060721632,-0.0006439539,90.90057,0.11624749,0.38846612,0.3958997,0.14435953,0.10641651,inf,inf,inf,inf,1,1,1,1,2,0,2,1,3,1,1,1,0
370568493,370567122,87964659,-6.3607016000000005,106.82454369999999,13.583952,-3.37212,0.13480714,0.010761263,0.016180344,0.0,-0.028495256,-0.012019761,-0.07054351,0.022264343,0.10868411,0.077194646,-0.21394694,-0.107314065,0.17400059,-0.22944838,-0.060714114,-0.0006439539,90.90057,0.10918772,0.3965319,0.3975798,0.14902757,0.107828505,inf,inf,inf,inf,1,1,1,1,2,0,2,1,3,1,1,1,0
370671953,370670539,87964659,-6.3607016000000005,106.82454369999999,13.580191,-3.3749535,0.13704045,0.010761263,0.016180344,0.0,-0.028738264,-0.009458593,-0.06123038,0.030098684,0.10868411,0.077194646,-0.21394694,0.03352959,0.41483217,0.15618739,-0.06092876,-0.0006439539,90.90057,0.113472596,0.38820904,0.39474514,0.14401847,0.10622692,inf,inf,inf,inf,1,1,1,1,2,0,2,1,3,1,1,1,0
370770885,370769466,87964659,-6.3607016000000005,106.82454369999999,13.576652,-3.37737,0.1382692,0.010761263,0.016180344,0.0,-0.027859898,-0.010366745,-0.058461484,0.02992276,0.10868411,0.077194646,-0.21394694,0.16367082,0.35153946,0.21592718,-0.060834337,-0.0006439539,90.90057,0.10626577,0.39625198,0.39898658,0.14865625,0.10792045,inf,inf,inf,inf,1,1,1,1,2,0,2,1,3,1,1,1,0
370870113,370868395,87964659,-6.3607016000000005,106.82454369999999,13.574312,-3.3772247,0.13549867,0.010761263,0.016180344,0.0,-0.026941834,-0.0102263335,-0.06506566,0.016826453,0.10868411,0.077194646,-0.21394694,0.9556509,0.27742508,-0.065976836,-0.060990445,-0.0006439539,90.90057,0.1,0.38801157,0.39614403,0.14389268,0.10633364,inf,inf,inf,inf,1,1,1,1,2,0,2,1,3,1,1,1,0
370968935,370967320,87964659,-6.3607016000000005,106.82454369999999,13.572264,-3.3766468,0.1310123,0.010761263,0.016180344,0.0,-0.025120836,-0.011753582,-0.0594963,0.015226307,0.10868411,0.077194646,-0.21394694,0.46258873,-0.23184766,0.079914674,-0.060864158,-0.0006439539,90.90057,0.1,0.39604,0.39781922,0.14855497,0.10774597,inf,inf,inf,inf,1,1,1,1,2,0,2,1,3,1,1,1,0
371072659,371070743,87964659,-6.3607016000000005,106.82454369999999,13.569716,-3.372726,0.123695485,0.010761263,0.016180344,0.0,-0.019878684,-0.0036042621,-0.049847748,0.0152244335,0.10868411,0.077194646,-0.21394694,0.41964588,0.17412153,0.27235085,-0.061041106,-0.0006439539,90.90057,0.1,0.38782036,0.3949899,0.14363493,0.10616537,inf,inf,inf,inf,1,1,1,1,2,0,2,1,3,1,1,1,0
371171074,371169676,87964659,-6.3607016000000005,106.82454369999999,13.567505,-3.368603,0.116647355,0.010761263,0.016180344,0.0,-0.018202567,0.00057497434,-0.043458495,0.012719486,0.10868411,0.077194646,-0.21394694,0.41370243,0.06797433,0.5245042,-0.060898628,-0.0006439539,90.90057,0.1,0.39583388,0.39923242,0.14823261,0.10785994,inf,inf,inf,inf,1,1,1,1,2,0,2,1,3,1,1,1,0
371269923,371268597,87964659,-6.3607016000000005,106.82454369999999,13.564766,-3.365615,0.10925954,0.010761263,0.016180344,0.0,-0.019002026,0.0056511494,-0.042147335,0.005188883,0.10868411,0.077194646,-0.21394694,-0.024545176,0.5115073,0.23382147,-0.060916416,-0.0006439539,90.90057,0.1,0.38763067,0.39638734,0.1433663,0.10627888,inf,inf,inf,inf,1,1,1,1,2,0,2,1,3,1,1,1,0
371368946,371367524,87964659,-6.3607016000000005,106.82454369999999,13.562295,-3.3631124,0.10220561,0.010761263,0.016180344,0.0,-0.017809087,0.0051642503,-0.05036677,-0.010628715,0.10868411,0.077194646,-0.21394694,-0.15810426,0.5896002,-0.22379896,-0.06072742,-0.0006439539,90.90057,0.1,0.39563277,0.3980768,0.14815624,0.10769689,inf,inf,inf,inf,1,1,1,1,2,0,2,1,3,1,1,1,0
371467761,371466473,87964659,-6.3607016000000005,106.82454369999999,13.559388,-3.3631063,0.09703145,0.010761263,0.016180344,0.0,-0.020426374,0.0042335843,-0.050102867,-0.014151211,0.10868411,0.077194646,-0.21394694,0.17549986,0.029106148,0.3706114,-0.06080559,-0.0006439539,90.90057,0.1,0.38744467,0.39524415,0.14335129,0.106121205,inf,inf,inf,inf,1,1,1,1,2,0,2,1,3,1,1,1,0
371571671,371569882,87964659,-6.3607016000000005,106.82454369999999,13.55669,-3.3633611,0.092083536,0.010761263,0.016180344,0.0,-0.01829452,0.0050053797,-0.045691594,-0.012932502,0.10868411,0.077194646,-0.21394694,-0.1425019,0.5776681,0.5257923,-0.06078877,-0.0006439539,90.90057,0.1,0.39543653,0.39691162,0.14800599,0.107533455,inf,inf,inf,inf,1,1,1,1,2,0,2,1,3,1,1,1,0
371670507,371668819,87964659,-6.3607016000000005,106.82454369999999,13.551666,-3.3657706,0.0913893,0.010761263,0.016180344,0.0,-0.024307044,0.005012491,-0.046677675,-0.013281319,0.10868411,0.077194646,-0.21394694,-0.40890005,0.05465301,0.13729897,-0.061055373,-0.0006439539,90.90057,0.10449517,0.38725248,0.39664015,0.14318423,0.10624049,inf,inf,inf,inf,1,1,1,1,2,0,2,1,3,1,1,1,0
371768985,371767728,87964659,-6.3607016000000005,106.82454369999999,13.546908,-3.367962,0.09056092,0.010761263,0.016180344,0.0,-0.02149583,0.003291194,-0.04307614,-0.009678403,0.10868411,0.077194646,-0.21394694,-0.24082053,0.042032253,-0.1556484,-0.0608879,-0.0006439539,90.90057,0.100779586,0.39523533,0.39832705,0.14797677,0.10765956,inf,inf,inf,inf,1,1,1,1,2,0,2,1,3,1,1,1,0
371872843,371871167,87964659,-6.3607016000000005,106.82454369999999,13.543241,-3.3698595,0.08964884,0.010761263,0.016180344,0.0,-0.018515969,0.0043006944,-0.027061753,0.0058750785,0.10868411,0.077194646,-0.21394694,0.46228996,0.28198877,1.1477163,-0.06115086,-0.0006439539,90.90057,0.10001892,0.38705772,0.39550805,0.14315489,0.1060925,inf,inf,inf,inf,1,1,1,1,2,0,2,1,3,1,1,1,0
371971350,371970079,87964659,-6.3607016000000005,106.82454369999999,13.540541,-3.3712525,0.08887448,0.010761263,0.016180344,0.0,-0.01640279,0.0022401938,-0.022526683,0.009096484,0.10868411,0.077194646,-0.21394694,0.47475535,-0.28552303,0.5455388,-0.061151598,-0.0006439539,90.90057,0.1,0.39503288,0.39718226,0.14792316,0.10750824,inf,inf,inf,inf,1,1,1,1,2,0,2,1,3,1,1,1,0
372070357,372069005,87964659,-6.3607016000000005,106.82454369999999,13.537528,-3.3707316,0.085272014,0.010761263,0.016180344,0.0,-0.018005151,0.0044264086,-0.035296902,-0.007439759,0.10868411,0.077194646,-0.21394694,0.20080431,0.24301921,0.0742642,-0.06121163,-0.0006439539,90.90057,0.1,0.38686806,0.39691123,0.14297,0.10621882,inf,inf,inf,inf,1,1,1,1,2,0,2,1,3,1,1,1,0
372169519,372167933,87964659,-6.3607016000000005,106.82454369999999,13.534918,-3.3697557,0.08028,0.010761263,0.016180344,0.0,-0.019063989,0.0052156993,-0.041657396,-0.017721655,0.10868411,0.077194646,-0.21394694,0.017359972,0.5993365,0.061349075,-0.061077025,-0.0006439539,90.90057,0.1,0.3948345,0.3985965,0.14779657,0.10763911,inf,inf,inf,inf,1,1,1,1,2,0,2,1,3,1,1,1,0
372268466,372266860,87964659,-6.3607016000000005,106.82454369999999,13.529455,-3.36853,0.07567844,0.010761263,0.016180344,0.0,-0.01705421,0.005579507,-0.0387572,-0.017623326,0.10868411,0.077194646,-0.21394694,0.14774139,0.21837804,0.57208717,-0.061109144,-0.0006439539,90.90057,0.1,0.38670692,0.39578137,0.14306383,0.10607709,inf,inf,inf,inf,1,1,1,1,2,0,2,1,3,1,1,1,0
372371923,372370283,87964659,-6.3607016000000005,106.82454369999999,13.524315,-3.3671286,0.0707152,0.010761263,0.016180344,0.0,-0.01709778,0.008101757,-0.04492045,-0.026227377,0.10868411,0.077194646,-0.21394694,0.41862127,0.27959195,0.6053182,-0.06126438,-0.0006439539,90.90057,0.1,0.39467007,0.39745432,0.14769849,0.10749409,inf,inf,inf,inf,1,1,1,1,2,0,2,1,3,1,1,1,0
372470883,372469210,87964659,-6.3607016000000005,106.82454369999999,13.518501,-3.3692157,0.06906904,0.010761263,0.016180344,0.0,-0.01691421,0.0077876486,-0.04317093,-0.02345794,0.10868411,0.077194646,-0.21394694,0.29462722,0.18432422,0.6346955,-0.06116841,-0.0006439539,90.90057,0.103949904,0.3868261,0.39484498,0.14330387,0.106064215,inf,inf,inf,inf,1,1,1,1,2,0,2,1,3,1,1,1,0
372569588,372568137,87964659,-6.3607016000000005,106.82454369999999,13.513623,-3.3714654,0.06746131,0.010761263,0.016180344,0.0,-0.016243178,0.0063699484,-0.04243285,-0.022121785,0.10868411,0.077194646,-0.21394694,0.528792,-0.20140173,0.40951717,-0.06133542,-0.0006439539,90.90057,0.10109958,0.39481848,0.3990803,0.14811154,0.10775931,inf,inf,inf,inf,1,1,1,1,2,0,2,1,3,1,1,1,0
372668334,372667071,87964659,-6.3607016000000005,106.82454369999999,13.507408,-3.3751705,0.07095465,0.010761263,0.016180344,0.0,-0.017497074,0.005523317,-0.034738228,-0.009146886,0.10868411,0.077194646,-0.21394694,-0.0150405895,-0.35518867,0.4554977,-0.06111859,-0.0006439539,90.90057,0.113744885,0.3866414,0.3962458,0.14328352,0.106187664,inf,inf,inf,inf,1,1,1,1,2,0,2,1,3,1,1,1,0
372772133,372770487,87964659,-6.3607016000000005,106.82454369999999,13.501804,-3.378295,0.073449075,0.010761263,0.016180344,0.0,-0.019976359,0.012962235,-0.034424298,-0.005209745,0.10868411,0.077194646,-0.21394694,0.34317106,1.0617282,0.61596245,-0.061153267,-0.0006439539,90.90057,0.108063966,0.39462534,0.39793146,0.14791082,0.107607014,inf,inf,inf,inf,1,1,1,1,2,0,2,1,3,1,1,1,0
372871036,372869414,87964659,-6.3607016000000005,106.82454369999999,13.496271,-3.383453,0.08021311,0.010761263,0.016180344,0.0,-0.018241247,0.009572999,-0.030445023,0.005753335,0.10868411,0.077194646,-0.21394694,0.25739488,0.73548687,0.4620533,-0.060956493,-0.0006439539,90.90057,0.118465446,0.3864583,0.39511716,0.14313444,0.106042095,inf,inf,inf,inf,1,1,1,1,2,0,2,1,3,1,1,1,0
372970106,372968345,87964659,-6.3607016000000005,106.82454369999999,13.49176,-3.388,0.08600132,0.010761263,0.016180344,0.0,-0.018031862,0.0076754875,-0.022268837,0.01830083,0.10868411,0.077194646,-0.21394694,0.404245,0.42322278,0.49485487,-0.060993414,-0.0006439539,90.90057,0.11003648,0.39443505,0.3967727,0.14792687,0.10745337,inf,inf,inf,inf,1,1,1,1,2,0,2,1,3,1,1,1,0
373073180,373071765,87964659,-6.3607016000000005,106.82454369999999,13.484822,-3.3907745,0.09458725,0.010761263,0.016180344,0.0,-0.01601783,0.007624596,-0.023159638,0.024024552,0.10868411,0.077194646,-0.21394694,0.44376123,0.6373999,0.20509839,-0.060780983,-0.0006439539,90.90057,0.11804752,0.3862642,0.3965166,0.14313458,0.10616977,inf,inf,inf,inf,1,1,1,1,2,0,2,1,3,1,1,1,0
373172053,373170700,87964659,-6.3607016000000005,106.82454369999999,13.478654,-3.392727,0.10146755,0.010761263,0.016180344,0.0,-0.017276308,0.007997789,-0.011934864,0.038887583,0.10868411,0.077194646,-0.21394694,0.5463693,0.47596905,0.5015565,-0.06097972,-0.0006439539,90.90057,0.10952641,0.39423767,0.39820948,0.14795652,0.107592545,inf,inf,inf,inf,1,1,1,1,2,0,2,1,3,1,1,1,0
373270951,373269619,87964659,-6.3607016000000005,106.82454369999999,13.473338,-3.3981931,0.11105372,0.010761263,0.016180344,0.0,-0.014923093,0.0013534257,-0.008734632,0.04737479,0.10868411,0.077194646,-0.21394694,0.50861365,0.19806166,0.77092904,-0.060849555,-0.0006439539,90.90057,0.11501922,0.3860701,0.3953984,0.14300242,0.106032066,inf,inf,inf,inf,1,1,1,1,2,0,2,1,3,1,1,1,0
373369868,373368546,87964659,-6.3607016000000005,106.82454369999999,13.4691515,-3.4033928,0.11908078,0.010761263,0.016180344,0.0,-0.014544288,-0.0005189908,0.00063408114,0.059013493,0.10868411,0.077194646,-0.21394694,0.34829926,0.26580903,-0.075531505,-0.061002653,-0.0006439539,90.90057,0.104237124,0.3940358,0.39707017,0.14764172,0.10744909,inf,inf,inf,inf,1,1,1,1,2,0,2,1,3,1,1,1,0
373469223,373467473,87964659,-6.3607016000000005,106.82454369999999,13.462948,-3.4078197,0.12941359,0.010761263,0.016180344,0.0,-0.016947113,-0.0030861632,-0.0048544807,0.057706717,0.10868411,0.077194646,-0.21394694,0.232875,0.28290972,0.012713616,-0.060890935,-0.0006439539,90.90057,0.11152275,0.38587713,0.39427876,0.14300989,0.10589473,inf,inf,inf,inf,1,1,1,1,2,0,2,1,3,1,1,1,0
373567995,373566400,87964659,-6.3607016000000005,106.82454369999999,13.457203,-3.4114726,0.1367689,0.010761263,0.016180344,0.0,-0.018635552,-0.0028982472,0.0034753638,0.06703833,0.10868411,0.077194646,-0.21394694,0.09656567,0.051212132,0.42261863,-0.060960338,-0.0006439539,90.90057,0.10336378,0.393839,0.3984965,0.14768481,0.107588954,inf,inf,inf,inf,1,1,1,1,2,0,2,1,3,1,1,1,0
373671154,373669838,87964659,-6.3607016000000005,106.82454369999999,13.451017,-3.416792,0.14696845,0.010761263,0.016180344,0.0,-0.020441867,-0.0047988254,0.0033081907,0.06938083,0.10868411,0.077194646,-0.21394694,-0.15775831,0.20015296,-0.11330297,-0.060631078,-0.0006439539,90.90057,0.10779399,0.3856815,0.39567956,0.14291833,0.10602989,inf,inf,inf,inf,1,1,1,1,2,0,2,1,3,1,1,1,0
373770092,373768773,87964659,-6.3607016000000005,106.82454369999999,13.445793,-3.4215267,0.15441878,0.010761263,0.016180344,0.0,-0.021668917,-0.004499141,0.010781017,0.076292016,0.10868411,0.077194646,-0.21394694,-0.5380678,0.09519822,0.010980223,-0.060638327,-0.0006439539,90.90057,0.1,0.39363888,0.3973508,0.147718,0.10744811,inf,inf,inf,inf,1,1,1,1,2,0,2,1,3,1,1,1,0
373868952,373867681,87964659,-6.3607016000000005,106.82454369999999,13.443159,-3.424887,0.16178298,0.010761263,0.016180344,0.0,-0.021147432,-0.006267424,0.022370407,0.08645503,0.10868411,0.077194646,-0.21394694,-0.7327527,-0.31557924,0.24149461,-0.0604853,-0.0006439539,90.90057,0.1,0.3854909,0.39456218,0.14295764,0.10589718,inf,inf,inf,inf,1,1,1,1,2,0,2,1,3,1,1,1,0
373972427,373971142,87964659,-6.3607016000000005,106.82454369999999,13.441498,-3.4275787,0.16831496,0.010761263,0.016180344,0.0,-0.020950656,-0.011950999,0.022645839,0.08370696,0.10868411,0.077194646,-0.21394694,-0.31838542,-0.76990575,-0.19792722,-0.06063947,-0.0006439539,90.90057,0.1,0.3934465,0.3987851,0.14757417,0.10759312,inf,inf,inf,inf,1,1,1,1,2,0,2,1,3,1,1,1,0
374071598,374070029,87964659,-6.3607016000000005,106.82454369999999,13.43564,-3.42724,0.17229895,0.010761263,0.016180344,0.0,-0.021976575,-0.012851337,0.016213505,0.07281704,0.10868411,0.077194646,-0.21394694,0.0925832,-0.9508264,-0.36376178,-0.06060711,-0.0006439539,90.90057,0.1,0.3853564,0.39597765,0.14307208,0.10605082,inf,inf,inf,inf,1,1,1,1,2,0,2,1,3,1,1,1,0
374170765,374168956,87964659,-6.3607016000000005,106.82454369999999,13.430399,-3.426791,0.17377503,0.010761263,0.016180344,0.0,-0.022198156,-0.011620439,0.01311077,0.06381739,0.10868411,0.077194646,-0.21394694,-0.23911315,-0.82004887,-0.3361272,-0.060655065,-0.0006439539,90.90057,0.1,0.39331895,0.3976583,0.14758359,0.10747263,inf,inf,inf,inf,1,1,1,1,2,0,2,1,3,1,1,1,0
374273997,374272388,87964659,-6.3607016000000005,106.82454369999999,13.425274,-3.4284048,0.17577262,0.010761263,0.016180344,0.0,-0.021500338,-0.014003648,0.014755285,0.060663942,0.10868411,0.077194646,-0.21394694,0.28413042,-0.47083154,0.116361536,-0.060538914,-0.0006439539,90.90057,0.1,0.38576904,0.39526406,0.14371736,0.10618558,inf,inf,inf,inf,1,1,1,1,2,0,2,1,3,1,1,1,0
374368362,374366810,87964659,-6.3607016000000005,106.82454369999999,13.421069,-3.4300907,0.17654838,0.010761263,0.016180344,0.0,-0.020085627,-0.011836695,0.013316801,0.05402857,0.10868411,0.077194646,-0.21394694,-0.19141269,-0.2770712,-0.3508289,-0.0605495,-0.0006439539,90.90057,0.1,0.39379668,0.39693528,0.14839092,0.10759923,inf,inf,inf,inf,1,1,1,1,2,0,2,1,3,1,1,1,0
374467134,374465762,87964659,-6.3607016000000005,106.82454369999999,13.416986,-3.4323196,0.17798041,0.010761263,0.016180344,0.0,-0.01974306,-0.010441202,0.015429369,0.052131407,0.10868411,0.077194646,-0.21394694,0.029432014,-0.44135088,-0.13243051,-0.060573507,-0.0006439539,90.90057,0.1,0.3855579,0.39667013,0.14350976,0.10630467,inf,inf,inf,inf,1,1,1,1,2,0,2,1,3,1,1,1,0
374570451,374569161,87964659,-6.3607016000000005,106.82454369999999,13.413636,-3.4343996,0.17939587,0.010761263,0.016180344,0.0,-0.017334456,-0.014588228,0.0233777,0.05596197,0.10868411,0.077194646,-0.21394694,-0.20323837,-1.032478,0.017198924,-0.06054325,-0.0006439539,90.90057,0.1,0.39357528,0.39836964,0.14815535,0.10772724,inf,inf,inf,inf,1,1,1,1,2,0,2,1,3,1,1,1,0
374669881,374668088,87964659,-6.3607016000000005,106.82454369999999,13.4097185,-3.4358187,0.18285432,0.010761263,0.016180344,0.0,-0.020697765,-0.012255633,0.026845986,0.057058226,0.10868411,0.077194646,-0.21394694,-0.45050466,-0.438087,-0.16078192,-0.060486518,-0.0006439539,90.90057,0.1,0.3853499,0.39554697,0.14344859,0.10615561,inf,inf,inf,inf,1,1,1,1,2,0,2,1,3,1,1,1,0
374768676,374767015,87964659,-6.3607016000000005,106.82454369999999,13.406022,-3.4369423,0.18493752,0.010761263,0.016180344,0.0,-0.021211179,-0.013773012,0.02580191,0.05258046,0.10868411,0.077194646,-0.21394694,-0.22610247,-0.40701354,0.18984437,-0.060637657,-0.0006439539,90.90057,0.1,0.39335912,0.39722463,0.14809449,0.107572176,inf,inf,inf,inf,1,1,1,1,2,0,2,1,3,1,1,1,0
374872233,374870453,87964659,-6.3607016000000005,106.82454369999999,13.4034195,-3.4390259,0.18408087,0.010761263,0.016180344,0.0,-0.019239549,-0.013119671,3.93003e-05,0.021690365,0.10868411,0.077194646,-0.21394694,0.19015978,0.22048147,-0.11969154,-0.06030646,-0.0006439539,90.90057,0.1,0.38514885,0.39443055,0.14329176,0.10600959,inf,inf,inf,inf,1,1,1,1,2,0,2,1,3,1,1,1,0
374970699,374969366,87964659,-6.3607016000000005,106.82454369999999,13.401312,-3.4409828,0.18294029,0.010761263,0.016180344,0.0,-0.014604553,-0.01082117,0.02119911,0.038525432,0.10868411,0.077194646,-0.21394694,-0.29020673,0.24589553,0.90016836,-0.06084733,-0.0006439539,90.90057,0.1,0.393153,0.3986566,0.14819045,0.107703984,inf,inf,inf,inf,1,1,1,1,2,0,2,1,3,1,1,1,0
375069637,375068299,87964659,-6.3607016000000005,106.82454369999999,13.399944,-3.4386835,0.17925416,0.010761263,0.016180344,0.0,-0.0128342435,-0.012090471,0.033069506,0.042159807,0.10868411,0.077194646,-0.21394694,0.01603498,0.0034030618,-0.031817082,-0.06025755,-0.0006439539,90.90057,0.1,0.38494664,0.39583677,0.1433167,0.10613715,inf,inf,inf,inf,1,1,1,1,2,0,2,1,3,1,1,1,0
375168475,375167221,87964659,-6.3607016000000005,106.82454369999999,13.399164,-3.4360912,0.17569196,0.010761263,0.016180344,0.0,-0.0023547814,-0.0011494152,0.027043752,0.02949946,0.10868411,0.077194646,-0.21394694,0.48470733,-0.12017712,0.2780648,-0.0606323,-0.0006439539,90.90057,0.1,0.39294186,0.3975128,0.14790204,0.107554495,inf,inf,inf,inf,1,1,1,1,2,0,2,1,3,1,1,1,0
375271964,375270644,87964659,-6.3607016000000005,106.82454369999999,13.398453,-3.4308703,0.16886236,0.010761263,0.016180344,0.0,0.006746652,0.0046174824,0.03981249,0.03174584,0.10868411,0.077194646,-0.21394694,1.0901079,-0.42505386,0.3841741,-0.060524873,-0.0006439539,90.90057,0.1,0.3847611,0.394713,0.14312498,0.10599414,inf,inf,inf,inf,1,1,1,1,2,0,2,1,3,1,1,1,0
375371281,375369572,87964659,-6.3607016000000005,106.82454369999999,13.39831,-3.425916,0.16331819,0.010761263,0.016180344,0.0,0.008603233,0.0083663445,0.039243754,0.02339019,0.10868411,0.077194646,-0.21394694,1.6078675,-0.16184798,0.22202168,-0.060402784,-0.0006439539,90.90057,0.1,0.39275095,0.39894313,0.1496389,0.107690014,inf,inf,inf,inf,1,1,1,1,2,0,2,1,3,1,1,1,0
375470302,375468513,87964659,-6.3607016000000005,106.82454369999999,13.396368,-3.4220645,0.15765384,0.010761263,0.016180344,0.0,0.0048054005,0.0017168586,0.05202739,0.028675107,0.10868411,0.077194646,-0.21394694,-1.7081287,-1.1186675,-0.6795502,-0.06060784,-0.0006439539,90.90057,0.1,0.38455874,0.39611763,0.15094127,0.10612532,inf,inf,inf,inf,1,1,1,1,2,0,2,1,3,1,1,1,0
375568772,375567426,87964659,-6.3607016000000005,106.82454369999999,13.39517,-3.418885,0.15620628,0.010761263,0.016180344,0.0,-0.0061769257,0.014688446,0.059702683,0.031662013,0.10868411,0.077194646,-0.21394694,-0.0555146,0.88506365,1.1501641,-0.060130455,-0.0006439539,90.90057,0.1,0.39257714,0.39780113,0.16633035,0.10754629,inf,inf,inf,inf,1,1,1,1,2,0,2,1,3,1,1,1,0
375667667,375666406,87964659,-6.3607016000000005,106.82454369999999,13.390052,-3.4179356,0.15633328,0.010761263,0.016180344,0.0,0.0038809653,0.0153554045,0.07911277,0.048350133,0.10868411,0.077194646,-0.21394694,-0.8808595,1.6321881,0.66207534,-0.05970346,-0.0006439539,90.90057,0.1,0.38435373,0.39500383,0.1707989,0.10599004,inf,inf,inf,inf,1,1,1,1,2,0,2,1,3,1,1,1,0
375771359,375769781,87964659,-6.3607016000000005,106.82454369999999,13.38583,-3.41774,0.15836546,0.010761263,0.016180344,0.0,0.002205226,0.009679366,0.06144813,0.029784005,0.10868411,0.077194646,-0.21394694,0.6206112,-0.65535295,4.3976545,-0.060104925,-0.0006439539,90.90057,0.1,0.39247105,0.39666638,0.19067162,0.10740525,inf,inf,inf,inf,1,1,1,1,2,0,2,1,3,1,1,1,0
375870584,375868732,87964659,-6.3607016000000005,106.82454369999999,13.379302,-3.4187732,0.15707596,0.010761263,0.016180344,0.0,-0.0031139222,-0.0046776114,0.046568166,0.014569212,0.10868411,0.077194646,-0.21394694,0.72696763,-1.3796217,6.6477666,-0.06001191,-0.0006439539,90.90057,0.1,0.38417023,0.39641526,0.19233616,0.10612648,inf,inf,inf,inf,1,1,1,1,2,0,2,1,3,1,1,1,0
375969218,375967643,87964659,-6.3607016000000005,106.82454369999999,13.373998,-3.4202611,0.1566768,0.010761263,0.016180344,0.0,0.0011784906,-0.007322601,0.014805106,-0.016555281,0.10868411,0.077194646,-0.21394694,-0.2946292,-0.110728405,-3.6791553,-0.059979394,-0.0006439539,90.90057,0.1,0.39247,0.39810684,0.21382245,0.10755094,inf,inf,inf,inf,1,1,1,1,2,0,2,1,3,1,1,1,0
376068191,376066559,87964659,-6.3607016000000005,106.82454369999999,13.369496,-3.4208317,0.14458258,0.010761263,0.016180344,0.0,0.0058661075,-0.021783747,-0.10998179,-0.14249031,0.10868411,0.077194646,-0.21394694,-0.6461499,-2.808165,2.3618195,-0.060156394,-0.0006439539,90.90057,0.10215224,0.3840069,0.3953023,0.20914586,0.10599566,inf,inf,inf,inf,1,1,1,1,2,0,2,1,3,1,1,1,0
376171339,376169983,87964659,-6.3607016000000005,106.82454369999999,13.366405,-3.4224544,0.11405092,0.010761263,0.016180344,0.0,0.0011854684,-0.03319277,-0.37811887,-0.4108461,0.10868411,0.077194646,-0.21394694,-0.13418098,0.1208923,-4.188076,-0.06100027,-0.0006439539,90.90057,0.1326839,0.39253196,0.3969731,0.23041336,0.10741539,inf,inf,inf,inf,1,1,1,1,2,0,2,1,3,1,1,1,0
376270378,376268910,87964659,-6.3607016000000005,106.82454369999999,13.362444,-3.4227262,0.0625564,0.010761263,0.016180344,0.0,-0.00329711,-0.03202997,-0.56815106,-0.60061264,0.10868411,0.077194646,-0.21394694,0.36647862,1.0078368,1.2333881,-0.062395055,-0.0006439539,90.90057,0.18417843,0.38385934,0.3941962,0.21991241,0.10586861,inf,inf,inf,inf,1,1,1,1,2,0,2,1,3,1,1,1,0
376369114,376367838,87964659,-6.3607016000000005,106.82454369999999,13.359407,-3.4230595,-0.0014436047,0.010761263,0.016180344,0.0,-0.0012722763,-0.04098397,-0.6299753,-0.6613572,0.10868411,0.077194646,-0.21394694,-0.7830447,-1.8204129,1.8091176,-0.06375505,-0.0006439539,90.90057,0.24817844,0.3926318,0.3984205,0.23982777,0.10756901,inf,inf,inf,inf,1,1,1,1,2,0,2,1,3,1,1,1,0
376468115,376466765,87964659,-6.3607016000000005,106.82454369999999,13.351121,-3.4269438,-0.05841573,0.010761263,0.016180344,0.0,-0.0012369794,-0.03850284,-0.58744776,-0.61062104,0.10868411,0.077194646,-0.21394694,0.6218938,1.2549213,-0.26023734,-0.0651146,-0.0006439539,90.90057,0.30515057,0.38373405,0.3956167,0.22444442,0.10601583,inf,inf,inf,inf,1,1,1,1,2,0,2,1,3,1,1,1,0
376571829,376570189,87964659,-6.3607016000000005,106.82454369999999,13.342898,-3.4319592,-0.11192963,0.010761263,0.016180344,0.0,-0.010138556,-0.04270314,-0.5383786,-0.5546882,0.10868411,0.077194646,-0.21394694,1.9092818,-0.79739267,4.575667,-0.066099346,-0.0006439539,90.90057,0.35866445,0.39268106,0.39728758,0.24237032,0.10743691,inf,inf,inf,inf,1,1,1,1,2,0,2,1,3,1,1,1,0
376670701,376669116,87964659,-6.3607016000000005,106.82454369999999,13.331291,-3.4356844,-0.1621262,0.010761263,0.016180344,0.0,-0.028950557,-0.041213427,-0.5143151,-0.52618986,0.10868411,0.077194646,-0.21394694,-2.162707,-2.0687437,-1.9826425,-0.06599289,-0.0006439539,90.90057,0.40886104,0.38366157,0.39450288,0.22452378,0.10588759,inf,inf,inf,inf,1,1,1,1,2,0,2,1,3,1,1,1,0
376769922,376768043,87964659,-6.3607016000000005,106.82454369999999,13.32091,-3.439053,-0.20928511,0.010761263,0.016180344,0.0,-0.02005902,-0.03796544,-0.4556499,-0.4652429,0.10868411,0.077194646,-0.21394694,1.8494316,1.6795956,0.17544024,-0.0660018,-0.0006439539,90.90057,0.45601994,0.39271808,0.39616203,0.24080375,0.10730511,inf,inf,inf,inf,1,1,1,1,2,0,2,1,3,1,1,1,0
376872906,376871468,87964659,-6.3607016000000005,106.82454369999999,13.307064,-3.4517844,-0.25429493,0.010761263,0.016180344,0.0,-0.03621948,-0.047172517,-0.4335444,-0.44200104,0.10868411,0.077194646,-0.21394694,0.5462204,0.077867694,-4.3898845,-0.066297755,-0.0006439539,90.90057,0.50102973,0.383622,0.39592177,0.22210921,0.1060348,inf,inf,inf,inf,1,1,1,1,2,0,2,1,3,1,1,1,0
376971737,376970405,87964659,-6.3607016000000005,106.82454369999999,13.295052,-3.466248,-0.29450962,0.010761263,0.016180344,0.0,-0.018875705,-0.0567287,-0.367319,-0.37583432,0.10868411,0.077194646,-0.21394694,-0.47012177,-0.79206264,4.7128086,-0.0660115,-0.0006439539,90.90057,0.54124445,0.3927501,0.39760166,0.2367924,0.10746137,inf,inf,inf,inf,1,1,1,1,2,0,2,1,3,1,1,1,0
377070586,377069323,87964659,-6.3607016000000005,106.82454369999999,13.283913,-3.48048,-0.33685374,0.010761263,0.016180344,0.0,-0.02469336,-0.06827945,-0.39297533,-0.40478343,0.10868411,0.077194646,-0.21394694,-0.40162605,0.6049133,-2.770112,-0.06557471,-0.0006439539,90.90057,0.5835886,0.38367105,0.3948245,0.21856338,0.105929315,inf,inf,inf,inf,1,1,1,1,2,0,2,1,3,1,1,1,0
377170089,377168255,87964659,-6.3607016000000005,106.82454369999999,13.275815,-3.4933481,-0.38064283,0.010761263,0.016180344,0.0,-0.014704617,-0.06002485,-0.344641,-0.36234692,0.10868411,0.077194646,-0.21394694,-0.6682049,0.9440529,1.0025265,-0.0653479,-0.0006439539,90.90057,0.6273776,0.39287034,0.3964936,0.23186821,0.107352555,inf,inf,inf,inf,1,1,1,1,2,0,2,1,3,1,1,1,0
377268805,377267177,87964659,-6.3607016000000005,106.82454369999999,13.27117,-3.495672,-0.42318898,0.010761263,0.016180344,0.0,-0.00033459032,-0.039712507,-0.2992986,-0.32702723,0.10868411,0.077194646,-0.21394694,1.3579336,1.3167098,-2.528892,-0.06502316,-0.0006439539,90.90057,0.6699238,0.3836436,0.39625022,0.21380048,0.10608017,inf,inf,inf,inf,1,1,1,1,2,0,2,1,3,1,1,1,0
377372271,377370601,87964659,-6.3607016000000005,106.82454369999999,13.269347,-3.4951282,-0.46040633,0.010761263,0.016180344,0.0,0.010778939,-0.034299538,-0.2100061,-0.24474737,0.10868411,0.077194646,-0.21394694,-0.022768302,-0.3487857,3.1278944,-0.06486944,-0.0006439539,90.90057,0.70714116,0.39285633,0.39794013,0.22586043,0.107511275,inf,inf,inf,inf,1,1,1,1,2,0,2,1,3,1,1,1,0
377470896,377469529,87964659,-6.3607016000000005,106.82454369999999,13.262902,-3.5027425,-0.49643698,0.010761263,0.016180344,0.0,0.0038699128,-0.023812236,-0.22965719,-0.27512583,0.10868411,0.077194646,-0.21394694,-0.15200768,0.232596,-4.5191627,-0.064409085,-0.0006439539,90.90057,0.7431718,0.38363352,0.39514604,0.2087386,0.10596138,inf,inf,inf,inf,1,1,1,1,2,0,2,1,3,1,1,1,0
377569893,377568459,87964659,-6.3607016000000005,106.82454369999999,13.2573,-3.5113587,-0.53302187,0.010761263,0.016180344,0.0,0.016679687,-0.015914626,-0.21054783,-0.266027,0.10868411,0.077194646,-0.21394694,-0.21536897,0.18676749,1.5934618,-0.06373456,-0.0006439539,90.90057,0.77975667,0.39284116,0.3968158,0.21973833,0.10738594,inf,inf,inf,inf,1,1,1,1,2,0,2,1,3,1,1,1,0
377673504,377671886,87964659,-6.3607016000000005,106.82454369999999,13.251446,-3.5148716,-0.57344085,0.010761263,0.016180344,0.0,0.018809488,-0.016857725,-0.2222793,-0.2896706,0.10868411,0.077194646,-0.21394694,1.2329899,1.9850017,-1.4962251,-0.06300364,-0.0006439539,90.90057,0.82017565,0.38363114,0.3940402,0.20363998,0.1058403,inf,inf,inf,inf,1,1,1,1,2,0,2,1,3,1,1,1,0
377767617,377766338,87964659,-6.3607016000000005,106.82454369999999,13.247448,-3.516412,-0.60929847,0.010761263,0.016180344,0.0,0.01652007,-0.00079567026,-0.21502005,-0.28977415,0.10868411,0.077194646,-0.21394694,-2.077989,1.1557373,-2.2472231,-0.062682346,-0.0006439539,90.90057,0.8560333,0.39282826,0.39826083,0.2137099,0.10754345,inf,inf,inf,inf,1,1,1,1,2,0,2,1,3,1,1,1,0
377871462,377869742,87964659,-6.3607016000000005,106.82454369999999,13.241872,-3.502558,-0.6480374,0.010761263,0.016180344,0.0,0.024141623,0.016164685,-0.18013406,-0.26363808,0.10868411,0.077194646,-0.21394694,-0.66324997,-0.32842693,2.665542,-0.06246268,-0.0006439539,90.90057,0.8947722,0.38430902,0.39584517,0.20045197,0.10624236,inf,inf,inf,inf,1,1,1,1,2,0,2,1,3,1,1,1,0
377965909,377964170,87964659,-6.3607016000000005,106.82454369999999,13.238033,-3.4874737,-0.6823643,0.010761263,0.016180344,0.0,0.015861694,0.033576436,-0.2669096,-0.3551402,0.10868411,0.077194646,-0.21394694,-1.0747222,0.68371964,-6.101827,-0.06214676,-0.0006439539,90.90057,0.9290991,0.39265797,0.39685068,0.2088545,0.10747006,inf,inf,inf,inf,1,1,1,1,2,0,2,1,3,1,1,1,0
378069367,378067590,87964659,-6.3607016000000005,106.82454369999999,13.232823,-3.4726772,-0.73743206,0.010761263,0.016180344,0.0,0.02211013,0.045299508,-0.40076828,-0.4985584,0.10868411,0.077194646,-0.21394694,-1.1671796,0.32817405,-5.297208,-0.061976284,-0.0006439539,90.90057,0.98416686,0.38441378,0.39476815,0.19554868,0.10613349,inf,inf,inf,inf,1,1,1,1,2,0,2,1,3,1,1,1,0
378172649,378171029,87964659,-6.3607016000000005,106.82454369999999,13.230493,-3.4611652,-0.7957856,0.010761263,0.016180344,0.0,0.029627642,0.04701889,-0.4047731,-0.5075484,0.10868411,0.077194646,-0.21394694,-0.016914189,-0.076763414,-1.4516814,-0.06277905,-0.0006439539,90.90057,1.0425204,0.39372173,0.39643833,0.20418955,0.10755172,inf,inf,inf,inf,1,1,1,1,2,0,2,1,3,1,1,1,0
378271287,378269943,87964659,-6.3607016000000005,106.82454369999999,13.227763,-3.438079,-0.85189503,0.010761263,0.016180344,0.0,0.03935601,0.052521177,-0.36287093,-0.47099787,0.10868411,0.077194646,-0.21394694,-0.1784341,-1.8868456,4.892297,-0.06360868,-0.0006439539,90.90057,1.0986298,0.38710052,0.3975434,0.19650954,0.107158445,inf,inf,inf,inf,1,1,1,1,2,0,2,1,3,1,1,1,0
378370188,378368870,87964659,-6.3607016000000005,106.82454369999999,13.227697,-3.4172204,-0.9049505,0.010761263,0.016180344,0.0,0.039188724,0.06458392,-0.4352895,-0.5444178,0.10868411,0.077194646,-0.21394694,-0.48103136,1.1994977,-3.872914,-0.06417448,-0.0006439539,90.90057,1.1516854,0.39687282,0.39928064,0.20475757,0.10857829,inf,inf,inf,inf,1,1,1,1,2,0,2,1,3,1,1,1,0
378469254,378467798,87964659,-6.3607016000000005,106.82454369999999,13.232466,-3.405731,-0.96609,0.010761263,0.016180344,0.0,0.06112172,0.0569774,-0.38994396,-0.50691444,0.10868411,0.077194646,-0.21394694,-0.4481155,-0.3585279,1.5337056,-0.06509152,-0.0006439539,90.90057,1.2128248,0.38688338,0.39637923,0.19058374,0.10692966,inf,inf,inf,inf,1,1,1,1,2,0,2,1,3,1,1,1,0
378568370,378566727,87964659,-6.3607016000000005,106.82454369999999,13.239747,-3.3985562,-1.0223919,0.010761263,0.016180344,0.0,0.066188775,0.032415193,-0.37321192,-0.4946317,0.10868411,0.077194646,-0.21394694,1.0587211,-2.5199175,2.9418595,-0.06568235,-0.0006439539,90.90057,1.2691268,0.3964938,0.3980899,0.19823655,0.10834175,inf,inf,inf,inf,1,1,1,1,2,0,2,1,3,1,1,1,0
378671822,378670156,87964659,-6.3607016000000005,106.82454369999999,13.247648,-3.3843129,-1.0747889,0.010761263,0.016180344,0.0,0.06795301,0.03519567,-0.35456574,-0.4778837,0.10868411,0.077194646,-0.21394694,-1.1129923,0.6059311,-4.941503,-0.06657646,-0.0006439539,90.90057,1.3215238,0.3882865,0.39859104,0.1883243,0.10751312,inf,inf,inf,inf,1,1,1,1,2,0,2,1,3,1,1,1,0
378770532,378769077,87964659,-6.3607016000000005,106.82454369999999,13.255826,-3.3703105,-1.1214452,0.010761263,0.016180344,0.0,0.08153517,0.034080535,-0.34278148,-0.46465176,0.10868411,0.077194646,-0.21394694,-0.5129328,0.530821,2.9343586,-0.06722881,-0.0006439539,90.90057,1.36818,0.39802775,0.40034002,0.19558574,0.108925365,inf,inf,inf,inf,1,1,1,1,2,0,2,1,3,1,1,1,0
378869366,378868004,87964659,-6.3607016000000005,106.82454369999999,13.261671,-3.3585963,-1.1778708,0.010761263,0.016180344,0.0,0.08170951,0.017101953,-0.3704782,-0.4994329,0.10868411,0.077194646,-0.21394694,0.9171065,0.16670297,-0.67386293,-0.06752565,-0.0006439539,90.90057,1.4246056,0.38799435,0.3973895,0.18296365,0.107245214,inf,inf,inf,inf,1,1,1,1,2,0,2,1,3,1,1,1,0
378968271,378966932,87964659,-6.3607016000000005,106.82454369999999,13.26774,-3.3500576,-1.2317895,0.010761263,0.016180344,0.0,0.070620045,0.010363854,-0.3653328,-0.4972792,0.10868411,0.077194646,-0.21394694,-0.5068661,0.22395864,-1.8128221,-0.068283655,-0.0006439539,90.90057,1.4785243,0.39756203,0.39911854,0.18976441,0.108652726,inf,inf,inf,inf,1,1,1,1,2,0,2,1,3,1,1,1,0
379071994,379070357,87964659,-6.3607016000000005,106.82454369999999,13.281516,-3.3388274,-1.2911466,0.010761263,0.016180344,0.0,0.078241706,0.006717997,-0.34861198,-0.48734674,0.10868411,0.077194646,-0.21394694,-0.50052553,-1.1237088,3.947519,-0.085067146,-0.015291217,90.90057,1.5378815,0.38774148,0.39619526,0.17839156,0.106987655,inf,inf,inf,inf,1,1,1,1,2,0,2,1,4,1,1,1,0
379170939,379169285,87964659,-6.3607016000000005,106.82454369999999,13.295843,-3.3300552,-1.3439633,0.010761263,0.016180344,0.0,0.08218372,-0.0020936488,-0.34937268,-0.49031252,0.10868411,0.077194646,-0.21394694,-0.15635428,0.13777554,0.2222649,-0.085755914,-0.015291217,90.90057,1.5906981,0.39710462,0.4004926,0.18548852,0.10867795,inf,inf,inf,inf,1,1,1,1,2,0,2,1,4,1,1,1,0
379269880,379268212,87964659,-6.3607016000000005,106.82454369999999,13.309446,-3.3196735,-1.4066657,0.010761263,0.016180344,0.0,0.07361356,-0.0059467214,-0.37982246,-0.53112596,0.10868411,0.077194646,-0.21394694,-2.065475,2.3910844,-3.3735623,-0.08440901,-0.015291217,90.90057,1.6534005,0.38757718,0.39755762,0.17571801,0.10701892,inf,inf,inf,inf,1,1,1,1,2,0,2,1,4,1,1,1,0
379368732,379367158,87964659,-6.3607016000000005,106.82454369999999,13.322057,-3.3121183,-1.4662389,0.010761263,0.016180344,0.0,0.08424039,-0.017385725,-0.39850143,-0.5549496,0.10868411,0.077194646,-0.21394694,0.14973308,0.09346919,3.5326147,-0.081973694,-0.015291217,90.90057,1.7129737,0.39672756,0.39927322,0.18331961,0.1084251,inf,inf,inf,inf,1,1,1,1,2,0,2,1,4,1,1,1,0
379471939,379470567,87964659,-6.3607016000000005,106.82454369999999,13.334414,-3.3034568,-1.5386544,0.010761263,0.016180344,0.0,0.07653088,-0.017758416,-0.52427536,-0.68731105,0.10868411,0.077194646,-0.21394694,-0.3548176,3.348912,-0.79580504,-0.07893831,-0.015291217,90.90057,1.7853893,0.387415,0.3963648,0.17450233,0.10678082,inf,inf,inf,inf,1,1,1,1,2,0,2,1,4,1,1,1,0
379571086,379569492,87964659,-6.3607016000000005,106.82454369999999,13.345778,-3.2970493,-1.6072446,0.010761263,0.016180344,0.0,0.072693415,-0.030740751,-0.49516833,-0.658135,0.10868411,0.077194646,-0.21394694,1.5906118,-0.9401838,1.498368,-0.077733435,-0.015291217,90.90057,1.8539795,0.3963913,0.3980535,0.1825465,0.10818046,inf,inf,inf,inf,1,1,1,1,2,0,2,1,4,1,1,1,0
379669766,379668420,87964659,-6.3607016000000005,106.82454369999999,13.354419,-3.2875385,-1.672763,0.010761263,0.016180344,0.0,0.061328277,-0.035793558,-0.44668806,-0.6098955,0.10868411,0.077194646,-0.21394694,-0.8712703,-1.756517,4.779183,-0.07754393,-0.015291217,90.90057,1.9194978,0.38720942,0.3977161,0.17400075,0.10681479,inf,inf,inf,inf,1,1,1,1,2,0,2,1,4,1,1,1,0
379769024,379767348,87964659,-6.3607016000000005,106.82454369999999,13.3613405,-3.2798493,-1.7295625,0.010761263,0.016180344,0.0,0.047386218,-0.04487692,-0.43293497,-0.59059006,0.10868411,0.077194646,-0.21394694,-1.6932645,0.027315574,-3.6832192,-0.07794625,-0.015291217,90.90057,1.9762974,0.396032,0.3994285,0.18203746,0.10822384,inf,inf,inf,inf,1,1,1,1,2,0,2,1,4,1,1,1,0
379867923,379866293,87964659,-6.3607016000000005,106.82454369999999,13.366099,-3.2687252,-1.7857565,0.010761263,0.016180344,0.0,0.04854907,-0.040981174,-0.40738097,-0.56251806,0.10868411,0.077194646,-0.21394694,0.4778699,0.6979607,1.7257437,-0.078788795,-0.015291217,90.90057,2.0324912,0.38709983,0.3965259,0.1737242,0.10659711,inf,inf,inf,inf,1,1,1,1,2,0,2,1,4,1,1,1,0
379971538,379969700,87964659,-6.3607016000000005,106.82454369999999,13.369899,-3.2610743,-1.840445,0.010761263,0.016180344,0.0,0.032248735,-0.06055203,-0.4053812,-0.5551877,0.10868411,0.077194646,-0.21394694,0.67461073,-1.5613562,3.2316625,-0.07931899,-0.015291217,90.90057,2.08718,0.39581096,0.39821252,0.18181857,0.10800039,inf,inf,inf,inf,1,1,1,1,2,0,2,1,4,1,1,1,0
380070260,380068639,87964659,-6.3607016000000005,106.82454369999999,13.364845,-3.2474062,-1.8976083,0.010761263,0.016180344,0.0,0.008877928,-0.056577094,-0.41883534,-0.56822383,0.10868411,0.077194646,-0.21394694,-2.2078543,1.2938657,-2.569929,-0.07967901,-0.015291217,90.90057,2.1443431,0.38779265,0.3983597,0.17506869,0.1069685,inf,inf,inf,inf,1,1,1,1,2,0,2,1,4,1,1,1,0
380168860,380167555,87964659,-6.3607016000000005,106.82454369999999,13.358879,-3.23689,-1.9519134,0.010761263,0.016180344,0.0,0.01349499,-0.055776075,-0.42889813,-0.57460356,0.10868411,0.077194646,-0.21394694,0.6435471,1.6936576,1.5503435,-0.07985513,-0.015291217,90.90057,2.1986482,0.39654642,0.40007558,0.18320633,0.10837666,inf,inf,inf,inf,1,1,1,1,2,0,2,1,4,1,1,1,0
380268063,380266483,87964659,-6.3607016000000005,106.82454369999999,13.354037,-3.2315342,-2.0146644,0.010761263,0.016180344,0.0,0.006400633,-0.079950854,-0.4973109,-0.64589375,0.10868411,0.077194646,-0.21394694,1.4166921,-1.3923646,-1.917144,-0.079056375,-0.015291217,90.90057,2.2613993,0.38794163,0.39729744,0.17517377,0.1068347,inf,inf,inf,inf,1,1,1,1,2,0,2,1,4,1,1,1,0
380371350,380369909,87964659,-6.3607016000000005,106.82454369999999,13.350739,-3.231691,-2.0893145,0.010761263,0.016180344,0.0,0.0068168314,-0.088552125,-0.6681916,-0.8150569,0.10868411,0.077194646,-0.21394694,0.15507396,-0.56432503,0.98715746,-0.07764975,-0.015291217,90.90057,2.3360493,0.39665127,0.39899972,0.18321627,0.10823863,inf,inf,inf,inf,1,1,1,1,2,0,2,1,4,1,1,0,0
380470302,380468836,87964659,-6.3607016000000005,106.82454369999999,13.349765,-3.2294111,-2.1763,0.010761263,0.016180344,0.0,0.0077684303,-0.09437303,-0.76713765,-0.9139257,0.10868411,0.077194646,-0.21394694,0.37743017,1.674002,-3.7514737,-0.07685518,-0.015291217,90.90057,2.423035,0.3877468,0.396085,0.1746948,0.10659358,inf,inf,inf,inf,1,1,1,1,2,0,2,1,4,1,1,0,0
380569358,380567764,87964659,-6.3607016000000005,106.82454369999999,13.350357,-3.2290256,-2.2659404,0.010761263,0.016180344,0.0,0.007615101,-0.10380192,-0.8254725,-0.96756077,0.10868411,0.077194646,-0.21394694,-0.84845394,-0.748125,0.38452494,-0.07667129,-0.015291217,90.90057,2.5126753,0.3963725,0.40035385,0.1827565,0.10828089,inf,inf,inf,inf,1,1,1,1,2,0,2,1,4,1,1,0,0
380668036,380666691,87964659,-6.3607016000000005,106.82454369999999,13.354739,-3.2400277,-2.3604958,0.010761263,0.016180344,0.0,0.020814776,-0.11432977,-0.8943459,-1.0298729,0.10868411,0.077194646,-0.21394694,0.29963192,2.3432093,-0.9042144,-0.07661946,-0.015291217,90.90057,2.6072307,0.38760966,0.39742726,0.17423116,0.10665279,inf,inf,inf,inf,1,1,1,1,2,0,2,1,4,1,1,0,0
380771574,380770122,87964659,-6.3607016000000005,106.82454369999999,13.360229,-3.255402,-2.456736,0.010761263,0.016180344,0.0,0.02775734,-0.13547477,-0.87112373,-0.99602747,0.10868411,0.077194646,-0.21394694,1.947917,-1.4487562,2.8833833,-0.07730132,-0.015291217,90.90057,2.703471,0.39617836,0.39912733,0.18185823,0.108061634,inf,inf,inf,inf,1,1,1,1,2,0,2,1,4,1,1,0,0
380870412,380869050,87964659,-6.3607016000000005,106.82454369999999,13.365982,-3.2740016,-2.541355,0.010761263,0.016180344,0.0,0.025650043,-0.15097943,-0.8160922,-0.9281213,0.10868411,0.077194646,-0.21394694,-0.044212036,-2.0662336,-0.10149264,-0.07814628,-0.015291217,90.90057,2.7880898,0.3874737,0.39623576,0.1730583,0.106448084,inf,inf,inf,inf,1,1,1,1,2,0,2,1,4,1,1,0,0
380969328,380967972,87964659,-6.3607016000000005,106.82454369999999,13.371841,-3.2938294,-2.6256957,0.010761263,0.016180344,0.0,0.027091578,-0.14577755,-0.8811531,-0.98215437,0.10868411,0.077194646,-0.21394694,0.54396415,1.2653031,-0.6690421,-0.07833374,-0.015291217,90.90057,2.8724306,0.39599285,0.4004984,0.18021956,0.10813644,inf,inf,inf,inf,1,1,1,1,2,0,2,1,4,1,1,0,0
381068584,381066900,87964659,-6.3607016000000005,106.82454369999999,13.37118,-3.3056934,-2.721287,0.010761263,0.016180344,0.0,0.0142450025,-0.14409368,-0.9117426,-1.0093228,0.10868411,0.077194646,-0.21394694,-1.9535991,-0.73495376,0.7697896,-0.07847653,-0.015291217,90.90057,2.9680219,0.38732785,0.39757738,0.1717067,0.1065218,inf,inf,inf,inf,1,1,1,1,2,0,2,1,4,1,1,0,0
381171977,381170324,87964659,-6.3607016000000005,106.82454369999999,13.369512,-3.3173156,-2.8205917,0.010761263,0.016180344,0.0,0.013970486,-0.13647602,-0.8900723,-0.98346883,0.10868411,0.077194646,-0.21394694,-0.7766557,1.1928469,-3.5137792,-0.07897769,-0.015291217,90.90057,3.0673265,0.39580858,0.3992692,0.17877531,0.10793073,inf,inf,inf,inf,1,1,1,1,2,0,2,1,4,1,1,0,0
381271022,381269253,87964659,-6.3607016000000005,106.82454369999999,13.3649235,-3.328186,-2.911277,0.010761263,0.016180344,0.0,0.014251122,-0.12826769,-0.859063,-0.9478526,0.10868411,0.077194646,-0.21394694,1.7623477,1.7756566,0.3759371,-0.079405196,-0.015291217,90.90057,3.158012,0.38718578,0.3963915,0.17015216,0.106331974,inf,inf,inf,inf,1,1,1,1,2,0,2,1,4,1,1,0,0
381374108,381372677,87964659,-6.3607016000000005,106.82454369999999,13.361336,-3.340288,-2.9952753,0.010761263,0.016180344,0.0,0.008457779,-0.1286558,-0.7315164,-0.8122037,0.10868411,0.077194646,-0.21394694,-0.41862342,-1.1836542,3.2574515,-0.07946875,-0.015291217,90.90057,3.24201,0.3956315,0.39805928,0.17684898,0.107736625,inf,inf,inf,inf,1,1,1,1,2,0,2,1,4,1,1,0,0
381468755,381467108,87964659,-6.3607016000000005,106.82454369999999,13.356355,-3.3473752,-3.0659547,0.010761263,0.016180344,0.0,0.0138580445,-0.11581481,-0.5995333,-0.67916614,0.10868411,0.077194646,-0.21394694,1.0633329,0.40830028,0.47926113,-0.07993396,-0.015291217,90.90057,3.3126895,0.3870366,0.3952066,0.16827823,0.10614806,inf,inf,inf,inf,1,1,1,1,2,0,2,1,4,1,1,0,0
381571868,381570533,87964659,-6.3607016000000005,106.82454369999999,13.352777,-3.3558745,-3.1277966,0.010761263,0.016180344,0.0,0.011687922,-0.12046188,-0.48142833,-0.55889523,0.10868411,0.077194646,-0.21394694,0.11819447,-1.9479414,8.18805,-0.07994295,-0.015291217,90.90057,3.3745315,0.39544818,0.39944464,0.17425644,0.10783649,inf,inf,inf,inf,1,1,1,1,2,0,2,1,4,1,1,0,0
381671002,381669461,87964659,-6.3607016000000005,106.82454369999999,13.337525,-3.363048,-3.1969025,0.010761263,0.016180344,0.0,-0.0034238766,-0.10883437,-0.48848954,-0.5787233,0.10868411,0.077194646,-0.21394694,-1.2604207,-1.2370534,-0.1970333,-0.07842542,-0.015291217,90.90057,3.4436374,0.38690895,0.39656958,0.1659717,0.10624808,inf,inf,inf,inf,1,1,1,1,2,0,2,1,4,1,1,0,0
381769756,381768402,87964659,-6.3607016000000005,106.82454369999999,13.3228245,-3.3706112,-3.265457,0.010761263,0.016180344,0.0,-0.0017411257,-0.09025366,-0.51758766,-0.61648375,0.10868411,0.077194646,-0.21394694,-0.029314885,1.8529472,-1.0195841,-0.077163,-0.015291217,90.90057,3.5121918,0.3952893,0.39824075,0.17208654,0.107656665,inf,inf,inf,inf,1,1,1,1,2,0,2,1,4,1,1,0,0
381873507,381871821,87964659,-6.3607016000000005,106.82454369999999,13.310982,-3.3708522,-3.351621,0.010761263,0.016180344,0.0,-0.0026758173,-0.09219204,-0.5369224,-0.65598977,0.10868411,0.077194646,-0.21394694,0.68238103,-0.6764661,1.6882564,-0.076179035,-0.015291217,90.90057,3.5983558,0.38677222,0.39539838,0.16431573,0.106080204,inf,inf,inf,inf,1,1,1,1,2,0,2,1,4,1,1,0,0
381967904,381966252,87964659,-6.3607016000000005,106.82454369999999,13.302173,-3.3703637,-3.4289155,0.010761263,0.016180344,0.0,-0.008476281,-0.08398082,-0.5348071,-0.666338,0.10868411,0.077194646,-0.21394694,-0.27675033,-1.6605593,-1.0817993,-0.075520314,-0.015291217,90.90057,3.6756504,0.39512908,0.3996355,0.17052181,0.10777145,inf,inf,inf,inf,1,1,1,1,2,0,2,1,4,1,1,0,0
382071122,382069670,87964659,-6.3607016000000005,106.82454369999999,13.299608,-3.3736038,-3.5135276,0.010761263,0.016180344,0.0,0.009461165,-0.065577224,-0.5355976,-0.68120414,0.10868411,0.077194646,-0.21394694,0.54817086,0.64009595,3.2682898,-0.07479347,-0.015291217,90.90057,3.7602625,0.38664263,0.39676148,0.16269441,0.10619038,inf,inf,inf,inf,1,1,1,1,2,0,2,1,4,1,1,0,0
382169934,382168629,87964659,-6.3607016000000005,106.82454369999999,13.300203,-3.3781667,-3.586171,0.010761263,0.016180344,0.0,0.016873917,-0.06459468,-0.50796556,-0.65867025,0.10868411,0.077194646,-0.21394694,-0.31439385,-0.050689343,-0.313077,-0.07393044,-0.015291217,90.90057,3.8329058,0.39497602,0.3984286,0.16832241,0.107602015,inf,inf,inf,inf,1,1,1,1,2,0,2,1,4,1,1,0,0
382268961,382267526,87964659,-6.3607016000000005,106.82454369999999,13.299646,-3.3811052,-3.6622846,0.010761263,0.016180344,0.0,0.025364785,-0.074078,-0.48394012,-0.6449222,0.10868411,0.077194646,-0.21394694,0.4322217,-1.4007859,0.70796376,-0.07345332,-0.015291217,90.90057,3.9090195,0.38652027,0.39558718,0.16098633,0.10603298,inf,inf,inf,inf,1,1,1,1,2,0,2,1,4,1,1,0,0
382368213,382366455,87964659,-6.3607016000000005,106.82454369999999,13.300522,-3.3849313,-3.7321215,0.010761263,0.016180344,0.0,0.03131854,-0.055459283,-0.52497745,-0.6886527,0.10868411,0.077194646,-0.21394694,-2.299539,1.0341748,-2.7423377,-0.07289764,-0.015291217,90.90057,3.9788563,0.39482996,0.39724115,0.16649905,0.10744192,inf,inf,inf,inf,1,1,1,1,2,0,2,1,4,1,1,0,0
382471576,382469934,87964659,-6.3607016000000005,106.82454369999999,13.303514,-3.3862956,-3.8073123,0.010761263,0.016180344,0.0,0.04969602,-0.058542266,-0.5092881,-0.6763764,0.10868411,0.077194646,-0.21394694,0.46336266,0.40359262,0.5632434,-0.0728897,-0.015291217,90.90057,4.054047,0.38640466,0.39695996,0.15922938,0.10615353,inf,inf,inf,inf,1,1,1,1,2,0,2,1,4,1,1,0,0
382570183,382568808,87964659,-6.3607016000000005,106.82454369999999,13.307902,-3.388111,-3.8771458,0.010761263,0.016180344,0.0,0.046328757,-0.053964447,-0.5846345,-0.7499404,0.10868411,0.077194646,-0.21394694,-0.17271112,1.7949276,-4.36051,-0.07308948,-0.015291217,90.90057,4.1238804,0.3946928,0.3986333,0.1648169,0.10756987,inf,inf,inf,inf,1,1,1,1,2,0,2,1,4,1,1,0,0
382669104,382667736,87964659,-6.3607016000000005,106.82454369999999,13.316157,-3.397604,-3.9563093,0.010761263,0.016180344,0.0,0.053895578,-0.062564366,-0.70707023,-0.8711893,0.10868411,0.077194646,-0.21394694,-1.8320643,-0.39231032,-2.4803066,-0.07282787,-0.015291217,90.90057,4.203044,0.38628086,0.39579996,0.15776263,0.106007524,inf,inf,inf,inf,1,1,1,1,2,0,2,1,4,1,1,0,0
382767961,382766664,87964659,-6.3607016000000005,106.82454369999999,13.325192,-3.4084682,-4.048105,0.010761263,0.016180344,0.0,0.057317354,-0.055389076,-0.9308438,-1.0876817,0.10868411,0.077194646,-0.21394694,-1.9270372,0.07652595,-1.689597,-0.07278454,-0.015291217,90.90057,4.2948394,0.39454976,0.397452,0.16344254,0.10741892,inf,inf,inf,inf,1,1,1,1,2,0,2,1,4,1,1,0,0
382871571,382870090,87964659,-6.3607016000000005,106.82454369999999,13.328634,-3.4074087,-4.152434,0.010761263,0.016180344,0.0,0.054252107,-0.046555813,-1.0717977,-1.2126958,0.10868411,0.077194646,-0.21394694,-1.1991484,0.3079338,-1.5512494,-0.07337899,-0.015291217,90.90057,4.3991685,0.38617566,0.39464098,0.15703893,0.10586401,inf,inf,inf,inf,1,1,1,1,2,0,2,1,4,1,1,0,0
382970490,382969017,87964659,-6.3607016000000005,106.82454369999999,13.331356,-3.4045293,-4.2578764,0.010761263,0.016180344,0.0,0.06058384,-0.040780436,-1.0819969,-1.2056702,0.10868411,0.077194646,-0.21394694,0.02279802,-0.41008073,4.324211,-0.07442204,-0.015291217,90.90057,4.504611,0.39443398,0.39885437,0.16258346,0.10755606,inf,inf,inf,inf,1,1,1,1,2,0,2,1,4,1,1,0,0
383069658,383067945,87964659,-6.3607016000000005,106.82454369999999,13.332847,-3.410048,-4.3558307,0.010761263,0.016180344,0.0,0.052240763,-0.04126858,-1.0861162,-1.1877995,0.10868411,0.077194646,-0.21394694,-0.058103878,1.3672538,-4.4630866,-0.07527894,-0.015291217,90.90057,4.6025653,0.38609228,0.3960277,0.15602496,0.10599949,inf,inf,inf,inf,1,1,1,1,2,0,2,1,4,1,1,0,0
383168567,383166874,87964659,-6.3607016000000005,106.82454369999999,13.334913,-3.417145,-4.45329,0.010761263,0.016180344,0.0,0.048669916,-0.033482756,-1.0714935,-1.1545185,0.10868411,0.077194646,-0.21394694,-0.62805134,0.76687235,0.7916474,-0.075838424,-0.015291217,90.90057,4.7000246,0.39433184,0.39768755,0.16095024,0.107415386,inf,inf,inf,inf,1,1,1,1,2,0,2,1,4,1,1,0,0
383271891,383270299,87964659,-6.3607016000000005,106.82454369999999,13.340072,-3.4196029,-4.558561,0.010761263,0.016180344,0.0,0.04909633,-0.046209615,-1.0439394,-1.1140355,0.10868411,0.077194646,-0.21394694,-0.02205233,-1.1841348,2.9811337,-0.07633003,-0.015291217,90.90057,4.8052955,0.38614336,0.39493895,0.15442753,0.10590235,inf,inf,inf,inf,1,1,1,1,2,0,2,1,4,1,1,0,0
383370652,383369227,87964659,-6.3607016000000005,106.82454369999999,13.345737,-3.4214118,-4.6571565,0.010761263,0.016180344,0.0,0.043796867,-0.02883685,-1.0629702,-1.1215565,0.10868411,0.077194646,-0.21394694,-1.0819948,1.3360003,-5.812354,-0.076740704,-0.015291217,90.90057,4.903891,0.39437205,0.39915925,0.1593717,0.10759694,inf,inf,inf,inf,1,1,1,1,2,0,2,1,4,1,1,0,0
383469451,383468159,87964659,-6.3607016000000005,106.82454369999999,13.35196,-3.4226863,-4.7589993,0.010761263,0.016180344,0.0,0.050349202,-0.020548126,-1.0540683,-1.1052086,0.10868411,0.077194646,-0.21394694,0.0035609498,0.6842288,2.5947526,-0.07672254,-0.015291217,90.90057,5.005734,0.38628042,0.39645973,0.15298565,0.10611751,inf,inf,inf,inf,1,1,1,1,2,0,2,1,4,1,1,0,0
383568438,383567084,87964659,-6.3607016000000005,106.82454369999999,13.358292,-3.424194,-4.862588,0.010761263,0.016180344,0.0,0.047369376,-0.034794852,-1.051531,-1.0965273,0.10868411,0.077194646,-0.21394694,0.90808827,-1.2628316,1.3048933,-0.076433815,-0.015291217,90.90057,5.1093225,0.39450756,0.39812392,0.15800785,0.107533924,inf,inf,inf,inf,1,1,1,1,2,0,2,1,4,1,1,0,0
383672133,383670509,87964659,-6.3607016000000005,106.82454369999999,13.368634,-3.4304965,-4.968399,0.010761263,0.016180344,0.0,0.047143683,-0.020409852,-1.0669376,-1.1045226,0.10868411,0.077194646,-0.21394694,-0.28113872,1.6379731,-3.4081042,-0.07652361,-0.015291217,90.90057,5.2151337,0.3862399,0.39530188,0.15165022,0.105974674,inf,inf,inf,inf,1,1,1,1,2,0,2,1,4,1,1,0,0
383771290,383769445,87964659,-6.3607016000000005,106.82454369999999,13.378837,-3.437204,-5.0672297,0.010761263,0.016180344,0.0,0.05097317,-0.022466192,-1.0302203,-1.0589261,0.10868411,0.077194646,-0.21394694,-0.14048451,-0.9104158,6.380414,-0.07661057,-0.015291217,90.90057,5.3139644,0.39444077,0.39696267,0.15645707,0.1073899,inf,inf,inf,inf,1,1,1,1,2,0,2,1,4,1,1,0,0
383870040,383868366,87964659,-6.3607016000000005,106.82454369999999,13.388216,-3.4385443,-5.160518,0.010761263,0.016180344,0.0,0.049648546,-0.023371894,-1.0467114,-1.0640346,0.10868411,0.077194646,-0.21394694,-0.51066786,-0.23089011,-2.8235857,-0.07633029,-0.015291217,90.90057,5.407253,0.38615823,0.3966938,0.15022457,0.10610908,inf,inf,inf,inf,1,1,1,1,2,0,2,1,4,1,1,0,0
