timestamp,x,y,z,yaw,yawspeed,vx,vy,vz,acceleration[0],acceleration[1],acceleration[2],jerk[0],jerk[1],jerk[2],thrust[0],thrust[1],thrust[2]
368082380,nan,nan,nan,-0.06200923,0.0,nan,nan,nan,0.0,0.0,100.0,0.0,0.0,0.0,-0.0,-0.0,-0.001
368172323,nan,nan,nan,-0.060501095,0.0,nan,nan,nan,0.0,0.0,100.0,0.0,0.0,0.0,-0.0,-0.0,-0.001
368271042,nan,nan,nan,-0.061880555,0.0,nan,nan,nan,0.0,0.0,100.0,0.0,0.0,0.0,-0.0,-0.0,-0.001
368370093,nan,nan,nan,-0.06069286,0.0,nan,nan,nan,0.0,0.0,100.0,0.0,0.0,0.0,-0.0,-0.0,-0.001
368469030,nan,nan,nan,-0.06175279,0.0,nan,nan,nan,0.0,0.0,100.0,0.0,0.0,0.0,-0.0,-0.0,-0.001
368572524,nan,nan,nan,-0.060910266,0.0,nan,nan,nan,0.0,0.0,100.0,0.0,0.0,0.0,-0.0,-0.0,-0.001
368671119,nan,nan,nan,-0.06155713,0.0,nan,nan,nan,0.0,0.0,100.0,0.0,0.0,0.0,-0.0,-0.0,-0.001
368774650,nan,nan,nan,-0.06093524,0.0,nan,nan,nan,0.0,0.0,100.0,0.0,0.0,0.0,-0.0,-0.0,-0.001
368869008,nan,nan,nan,-0.061453044,0.0,nan,nan,nan,0.0,0.0,100.0,0.0,0.0,0.0,-0.0,-0.0,-0.001
368972480,nan,nan,nan,-0.060968895,0.0,nan,nan,nan,0.0,0.0,100.0,0.0,0.0,0.0,-0.0,-0.0,-0.001
369071560,nan,nan,nan,-0.06130514,0.0,nan,nan,nan,0.0,0.0,100.0,0.0,0.0,0.0,-0.0,-0.0,-0.001
369170333,nan,nan,nan,-0.06093457,0.0,nan,nan,nan,0.0,0.0,100.0,0.0,0.0,0.0,-0.0,-0.0,-0.001
369269163,nan,nan,nan,-0.061153848,0.0,nan,nan,nan,0.0,0.0,100.0,0.0,0.0,0.0,-0.0,-0.0,-0.001
369368078,nan,nan,nan,-0.060974747,0.0,nan,nan,nan,0.0,0.0,100.0,0.0,0.0,0.0,-0.0,-0.0,-0.001
369471267,nan,nan,nan,-0.061163936,0.0,nan,nan,nan,0.0,0.0,100.0,0.0,0.0,0.0,-0.0,-0.0,-0.001
369570212,nan,nan,nan,-0.060995895,0.0,nan,nan,nan,0.0,0.0,100.0,0.0,0.0,0.0,-0.0,-0.0,-0.001
369669691,nan,nan,nan,-0.061074898,0.0,nan,nan,nan,0.0,0.0,100.0,0.0,0.0,0.0,-0.0,-0.0,-0.001
369768501,nan,nan,nan,-0.060929786,0.0,nan,nan,nan,0.0,0.0,100.0,0.0,0.0,0.0,-0.0,-0.0,-0.001
369871894,nan,nan,nan,-0.060931724,0.0,nan,nan,nan,0.0,0.0,100.0,0.0,0.0,0.0,-0.0,-0.0,-0.001
369970410,nan,nan,nan,-0.06076025,0.0,nan,nan,nan,0.0,0.0,100.0,0.0,0.0,0.0,-0.0,-0.0,-0.001
370069437,nan,nan,nan,-0.060823727,0.0,nan,nan,nan,0.0,0.0,100.0,0.0,0.0,0.0,-0.0,-0.0,-0.001
370168607,nan,nan,nan,-0.060632497,0.0,nan,nan,nan,0.0,0.0,100.0,0.0,0.0,0.0,-0.0,-0.0,-0.001
370271819,nan,nan,nan,-0.060711917,0.0,nan,nan,nan,0.0,0.0,100.0,0.0,0.0,0.0,-0.0,-0.0,-0.001
370370947,nan,nan,nan,-0.06053027,0.0,nan,nan,nan,0.0,0.0,100.0,0.0,0.0,0.0,-0.0,-0.0,-0.001
370469955,nan,nan,nan,-0.060721632,0.0,nan,nan,nan,0.0,0.0,100.0,0.0,0.0,0.0,-0.0,-0.0,-0.001
370568722,nan,nan,nan,-0.060714114,0.0,nan,nan,nan,0.0,0.0,100.0,0.0,0.0,0.0,-0.0,-0.0,-0.001
370672205,nan,nan,nan,-0.06092876,0.0,nan,nan,nan,0.0,0.0,100.0,0.0,0.0,0.0,-0.0,-0.0,-0.001
370771024,nan,nan,nan,-0.060834337,0.0,nan,nan,nan,0.0,0.0,100.0,0.0,0.0,0.0,-0.0,-0.0,-0.001
370870213,nan,nan,nan,-0.060990445,0.0,nan,nan,nan,0.0,0.0,100.0,0.0,0.0,0.0,-0.0,-0.0,-0.001
370969122,nan,nan,nan,-0.060864158,0.0,nan,nan,nan,0.0,0.0,100.0,0.0,0.0,0.0,-0.0,-0.0,-0.001
371073055,nan,nan,nan,-0.061041106,0.0,nan,nan,nan,0.0,0.0,100.0,0.0,0.0,0.0,-0.0,-0.0,-0.001
371171339,nan,nan,nan,-0.060898628,0.0,nan,nan,nan,0.0,0.0,100.0,0.0,0.0,0.0,-0.0,-0.0,-0.001
371270021,nan,nan,nan,-0.060916416,0.0,nan,nan,nan,0.0,0.0,100.0,0.0,0.0,0.0,-0.0,-0.0,-0.001
371369181,nan,nan,nan,-0.06072742,0.0,nan,nan,nan,0.0,0.0,100.0,0.0,0.0,0.0,-0.0,-0.0,-0.001
371468045,nan,nan,nan,-0.06080559,0.0,nan,nan,nan,0.0,0.0,100.0,0.0,0.0,0.0,-0.0,-0.0,-0.001
371571859,nan,nan,nan,-0.06078877,0.0,nan,nan,nan,0.0,0.0,100.0,0.0,0.0,0.0,-0.0,-0.0,-0.001
371670605,nan,nan,nan,-0.061055373,0.0,nan,nan,nan,0.0,0.0,100.0,0.0,0.0,0.0,-0.0,-0.0,-0.001
371769074,nan,nan,nan,-0.0608879,0.0,nan,nan,nan,0.0,0.0,100.0,0.0,0.0,0.0,-0.0,-0.0,-0.001
371872935,nan,nan,nan,-0.06115086,0.0,nan,nan,nan,0.0,0.0,100.0,0.0,0.0,0.0,-0.0,-0.0,-0.001
371971550,nan,nan,nan,-0.061151598,0.0,nan,nan,nan,0.0,0.0,100.0,0.0,0.0,0.0,-0.0,-0.0,-0.001
372070468,nan,nan,nan,-0.06121163,0.0,nan,nan,nan,0.0,0.0,100.0,0.0,0.0,0.0,-0.0,-0.0,-0.001
372169611,nan,nan,nan,-0.061077025,0.0,nan,nan,nan,0.0,0.0,100.0,0.0,0.0,0.0,-0.0,-0.0,-0.001
372268656,nan,nan,nan,-0.061109144,0.0,nan,nan,nan,0.0,0.0,100.0,0.0,0.0,0.0,-0.0,-0.0,-0.001
372372116,nan,nan,nan,-0.06126438,0.0,nan,nan,nan,0.0,0.0,100.0,0.0,0.0,0.0,-0.0,-0.0,-0.001
372470973,nan,nan,nan,-0.06116841,0.0,nan,nan,nan,0.0,0.0,100.0,0.0,0.0,0.0,-0.0,-0.0,-0.001
372569734,nan,nan,nan,-0.06133542,0.0,nan,nan,nan,0.0,0.0,100.0,0.0,0.0,0.0,-0.0,-0.0,-0.001
372668629,nan,nan,nan,-0.06111859,0.0,nan,nan,nan,0.0,0.0,100.0,0.0,0.0,0.0,-0.0,-0.0,-0.001
372772344,nan,nan,nan,-0.061153267,0.0,nan,nan,nan,0.0,0.0,100.0,0.0,0.0,0.0,-0.0,-0.0,-0.001
372871126,nan,nan,nan,-0.060956493,0.0,nan,nan,nan,0.0,0.0,100.0,0.0,0.0,0.0,-0.0,-0.0,-0.001
372970196,nan,nan,nan,-0.060993414,0.0,nan,nan,nan,0.0,0.0,100.0,0.0,0.0,0.0,-0.0,-0.0,-0.001
373073319,nan,nan,nan,-0.060780983,0.0,nan,nan,nan,0.0,0.0,100.0,0.0,0.0,0.0,-0.0,-0.0,-0.001
373172345,nan,nan,nan,-0.06097972,0.0,nan,nan,nan,0.0,0.0,100.0,0.0,0.0,0.0,-0.0,-0.0,-0.001
373271231,nan,nan,nan,-0.060849555,0.0,nan,nan,nan,0.0,0.0,100.0,0.0,0.0,0.0,-0.0,-0.0,-0.001
373369961,nan,nan,nan,-0.061002653,0.0,nan,nan,nan,0.0,0.0,100.0,0.0,0.0,0.0,-0.0,-0.0,-0.001
373469428,nan,nan,nan,-0.060890935,0.0,nan,nan,nan,0.0,0.0,100.0,0.0,0.0,0.0,-0.0,-0.0,-0.001
373568189,nan,nan,nan,-0.060960338,0.0,nan,nan,nan,0.0,0.0,100.0,0.0,0.0,0.0,-0.0,-0.0,-0.001
373671247,nan,nan,nan,-0.060631078,0.0,nan,nan,nan,0.0,0.0,100.0,0.0,0.0,0.0,-0.0,-0.0,-0.001
373770332,nan,nan,nan,-0.060638327,0.0,nan,nan,nan,0.0,0.0,100.0,0.0,0.0,0.0,-0.0,-0.0,-0.001
373869047,nan,nan,nan,-0.0604853,0.0,nan,nan,nan,0.0,0.0,100.0,0.0,0.0,0.0,-0.0,-0.0,-0.001
373972572,nan,nan,nan,-0.06063947,0.0,nan,nan,nan,0.0,0.0,100.0,0.0,0.0,0.0,-0.0,-0.0,-0.001
374071784,nan,nan,nan,-0.06060711,0.0,nan,nan,nan,0.0,0.0,100.0,0.0,0.0,0.0,-0.0,-0.0,-0.001
374170858,nan,nan,nan,-0.060655065,0.0,nan,nan,nan,0.0,0.0,100.0,0.0,0.0,0.0,-0.0,-0.0,-0.001
374274131,nan,nan,nan,-0.060538914,0.0,nan,nan,nan,0.0,0.0,100.0,0.0,0.0,0.0,-0.0,-0.0,-0.001
374368570,nan,nan,nan,-0.0605495,0.0,nan,nan,nan,0.0,0.0,100.0,0.0,0.0,0.0,-0.0,-0.0,-0.001
374467400,nan,nan,nan,-0.060573507,0.0,nan,nan,nan,0.0,0.0,100.0,0.0,0.0,0.0,-0.0,-0.0,-0.001
374570548,nan,nan,nan,-0.06046963,0.0,-0.0075425487,-0.003424185,2.3215969,0.18553954,0.11276555,9.487129,0.0,0.0,0.0,0.00030820642,0.00018731893,-0.016291037
374669975,13.410869,-3.4355533,nan,-0.06046963,0.0,0.0010926246,0.00025209188,2.1409104,0.05101415,0.025854558,9.174697,0.0,0.0,0.0,0.00016781657,8.505137e-05,-0.03222065
374768857,13.410869,-3.4355533,nan,-0.06046963,0.0,0.004604244,0.0013195752,1.9613782,0.05057887,0.039261527,8.836656,0.0,0.0,0.0,0.00025486393,0.0001978365,-0.04945596
374872326,13.410869,-3.4355533,nan,-0.06046963,0.0,0.0070766923,0.0032989383,1.7731922,0.038704444,0.029767936,8.550486,0.0,0.0,0.0,0.00025219293,0.00019396386,-0.06404657
374970838,13.410869,-3.4355533,nan,-0.06046963,0.0,0.009078932,0.005158031,1.5942576,0.015374852,0.013313654,8.0756645,0.0,0.0,0.0,0.00013821329,0.000119683995,-0.08825571
375069730,13.410869,-3.4355533,nan,-0.06046963,0.0,0.010378122,0.0029736876,1.4144655,0.026673049,0.033449575,7.6257687,0.0,0.0,0.0,0.00030181903,0.0003784988,-0.111194015
375168653,13.410869,-3.4355533,nan,-0.06046963,0.0,0.011119222,0.0005109787,1.2348549,-0.024170384,-0.041196957,7.2142177,0.0,0.0,0.0,-0.00032578074,-0.00055527355,-0.13217728
375272232,13.410869,-3.4355533,nan,-0.06046963,0.0,0.011795091,-0.004448867,1.0467925,-0.058087956,-0.073888615,6.673441,0.0,0.0,0.0,-0.0009459494,-0.0012032597,-0.15974921
375371475,13.410869,-3.4355533,nan,-0.06046963,0.0,0.01193099,-0.009155488,0.86631155,-0.052561782,-0.08761032,6.171648,0.0,0.0,0.0,-0.000993667,-0.0016562507,-0.18533354
375470405,13.410869,-3.4355533,nan,-0.06046963,0.0,0.013775587,-0.012814331,0.6863684,-0.003214174,-0.010517936,5.588357,0.0,0.0,0.0,-7.197636e-05,-0.00023553261,-0.2150731
375568866,13.410869,-3.4355533,nan,-0.06046963,0.0,0.014913511,-0.015834903,0.50742674,0.08128541,-0.09438987,4.9724097,0.0,0.0,0.0,0.0020442808,-0.0023738504,-0.24647766
375667955,13.410869,-3.4355533,nan,-0.06046963,0.0,0.019775962,-0.016736817,0.32771263,0.006105286,-0.08938402,4.263301,0.0,0.0,0.0,0.00017594406,-0.0025758971,-0.28263214
375771472,13.410869,-3.4355533,nan,-0.06046963,0.0,0.023786783,-0.016922545,0.13928127,0.02479152,-0.06708021,3.6259727,0.0,0.0,0.0,0.00079567544,-0.0021529167,-0.31512684
375870903,13.410869,-3.4355533,nan,-0.06046963,0.0,0.029988289,-0.01594113,-0.041032325,0.047375195,0.018254563,2.9682636,0.0,0.0,0.0,0.0016887161,0.0006506944,-0.34866068
375969418,13.410869,-3.4355533,nan,-0.06046963,0.0,0.035027407,-0.014527559,-0.22027215,0.041868817,0.008010024,2.3294973,0.0,0.0,0.0,0.0016250494,0.00031089206,-0.3812287
376068380,13.410869,-3.4355533,nan,-0.06046963,0.0,0.039303683,-0.01398555,-0.40012825,0.021864101,0.070305504,2.0635562,0.0,0.0,0.0,0.00088034815,0.0028308192,-0.3947879
376171590,13.410869,-3.4355533,nan,-0.06046963,0.0,0.042240907,-0.012444007,-0.50104576,0.06437586,0.08321774,2.691791,0.0,0.0,0.0,0.0023819802,0.0030791513,-0.36275685
376270575,13.410869,-3.4355533,nan,-0.06046963,0.0,0.046003483,-0.0121858,-0.50104576,0.09050829,0.009854021,3.4495134,0.0,0.0,0.0,0.0029894393,0.0003254729,-0.32412377
376369266,13.410869,-3.4355533,nan,-0.06046963,0.0,0.048888158,-0.011869156,-0.50104576,0.0842652,0.07264249,3.7212563,0.0,0.0,0.0,0.0026665933,0.0022987896,-0.31026873
376468356,13.410869,-3.4355533,nan,-0.06046963,0.0,0.05676031,-0.008179056,-0.49820787,0.08662175,0.044047754,3.5664895,0.0,0.0,0.0,0.0028108617,0.0014293424,-0.31815964
376572014,13.410869,-3.4355533,nan,-0.06046963,0.0,0.06457176,-0.003414452,-0.46374828,0.12859875,0.078138754,3.5024846,0.0,0.0,0.0,0.004216292,0.0025618898,-0.321423
376670802,13.410869,-3.4355533,nan,-0.06046963,0.0,0.075598575,0.00012457371,-0.3885268,0.24080613,0.09609418,3.7135756,0.0,0.0,0.0,0.007628098,0.0030440083,-0.31066033
376770200,13.410869,-3.4355533,nan,-0.06046963,0.0,0.08546028,0.003324759,-0.35370925,0.1655474,0.081814125,3.636878,0.0,0.0,0.0,0.0053106803,0.0026245574,-0.31457084
376873053,13.410869,-3.4355533,nan,-0.06046963,0.0,0.09861436,0.0154195065,-0.35370928,0.28239098,0.12262287,3.563971,0.0,0.0,0.0,0.009165205,0.003979815,-0.31828806
376971974,13.410869,-3.4355533,nan,-0.06046963,0.0,0.11002622,0.029159987,-0.34390986,0.18296783,0.1486319,3.3476062,0.0,0.0,0.0,0.006144313,0.0049912655,-0.3293196
377070734,13.410869,-3.4355533,nan,-0.06046963,0.0,0.12060819,0.042680312,-0.27797422,0.27988684,0.23463568,3.7296615,0.0,0.0,0.0,0.008842959,0.0074132597,-0.3098402
377170182,13.410869,-3.4355533,nan,-0.06046963,0.0,0.12830095,0.054905068,-0.21319532,0.24781314,0.18902135,3.824832,0.0,0.0,0.0,0.0077071018,0.0058786506,-0.30498785
377268983,13.410869,-3.4355533,nan,-0.06046963,0.0,0.13271403,0.057112742,-0.20562615,0.215804,0.10339002,3.7063377,0.0,0.0,0.0,0.006844863,0.003279321,-0.31102937
377372474,13.410869,-3.4355533,nan,-0.06046963,0.0,0.13444538,0.0565961,-0.20562615,0.19920368,0.15745802,3.37069,0.0,0.0,0.0,0.0066655325,0.0052686855,-0.32814264
377471168,13.410869,-3.4355533,nan,-0.06046963,0.0,0.14056806,0.06382976,-0.20923729,0.28862107,0.15701908,3.4523544,0.0,0.0,0.0,0.009534666,0.0051871636,-0.3239789
377570065,13.410869,-3.4355533,nan,-0.06046963,0.0,0.14588985,0.07201515,-0.21286158,0.21860696,0.12931694,3.378265,0.0,0.0,0.0,0.0073066936,0.0043222746,-0.32775643
377673595,13.410869,-3.4355533,nan,-0.06046963,0.0,0.15145172,0.07535237,-0.21286158,0.22679877,0.16670582,3.4432528,0.0,0.0,0.0,0.007503101,0.0055150674,-0.32444298
377767893,13.410869,-3.4355533,nan,-0.06046963,0.0,0.15524964,0.07681577,-0.21286158,0.27647474,0.09937237,3.428555,0.0,0.0,0.0,0.009167566,0.0032950665,-0.32519236
377871555,13.410869,-3.4355533,nan,-0.06046963,0.0,0.16054697,0.063654445,-0.21874139,0.2545937,0.04483442,2.9950557,0.0,0.0,0.0,0.009015345,0.0015876188,-0.34729466
377966095,13.410869,-3.4355533,nan,-0.06046963,0.0,0.16419359,0.049324393,-0.28817052,0.31428897,0.017699057,2.5484145,0.0,0.0,0.0,0.01185965,0.00066787144,-0.37006703
378069474,13.410869,-3.4355533,nan,-0.06046963,0.0,0.169143,0.03526772,-0.3322543,0.29798982,-0.019143688,3.7130036,0.0,0.0,0.0,0.009440708,-0.00060649717,-0.3106895
378172751,13.410869,-3.4355533,nan,-0.06046963,0.0,0.17135724,0.024331283,-0.35309076,0.2659409,-0.03794281,3.682623,0.0,0.0,0.0,0.008467352,-0.0012080697,-0.31223848
378271398,13.410869,-3.4355533,nan,-0.06046963,0.0,0.1739502,0.002399516,-0.3983906,0.23266914,-0.06846906,2.90384,0.0,0.0,0.0,0.008349671,-0.0024571118,-0.35194537
378370451,13.410869,-3.4355533,nan,-0.06046963,0.0,0.1740127,-0.01741631,-0.42431325,0.27972847,-0.1585097,3.7015052,0.0,0.0,0.0,0.008879122,-0.005031404,-0.31127575
378469429,13.410869,-3.4355533,nan,-0.06046963,0.0,0.16948275,-0.028331231,-0.42431325,0.1711156,-0.1498712,3.5511732,0.0,0.0,0.0,0.0055648964,-0.0048740017,-0.31894055
378568580,13.410869,-3.4355533,nan,-0.06046963,0.0,0.16256551,-0.035147224,-0.42431325,0.18626554,-0.047652587,3.5026855,0.0,0.0,0.0,0.0061044195,-0.0015617027,-0.32141274
378672010,13.410869,-3.4355533,nan,-0.06046963,0.0,0.15505938,-0.04867842,-0.42785475,0.2008026,-0.13394007,3.2925055,0.0,0.0,0.0,0.006800291,-0.004535955,-0.33212894
378770684,13.410869,-3.4355533,nan,-0.06046963,0.0,0.14729051,-0.061980627,-0.43355224,0.12368383,-0.19001378,3.3519402,0.0,0.0,0.0,0.0041507166,-0.0063766893,-0.3290986
378869592,13.410869,-3.4355533,nan,-0.06046963,0.0,0.1417377,-0.073109135,-0.43355224,0.11611956,-0.1329942,3.4808102,0.0,0.0,0.0,0.003818815,-0.00437377,-0.32252806
378968519,13.410869,-3.4355533,nan,-0.06046963,0.0,0.13597198,-0.081220925,-0.43355224,0.17846632,-0.13660325,3.470427,0.0,0.0,0.0,0.005879738,-0.0045005204,-0.32305747
379072209,13.410869,-3.4355533,nan,-0.07576085,0.0,0.12288494,-0.09188964,-0.4381306,0.09961094,-0.17532673,3.3731444,0.0,0.0,0.0,0.0033319923,-0.005864691,-0.3280175
379171038,13.410869,-3.4355533,nan,-0.07576085,0.0,0.109274246,-0.10022317,-0.44288865,0.068059176,-0.16186593,3.401926,0.0,0.0,0.0,0.0022659642,-0.005389169,-0.32655004
379269987,13.410869,-3.4355533,nan,-0.07576085,0.0,0.09635119,-0.110085785,-0.44415715,0.107501164,-0.20840122,3.406253,0.0,0.0,0.0,0.0035771267,-0.0069346,-0.32632944
379368925,13.410869,-3.4355533,nan,-0.07576085,0.0,0.084371276,-0.117263265,-0.5051998,9.7159296e-05,-0.1773094,2.6300488,0.0,0.0,0.0,3.625457e-06,-0.006616223,-0.36590484
379472183,13.410869,-3.4355533,nan,-0.07576085,0.0,0.07263236,-0.1254917,-0.5472197,0.0042037982,-0.22252588,3.8533638,0.0,0.0,0.0,0.00013011294,-0.006887461,-0.30353314
379571188,13.410869,-3.4355533,nan,-0.07576085,0.0,0.06183567,-0.13157882,-0.5472197,0.013549482,-0.17067002,3.755762,0.0,0.0,0.0,0.0004262405,-0.005368948,-0.30850944
379669868,13.410869,-3.4355533,nan,-0.07576085,0.0,0.053627394,-0.14061405,-0.5472197,0.03860061,-0.18287395,3.5743165,0.0,0.0,0.0,0.0012511191,-0.005927292,-0.3177606
379769253,13.410869,-3.4355533,nan,-0.07576085,0.0,0.047051717,-0.14791882,-0.5472197,0.084494166,-0.16403607,3.5070796,0.0,0.0,0.0,0.0027673547,-0.005372512,-0.32118872
379868118,13.410869,-3.4355533,nan,-0.07576085,0.0,0.042530823,-0.15848674,-0.5472197,0.0164837,-0.23773293,3.395756,0.0,0.0,0.0,0.00054934557,-0.007922829,-0.32686463
379972052,13.410869,-3.4355533,nan,-0.07576085,0.0,0.038921356,-0.16575505,-0.5472197,0.06468927,-0.15641513,3.3686852,0.0,0.0,0.0,0.0021646002,-0.0052338843,-0.32824486
380070359,13.410869,-3.4355533,nan,-0.07576085,0.0,0.0437222,-0.17873971,-0.5472197,0.15532458,-0.23652074,3.418704,0.0,0.0,0.0,0.0051586996,-0.007855416,-0.32569462
380168962,13.410869,-3.4355533,nan,-0.07576085,0.0,0.049390078,-0.18873008,-0.5472197,0.07707216,-0.27855048,3.4454668,0.0,0.0,0.0,0.0025490837,-0.009212775,-0.3243301
380268256,13.410869,-3.4355533,nan,-0.07576085,0.0,0.05398979,-0.1938181,-0.5472197,0.103748105,-0.16622117,-1.3667614,0.0,0.0,0.0,0.003967122,-0.006355969,-0.3749812
380371722,13.410869,-3.4355533,nan,-0.07576085,0.0,0.057123613,-0.1936693,-0.5472197,0.110664606,-0.19540949,-0.69709694,0.0,0.0,0.0,0.003963182,-0.0069981124,-0.35121065
380470475,13.410869,-3.4355533,nan,-0.07576085,0.0,0.05804863,-0.19583507,-0.5530765,0.11355182,-0.21396552,-0.42718726,0.0,0.0,0.0,0.0039472524,-0.0074378015,-0.3408523
380569481,13.410869,-3.4355533,nan,-0.07576085,0.0,0.05748601,-0.19620132,-0.5842314,0.12555516,-0.18701552,-0.7571964,0.0,0.0,0.0,0.0045130644,-0.0067222486,-0.35249987
380668344,13.410869,-3.4355533,nan,-0.07576085,0.0,0.053322982,-0.18574937,-0.6090362,0.05529456,-0.15894358,0.33096611,0.0,0.0,0.0,0.0017784203,-0.005112049,-0.3153925
380771825,13.410869,-3.4355533,nan,-0.07576085,0.0,0.0481081,-0.17114367,-0.5767241,0.034578357,-0.056536928,0.2133527,0.0,0.0,0.0,0.0011271581,-0.0018429462,-0.31929183
380870661,13.410869,-3.4355533,nan,-0.07576085,0.0,0.042642258,-0.15347412,-0.613118,0.058126677,0.01354919,-0.8720686,0.0,0.0,0.0,0.002107573,0.0004912702,-0.3559835
380969444,13.410869,-3.4355533,nan,-0.07576085,0.0,0.03707585,-0.13463767,-0.65228754,0.05420658,-0.031824708,-0.042724013,0.0,0.0,0.0,0.0018138054,-0.001064886,-0.3279669
381068777,13.410869,-3.4355533,nan,-0.07576085,0.0,0.03770461,-0.12336693,-0.6526287,0.12549919,-0.021559743,0.18803918,0.0,0.0,0.0,0.004092594,-0.0007030745,-0.31970817
381172184,13.410869,-3.4355533,nan,-0.07576085,0.0,0.039289188,-0.11232585,-0.6526287,0.09928506,-0.021810332,0.1453414,0.0,0.0,0.0,0.0032479288,-0.000713485,-0.32085246
381271124,13.410869,-3.4355533,nan,-0.07576085,0.0,0.043647908,-0.10199891,-0.62044793,0.069624476,-0.018169286,0.902551,0.0,0.0,0.0,0.0021011692,-0.00054832356,-0.29582447
381374267,13.410869,-3.4355533,nan,-0.07576085,0.0,0.047056247,-0.09050212,-0.5091862,0.12443497,0.030626912,1.6194196,0.0,0.0,0.0,0.0034524105,0.00084973435,-0.27210692
381468942,13.410869,-3.4355533,nan,-0.07576085,0.0,0.051788233,-0.08376925,-0.38621032,0.09891651,-0.015426632,0.791659,0.0,0.0,0.0,0.0030233276,-0.00047150638,-0.29976144
381572108,13.410869,-3.4355533,nan,-0.07576085,0.0,0.055187512,-0.07569484,-0.35191283,0.115552105,0.061674234,-0.2829161,0.0,0.0,0.0,0.003949908,0.002108205,-0.3352488
381671233,13.410869,-3.4355533,nan,-0.07576085,0.0,0.06967611,-0.06887997,-0.35370928,0.21486178,0.03889719,-0.17738062,0.0,0.0,0.0,0.0072607477,0.0013144389,-0.33136436
381769855,13.410869,-3.4355533,nan,-0.07576085,0.0,0.083641954,-0.061695013,-0.35370928,0.19505501,-0.03349358,-0.01253438,0.0,0.0,0.0,0.0064746863,-0.0011117911,-0.32554582
381873609,13.410869,-3.4355533,nan,-0.07576085,0.0,0.09489255,-0.061466027,-0.35370928,0.19310391,0.037950523,0.16022915,0.0,0.0,0.0,0.0063003744,0.0012382065,-0.32001743
381968101,13.410869,-3.4355533,nan,-0.07576085,0.0,0.10326118,-0.06193012,-0.35370928,0.2598703,0.03317394,0.22322243,0.0,0.0,0.0,0.0084232325,0.0010752743,-0.3178763
382071372,13.410869,-3.4355533,nan,-0.07576085,0.0,0.10569739,-0.058852017,-0.35370928,0.19482495,-0.053559624,0.30835563,0.0,0.0,0.0,0.0062600113,-0.0017209491,-0.3151429
382170136,13.410869,-3.4355533,nan,-0.07576085,0.0,0.10513205,-0.054517303,-0.35370928,0.19149177,-0.02637518,0.25093752,0.0,0.0,0.0,0.0061850916,-0.0008519055,-0.31681073
382269112,13.410869,-3.4355533,nan,-0.07576085,0.0,0.105661154,-0.05172572,-0.3654097,0.20256534,0.06260263,-0.22407103,0.0,0.0,0.0,0.006872809,0.0021240353,-0.3327545
382368688,13.410869,-3.4355533,nan,-0.07576085,0.0,0.10482945,-0.048090886,-0.418006,0.20950687,-0.054028213,0.074590206,0.0,0.0,0.0,0.006899902,-0.0017793659,-0.32300293
382471679,13.410869,-3.4355533,nan,-0.07576085,0.0,0.10198736,-0.046794865,-0.4347467,0.12942342,-0.013604933,-0.31586975,0.0,0.0,0.0,0.0044315625,-0.00046584394,-0.3359049
382570285,13.410869,-3.4355533,nan,-0.07576085,0.0,0.097817995,-0.045070086,-0.5228259,0.18785748,-0.025701147,-1.0457149,0.0,0.0,0.0,0.0069010057,-0.0009441401,-0.360193
382669203,13.410869,-3.4355533,nan,-0.07576085,0.0,0.08997574,-0.03605186,-0.6868793,0.14979488,0.05565598,-1.5517353,0.0,0.0,0.0,0.0057639037,0.0021415667,-0.37742975
382768254,13.410869,-3.4355533,nan,-0.07576085,0.0,0.081392385,-0.025730813,-0.8720557,0.13239117,0.009799307,-0.9475088,0.0,0.0,0.0,0.0048178006,0.00035660312,-0.35687277
382871816,13.410869,-3.4355533,nan,-0.07576085,0.0,0.07812266,-0.026737368,-0.9719248,0.15231855,-0.030320175,0.013835371,0.0,0.0,0.0,0.0050388095,-0.0010030137,-0.3245293
382970641,13.410869,-3.4355533,nan,-0.07576085,0.0,0.07553697,-0.02947278,-1.0148526,0.099691905,-0.010581442,-0.07912499,0.0,0.0,0.0,0.0033324342,-0.0003537094,-0.32773468
383069760,13.410869,-3.4355533,nan,-0.07576085,0.0,0.0741209,-0.024230039,-1.0599353,0.13768154,0.019546174,-0.22628853,0.0,0.0,0.0,0.0046658493,0.00066239457,-0.33229083
383168757,13.410869,-3.4355533,nan,-0.07576085,0.0,0.07215762,-0.017487884,-1.0705667,0.14202958,-0.01710931,0.03466347,0.0,0.0,0.0,0.004689776,-0.00056494446,-0.32379615
383272087,13.410869,-3.4355533,nan,-0.07576085,0.0,0.067257114,-0.015152919,-1.0705667,0.12506862,0.075305104,-0.11039066,0.0,0.0,0.0,0.0041931034,0.0025247107,-0.3286715
383370918,13.410869,-3.4355533,nan,-0.07576085,0.0,0.061874628,-0.013434482,-1.0705667,0.1398158,-0.016004674,-0.07612705,0.0,0.0,0.0,0.0046675117,-0.0005342887,-0.32739916
383469603,13.410869,-3.4355533,nan,-0.07576085,0.0,0.05596304,-0.012223625,-1.0705667,0.07597408,-0.052227117,-0.13142613,0.0,0.0,0.0,0.002550536,-0.0017533237,-0.32929876
383568724,13.410869,-3.4355533,nan,-0.07576085,0.0,0.049948167,-0.010791254,-1.0705667,0.079802826,0.07024675,-0.15577158,0.0,0.0,0.0,0.0026870493,0.0023652855,-0.33017442
383672238,13.410869,-3.4355533,nan,-0.07576085,0.0,0.0401227,-0.004804015,-1.0705667,0.08594219,-0.01988854,-0.11931121,0.0,0.0,0.0,0.002883141,-0.0006672098,-0.32892066
383771765,13.410869,-3.4355533,nan,-0.07576085,0.0,0.030430412,0.0015680433,-1.0705667,0.04186778,0.012487277,-0.28134063,0.0,0.0,0.0,0.0014316844,0.0004270071,-0.33483893
383870143,13.410869,-3.4355533,nan,-0.07576085,0.0,0.021519994,0.002841413,-1.0705667,0.05179722,0.042084314,-0.26677892,0.0,0.0,0.0,0.0017664231,0.0014351871,-0.3342166
383968935,13.410869,-3.4355533,nan,-0.07576085,0.0,0.01366415,0.0033709644,-1.0242014,-0.00094678067,-0.0736819,0.8053197,0.0,0.0,0.0,-2.8822273e-05,-0.0022430536,-0.2987313
384072492,13.410869,-3.4355533,nan,-0.07576085,0.0,0.014242172,-0.000240767,-0.9565781,0.040669344,0.039701853,0.067756206,0.0,0.0,0.0,0.0013415827,0.0013096676,-0.3233569
384171191,13.410869,-3.4355533,nan,-0.07576085,0.0,0.016186427,-0.0038524985,-0.9635305,0.10479279,0.0019437606,-0.6240202,0.0,0.0,0.0,0.0037011465,6.865113e-05,-0.3463814
384270837,13.410869,-3.4355533,nan,-0.07576085,0.0,0.019223308,-0.0120614525,-0.94810915,0.055154353,-0.103901505,0.32518113,0.0,0.0,0.0,0.0017719623,-0.003338078,-0.31491393
384369370,13.410869,-3.4355533,nan,-0.07576085,0.0,0.021841621,-0.019403147,-0.8479873,0.11291648,-0.043618415,1.0542608,0.0,0.0,0.0,0.003345117,-0.0012921826,-0.29040068
384472798,13.410869,-3.4355533,nan,-0.07576085,0.0,0.021702098,-0.02715367,-0.79240656,0.08529823,-0.061289914,0.14518349,0.0,0.0,0.0,0.0027897765,-0.002004557,-0.32077467
384571332,13.410869,-3.4355533,nan,-0.07576085,0.0,0.020758962,-0.033021998,-0.79714423,0.12990345,-0.112106755,-0.21104237,0.0,0.0,0.0,0.004403809,-0.00380049,-0.3324261
384670562,13.410869,-3.4355533,nan,-0.07576085,0.0,0.022354411,-0.04446262,-0.8286916,0.051803533,-0.13450927,-0.37849393,0.0,0.0,0.0,0.0017861944,-0.0046379017,-0.33813068
384774432,13.410869,-3.4355533,nan,-0.07576085,0.0,0.02418089,-0.055691693,-0.83013165,0.08321172,-0.16928959,0.008862123,0.0,0.0,0.0,0.002756481,-0.0056079063,-0.3248528
384868471,13.410869,-3.4355533,nan,-0.07576085,0.0,0.019093752,-0.061787426,-0.82399327,0.097987816,-0.1670161,0.33233798,0.0,0.0,0.0,0.0031402968,-0.0053525046,-0.31421888
384971918,13.410869,-3.4355533,nan,-0.07576085,0.0,0.01313324,-0.065058954,-0.8010208,0.0760917,-0.121346086,0.15358531,0.0,0.0,0.0,0.0024842727,-0.0039617564,-0.32009545
385070800,13.410869,-3.4355533,nan,-0.07576085,0.0,0.013767433,-0.07414786,-0.7819896,0.10227814,-0.17189875,0.30330706,0.0,0.0,0.0,0.0032850336,-0.005521152,-0.31496912
385160519,13.410869,-3.4355533,nan,-0.07576085,0.0,0.01504035,-0.080667816,-0.7700814,0.093321025,-0.16592474,0.27507958,0.0,0.0,0.0,0.003009538,-0.0053509567,-0.3162667
385268448,13.410869,-3.4355533,nan,-0.07576085,0.0,0.017055273,-0.077895485,-0.6888699,0.07347755,-0.07580074,1.2059997,0.0,0.0,0.0,0.002138342,-0.0022059514,-0.28539714
385367419,13.410869,-3.4355533,nan,-0.07576085,0.0,0.01852207,-0.07154268,-0.5832573,0.16400401,-0.05590918,0.825337,0.0,0.0,0.0,0.004984112,-0.0016990905,-0.29798052
385470776,13.410869,-3.4355533,nan,-0.07576085,0.0,0.026983118,-0.073546275,-0.5306151,0.09737279,-0.14230517,0.6277751,0.0,0.0,0.0,0.003025128,-0.004421064,-0.30471712
385570016,13.410869,-3.4355533,nan,-0.07576085,0.0,0.034925032,-0.07521919,-0.43217063,0.18289188,-0.097545266,0.9853395,0.0,0.0,0.0,0.0054621603,-0.00291324,-0.2928959
385669334,13.410869,-3.4355533,nan,-0.07576085,0.0,0.039343547,-0.08282566,-0.31144637,0.12775132,-0.101637356,0.86754245,0.0,0.0,0.0,0.0038668376,-0.0030764076,-0.29684204
385772433,13.410869,-3.4355533,nan,-0.07576085,0.0,0.041583154,-0.08837915,-0.26003143,0.11749244,-0.05189031,-0.13971081,0.0,0.0,0.0,0.003961406,-0.0017495475,-0.33062035
385870902,13.410869,-3.4355533,nan,-0.07576085,0.0,0.052443266,-0.097659215,-0.26892018,0.24355517,-0.16142644,-0.19718987,0.0,0.0,0.0,0.008260238,-0.0054748207,-0.33257806
385969813,13.410869,-3.4355533,nan,-0.07576085,0.0,0.06251607,-0.10415698,-0.26892018,0.16620968,-0.14433128,-0.10798672,0.0,0.0,0.0,0.0055831266,-0.004848212,-0.32945886
386068929,13.410869,-3.4355533,nan,-0.07576085,0.0,0.07157235,-0.11461777,-0.26892018,0.226766,-0.092007056,0.052482188,0.0,0.0,0.0,0.007490231,-0.0030390539,-0.32393235
386172463,13.410869,-3.4355533,nan,-0.07576085,0.0,0.07783093,-0.12154067,-0.26892018,0.24710414,-0.16286828,0.1608725,0.0,0.0,0.0,0.008071432,-0.005319944,-0.32036
386271420,13.410869,-3.4355533,nan,-0.07576085,0.0,0.08394546,-0.13506734,-0.27273434,0.17755474,-0.16397652,0.002601184,0.0,0.0,0.0,0.0058992878,-0.0054481495,-0.32585743
386370302,13.410869,-3.4355533,nan,-0.07576085,0.0,0.08772616,-0.14477752,-0.31430203,0.23146357,-0.14519554,-0.7965412,0.0,0.0,0.0,0.008314077,-0.005215365,-0.3522859
386469155,13.410869,-3.4355533,nan,-0.07576085,0.0,0.09371386,-0.15811868,-0.43503264,0.19040743,-0.22463058,-1.8377792,0.0,0.0,0.0,0.007519549,-0.008871086,-0.3872739
386568136,13.410869,-3.4355533,nan,-0.07576085,0.0,0.09726081,-0.16668686,-0.6494213,0.13188261,-0.1856923,-2.278857,0.0,0.0,0.0,0.005402147,-0.0076062884,-0.4016986
386671496,13.410869,-3.4355533,nan,-0.07576085,0.0,0.10100979,-0.17836961,-0.80976367,0.18310802,-0.22928287,-1.1581107,0.0,0.0,0.0,0.0067953374,-0.008508936,-0.36393768
386770221,13.410869,-3.4355533,nan,-0.07576085,0.0,0.10295314,-0.18647529,-0.8987699,0.2022518,-0.19220674,-0.17460167,0.0,0.0,0.0,0.0068248506,-0.0064858855,-0.33092847
386869111,13.410869,-3.4355533,nan,-0.07576085,0.0,0.10790891,-0.19807604,-0.91526616,0.16274264,-0.25915608,0.22285166,0.0,0.0,0.0,0.005274986,-0.00840004,-0.31785458
386972978,13.410869,-3.4355533,nan,-0.07576085,0.0,0.11012859,-0.20368208,-0.91526616,0.18408872,-0.18616225,0.017110571,0.0,0.0,0.0,0.0060953666,-0.0061640227,-0.3247015
387072403,13.410869,-3.4355533,nan,-0.07576085,0.0,0.11307941,-0.21077418,-0.91526616,0.21620943,-0.22380182,-0.25934392,0.0,0.0,0.0,0.007364969,-0.0076235966,-0.33403638
387175278,13.410869,-3.4355533,nan,-0.07576085,0.0,0.11305404,-0.21201064,-0.91526616,0.17383693,-0.13942532,-0.4615234,0.0,0.0,0.0,0.006046313,-0.0048494246,-0.34104604
387269491,13.410869,-3.4355533,nan,-0.07576085,0.0,0.11888318,-0.21681261,-0.91121763,0.23531273,-0.16446538,-0.06266695,0.0,0.0,0.0,0.007862519,-0.0054952917,-0.3276856
387368618,13.410869,-3.4355533,nan,-0.07576085,0.0,0.12227339,-0.21600695,-0.8657682,0.20135146,-0.23280767,0.72029245,0.0,0.0,0.0,0.0061945408,-0.0071622846,-0.3016796
387467368,13.410869,-3.4355533,nan,-0.07576085,0.0,0.12546158,-0.22007802,-0.7486764,0.2017956,-0.20479798,1.696822,0.0,0.0,0.0,0.005539653,-0.005622074,-0.2692069
387570628,13.410869,-3.4355533,nan,-0.07576085,0.0,0.12536736,-0.219235,-0.56357485,0.21323779,-0.17001331,2.5132036,0.0,0.0,0.0,0.0052638934,-0.004196873,-0.2421144
387669883,13.410869,-3.4355533,nan,-0.07576085,0.0,0.12414698,-0.22377922,-0.3656937,0.1734832,-0.21853438,1.9019315,0.0,0.0,0.0,0.0046405913,-0.0058456887,-0.26233834
387769020,13.410869,-3.4355533,nan,-0.07576085,0.0,0.12031736,-0.22400822,-0.2365899,0.19201414,-0.16367123,0.8668472,0.0,0.0,0.0,0.005812935,-0.004954897,-0.29685152
387871929,13.410869,-3.4355533,nan,-0.07576085,0.0,0.11843471,-0.22924642,-0.20075692,0.15827115,-0.2198816,-0.039134428,0.0,0.0,0.0,0.0052779866,-0.007332556,-0.32704407
387971235,13.410869,-3.4355533,nan,-0.07576085,0.0,0.115237474,-0.23075445,-0.21113002,0.1499148,-0.19283281,0.028927475,0.0,0.0,0.0,0.0049657114,-0.0063873082,-0.3248443
388069780,13.410869,-3.4355533,nan,-0.07576085,0.0,0.11295891,-0.22903238,-0.20923729,0.15678851,-0.10132611,-0.044643212,0.0,0.0,0.0,0.0052326983,-0.0033816819,-0.3272887
388168971,13.410869,-3.4355533,nan,-0.07576085,0.0,0.10890732,-0.22188593,-0.20627423,0.22441722,-0.14585786,0.3146781,0.0,0.0,0.0,0.0072107487,-0.0046865577,-0.31510273
388272523,13.410869,-3.4355533,nan,-0.07576085,0.0,0.10638051,-0.21808077,-0.17769437,0.13268289,-0.14417535,0.29357222,0.0,0.0,0.0,0.004272475,-0.0046425397,-0.315768
388371411,13.410869,-3.4355533,nan,-0.07576085,0.0,0.102646925,-0.21138617,-0.15631285,0.14556983,-0.051617492,0.119017914,0.0,0.0,0.0,0.0047736196,-0.0016926741,-0.32161662
388470473,13.410869,-3.4355533,nan,-0.07576085,0.0,0.10036383,-0.21130373,-0.120117754,0.10292688,-0.09818518,0.48852736,0.0,0.0,0.0,0.0032471372,-0.0030975463,-0.30935276
388568900,13.410869,-3.4355533,nan,-0.07576085,0.0,0.09635119,-0.20760162,-0.102284506,0.15742007,-0.1130804,0.044529825,0.0,0.0,0.0,0.0052022208,-0.003736939,-0.3240773
388668078,13.410869,-3.4355533,nan,-0.07576085,0.0,0.095129915,-0.2107393,-0.102284506,0.10184708,-0.18206382,-0.05582256,0.0,0.0,0.0,0.0034007416,-0.006079231,-0.3274857
388771705,13.410869,-3.4355533,nan,-0.07576085,0.0,0.09189825,-0.2092614,-0.092386246,0.12772486,-0.09685096,0.43053436,0.0,0.0,0.0,0.0040559196,-0.0030755152,-0.31139252
388870337,13.410869,-3.4355533,nan,-0.07576085,0.0,0.09100857,-0.20941202,-0.038430583,0.14121276,-0.17696835,0.6973963,0.0,0.0,0.0,0.0043566236,-0.0054597366,-0.30252752
388969560,13.410869,-3.4355533,nan,-0.07576085,0.0,0.08889217,-0.20618103,-0.006816039,0.10471861,-0.17364198,-0.0127279535,0.0,0.0,0.0,0.0034849155,-0.0057786065,-0.32632628
389072956,13.410869,-3.4355533,nan,-0.07576085,0.0,0.089138605,-0.20616336,-0.026849201,0.15365706,-0.09985438,0.051499814,0.0,0.0,0.0,0.0050863246,-0.0033053593,-0.32458562
389167273,13.410869,-3.4355533,nan,-0.07576085,0.0,0.088155605,-0.20353259,-0.006416792,0.09089161,-0.12422392,-0.16743128,0.0,0.0,0.0,0.0030746886,-0.004202257,-0.3317614
389270415,13.410869,-3.4355533,nan,-0.07576085,0.0,0.08904257,-0.20174213,0.025024977,0.13407643,-0.17710513,0.4366955,0.0,0.0,0.0,0.0042599556,-0.005627089,-0.31159493
389369311,13.410869,-3.4355533,nan,-0.07576085,0.0,0.08892751,-0.19801375,0.022430671,0.07167336,-0.12775557,-0.61600983,0.0,0.0,0.0,0.002534076,-0.004516913,-0.34676385
389468517,13.410869,-3.4355533,-7.880977,-0.07576085,0.0,0.08958072,-0.19737323,-0.01176548,0.11032255,-0.06933811,-0.12264678,0.0,0.0,0.0,0.0037158132,-0.0023354017,-0.33027998
389572090,13.410869,-3.4355533,-7.880977,-0.07576085,0.0,0.08748426,-0.19201791,-0.025794983,0.18876453,-0.10947586,-0.008792747,0.0,0.0,0.0,0.00628299,-0.003643882,-0.32644877
389670866,13.410869,-3.4355533,nan,-0.07576085,0.0,0.08743534,-0.19210172,-0.025335511,0.119372234,-0.079001136,0.2564828,0.0,0.0,0.0,0.0038671242,-0.0025592821,-0.3176972
389769861,13.410869,-3.4355533,nan,-0.07576085,0.0,0.0850843,-0.18844332,0.03755496,0.10722416,-0.12943357,0.7583236,0.0,0.0,0.0,0.0032902427,-0.003971753,-0.3009608
389868941,13.410869,-3.4355533,nan,-0.07576085,0.0,0.08764281,-0.19018713,0.060230915,0.11973628,-0.14097087,-0.012638929,0.0,0.0,0.0,0.003989643,-0.004697185,-0.32671544
389972030,13.410869,-3.4355533,nan,-0.07576085,0.0,0.0876718,-0.18714572,0.06974579,0.10332825,-0.08755453,-0.159588,0.0,0.0,0.0,0.0034961575,-0.0029624468,-0.3317839
390071607,13.410869,-3.4355533,nan,-0.07576085,0.0,0.09075398,-0.18921614,0.08340225,0.14754519,-0.13473803,0.08015284,0.0,0.0,0.0,0.0048699975,-0.0044472744,-0.32370222
390170165,13.410869,-3.4355533,nan,-0.07576085,0.0,0.09094424,-0.18742114,0.1414064,0.08277267,-0.20622537,0.9393486,0.0,0.0,0.0,0.0024896124,-0.0062027867,-0.29501665
390269097,13.410869,-3.4355533,nan,-0.07576085,0.0,0.09377546,-0.19036923,0.22013584,0.11422909,-0.16176996,0.15989953,0.0,0.0,0.0,0.0037395915,-0.005295967,-0.32108358
390372410,13.410869,-3.4355533,nan,-0.07576085,0.0,0.0932065,-0.18899983,0.21086398,0.13877845,-0.09625986,-0.98252237,0.0,0.0,0.0,0.005079909,-0.00352354,-0.35901183
390471224,13.410869,-3.4355533,nan,-0.07576085,0.0,0.09535098,-0.19292934,0.15962203,0.12455646,-0.21872327,-0.42317915,0.0,0.0,0.0,0.004323051,-0.0075913505,-0.3403475
390570100,13.410869,-3.4355533,nan,-0.07576085,0.0,0.09540624,-0.19385912,0.16535144,0.13722172,-0.14319713,-0.068775445,0.0,0.0,0.0,0.0045947405,-0.004794821,-0.32836747
390673719,13.410869,-3.4355533,nan,-0.07576085,0.0,0.097837925,-0.19710618,0.16535144,0.14230968,-0.2719879,-0.037991997,0.0,0.0,0.0,0.0047513964,-0.009081056,-0.32740724
390768309,13.410869,-3.4355533,nan,-0.07576085,0.0,0.0982728,-0.19828306,0.20113975,0.06940189,-0.26087698,0.6949039,0.0,0.0,0.0,0.002144928,-0.008062638,-0.30310452
390871651,13.410869,-3.4355533,nan,-0.07576085,0.0,0.097890474,-0.20357223,0.25475457,0.13021389,-0.24339254,0.08839773,0.0,0.0,0.0,0.0042906813,-0.008020034,-0.3231229
390970300,13.410869,-3.4355533,nan,-0.07576085,0.0,0.09475937,-0.20564876,0.2501977,0.09736168,-0.31411493,-0.17953148,0.0,0.0,0.0,0.0032972416,-0.010637786,-0.33210015
391069408,13.410869,-3.4355533,nan,-0.07576085,0.0,0.09422664,-0.21089332,0.2501977,0.17040996,-0.3113504,-0.21936324,0.0,0.0,0.0,0.0057939207,-0.010585879,-0.33343863
391172793,13.410869,-3.4355533,nan,-0.07576085,0.0,0.091139026,-0.21133272,0.2501977,0.12509383,-0.31129834,-0.11852125,0.0,0.0,0.0,0.004209679,-0.010475866,-0.33001813
391271779,13.410869,-3.4355533,nan,-0.07576085,0.0,0.09265656,-0.21407719,0.2501977,0.10244475,-0.28807515,-0.17372873,0.0,0.0,0.0,0.003469929,-0.009757457,-0.33214667
391370664,13.410869,-3.4355533,nan,-0.07576085,0.0,0.09512629,-0.21495895,0.2501977,0.15920566,-0.27081987,0.022173427,0.0,0.0,0.0,0.0052841743,-0.008988747,-0.32548657
391469618,13.410869,-3.4355533,nan,-0.07576085,0.0,0.09993529,-0.22044201,0.27088302,0.14526989,-0.2667453,0.6398765,0.0,0.0,0.0,0.0045224493,-0.008304145,-0.30528334
391568677,13.410869,-3.4355533,nan,-0.07576085,0.0,0.101663925,-0.22124448,0.3286575,0.099052586,-0.24392432,0.21206813,0.0,0.0,0.0,0.0032264898,-0.00794547,-0.31944874
391671892,13.410869,-3.4355533,nan,-0.07576085,0.0,0.106632374,-0.2259006,0.3251029,0.15393116,-0.24504966,0.17484677,0.0,0.0,0.0,0.0050345478,-0.008014713,-0.3207398
391770938,13.410869,-3.4355533,nan,-0.07576085,0.0,0.10906043,-0.22609222,0.3310309,0.14104727,-0.20441331,0.110972315,0.0,0.0,0.0,0.0046464493,-0.0067338846,-0.3230396
391869595,13.410869,-3.4355533,nan,-0.07576085,0.0,0.11068668,-0.23189327,0.33284277,0.12786356,-0.25833383,0.1734539,0.0,0.0,0.0,0.0041837557,-0.008452805,-0.32089067
391973239,13.410869,-3.4355533,nan,-0.07576085,0.0,0.10805206,-0.2321952,0.33284277,0.08704871,-0.19249374,-0.07436439,0.0,0.0,0.0,0.0029225862,-0.006462813,-0.3292364
392072329,13.410869,-3.4355533,nan,-0.07576085,0.0,0.10348134,-0.23119566,0.33284277,0.12504068,-0.23624362,-0.03909511,0.0,0.0,0.0,0.0041817003,-0.007900628,-0.32794878
392171313,13.410869,-3.4355533,nan,-0.07576085,0.0,0.09611201,-0.22455679,0.33284277,0.04757265,-0.13175778,-0.25968927,0.0,0.0,0.0,0.0016269566,-0.0045060385,-0.3354216
392270040,13.410869,-3.4355533,nan,-0.07576085,0.0,0.0967906,-0.21834238,0.3354518,0.14503331,-0.16967218,-0.13433057,0.0,0.0,0.0,0.0048987484,-0.0057309684,-0.33128318
392368876,13.410869,-3.4355533,nan,-0.07576085,0.0,0.09637565,-0.20795678,0.3354518,0.13878828,-0.122494854,-0.095664784,0.0,0.0,0.0,0.004672223,-0.0041237143,-0.33009112
392472512,13.410869,-3.4355533,nan,-0.07576085,0.0,0.09616546,-0.20356137,0.35309854,0.085283786,-0.1756272,0.1547901,0.0,0.0,0.0,0.0027983102,-0.005762636,-0.32172173
392571067,13.410869,-3.4355533,nan,-0.07576085,0.0,0.092997216,-0.19708376,0.37998113,0.08136884,-0.064042255,0.06956068,0.0,0.0,0.0,0.0026931458,-0.0021196706,-0.32478732
392670947,13.410869,-3.4355533,nan,-0.07576085,0.0,0.088257074,-0.19604142,0.4492568,0.044498168,-0.1429867,1.0422274,0.0,0.0,0.0,0.0013266931,-0.004263085,-0.29228657
392769275,13.410869,-3.4355533,nan,-0.07576085,0.0,0.08132353,-0.19267611,0.5729386,0.110537544,-0.11607145,1.0202936,0.0,0.0,0.0,0.0033014144,-0.0034666953,-0.29292694
392868318,13.410869,-3.4355533,nan,-0.07576085,0.0,0.07501511,-0.19361539,0.61358696,0.05831664,-0.13990965,-0.081163764,0.0,0.0,0.0,0.0019601712,-0.0047027203,-0.3296856
392971513,13.410869,-3.4355533,nan,-0.07576085,0.0,0.06644444,-0.1890132,0.5828925,0.053705655,-0.09208118,-0.7263362,0.0,0.0,0.0,0.0019239276,-0.0032986754,-0.35132474
393070422,13.410869,-3.4355533,nan,-0.07576085,0.0,0.059065152,-0.18037547,0.52886933,0.025459038,-0.10261126,-0.64468175,0.0,0.0,0.0,0.0009055039,-0.0036495843,-0.3485914
393169296,13.410869,-3.4355533,nan,-0.07576085,0.0,0.050893117,-0.16747802,0.47136882,-0.009949442,-0.07663253,-0.7210181,0.0,0.0,0.0,-0.00035614314,-0.0027430835,-0.35131934
393272713,13.410869,-3.4355533,nan,-0.07576085,0.0,0.04531946,-0.16297366,0.40108797,-0.028956639,-0.1506119,-0.6766041,0.0,0.0,0.0,-0.0010334192,-0.005375114,-0.35001913
393371920,13.410869,-3.4355533,nan,-0.07576085,0.0,0.038745593,-0.1574478,0.3355942,-0.014076252,-0.081595585,-0.75531745,0.0,0.0,0.0,-0.00050633884,-0.0029350864,-0.35275385
393470768,13.410869,-3.4355533,nan,-0.07576085,0.0,0.036430787,-0.15559867,0.30265543,-0.054468203,-0.077936985,0.08596848,0.0,0.0,0.0,-0.0018022908,-0.002578846,-0.32460532
393569347,13.410869,-3.4355533,nan,-0.07576085,0.0,0.032951783,-0.15054166,0.30264962,0.014847634,-0.101182014,0.39853165,0.0,0.0,0.0,0.00047536092,-0.0032394372,-0.31399706
393668662,13.410869,-3.4355533,nan,-0.07576085,0.0,0.028765202,-0.14762709,0.30264962,0.011408355,-0.10624306,0.17350821,0.0,0.0,0.0,0.00037407433,-0.0034836577,-0.32136825
393771828,13.410869,-3.4355533,nan,-0.07576085,0.0,0.022035504,-0.14102037,0.30264962,0.01631542,-0.06990395,0.17781247,0.0,0.0,0.0,0.00053422956,-0.002288924,-0.3212643
393870804,13.410869,-3.4355533,nan,-0.07576085,0.0,0.020968245,-0.13733843,0.29438278,0.059936322,-0.11115293,-0.18665645,0.0,0.0,0.0,0.0020375876,-0.0037787415,-0.33348852
393970047,13.410869,-3.4355533,nan,-0.07576085,0.0,0.018730449,-0.13093625,0.2767104,0.03911999,-0.10909992,0.087223396,0.0,0.0,0.0,0.001293816,-0.003608263,-0.3244193
394068866,13.410869,-3.4355533,nan,-0.07576085,0.0,0.015235138,-0.12254066,0.32352296,0.014120869,-0.09046051,1.2400041,0.0,0.0,0.0,0.0004115711,-0.0026365893,-0.28585273
394172220,13.410869,-3.4355533,nan,-0.07576085,0.0,0.0103600025,-0.11102122,0.4281467,-0.01099143,-0.040983975,1.3331649,0.0,0.0,0.0,-0.0003169116,-0.001181675,-0.2827954
394271108,13.410869,-3.4355533,nan,-0.07576085,0.0,0.0036783218,-0.10318327,0.48842844,-0.0530843,-0.084945396,0.19815317,0.0,0.0,0.0,-0.0017350576,-0.002776436,-0.32073754
394370110,13.410869,-3.4355533,nan,-0.07576085,0.0,-0.0033992766,-0.09415009,0.46728224,-0.04230791,-0.045015413,-0.5423067,0.0,0.0,0.0,-0.0014883765,-0.0015836253,-0.34544954
394468900,13.410869,-3.4355533,nan,-0.07576085,0.0,-0.0045661926,-0.09392268,0.36132386,-0.020752132,-0.041964963,-1.0738682,0.0,0.0,0.0,-0.00076840766,-0.0015538741,-0.36328292
394572618,13.410869,-3.4355533,nan,-0.07576085,0.0,-0.0056189536,-0.092582725,0.28419787,-0.058405485,-0.115977086,-0.13755995,0.0,0.0,0.0,-0.0019775876,-0.0039269403,-0.3321183
394671509,13.410869,-3.4355533,nan,-0.07576085,0.0,-0.009126043,-0.09245974,0.2808253,0.018618258,-0.09335416,0.9238832,0.0,0.0,0.0,0.0005628129,-0.0028220105,-0.29632595
394770511,13.410869,-3.4355533,nan,-0.07576085,0.0,-0.01408,-0.08999839,0.34918737,-0.051764194,-0.16176994,1.4414587,0.0,0.0,0.0,-0.0014726399,-0.0046021943,-0.27898034
394873589,13.410869,-3.4355533,nan,-0.07576085,0.0,-0.02045908,-0.09225929,0.39999816,-0.07264354,-0.14876755,0.55107486,0.0,0.0,0.0,-0.0022859764,-0.0046814773,-0.30868164
394967904,13.410869,-3.4355533,nan,-0.07576085,0.0,-0.027015733,-0.09266517,0.36533853,-0.06551898,-0.16039036,-0.68701893,0.0,0.0,0.0,-0.0023386683,-0.005725056,-0.3501598
395071701,13.410869,-3.4355533,nan,-0.07576085,0.0,-0.027857399,-0.100429736,0.28692314,0.04331734,-0.07479705,-0.63302803,0.0,0.0,0.0,0.001538205,-0.0026560542,-0.34840414
395170408,13.410869,-3.4355533,nan,-0.07576085,0.0,-0.027350044,-0.10555107,0.2676715,-0.08944458,-0.21049574,0.08137774,0.0,0.0,0.0,-0.0029585324,-0.006962507,-0.3244021
395269523,13.410869,-3.4355533,nan,-0.07576085,0.0,-0.032892894,-0.10622649,0.26639977,-0.0492762,-0.095561266,-0.002849415,0.0,0.0,0.0,-0.0016430587,-0.0031863817,-0.32703322
395372963,13.410869,-3.4355533,nan,-0.07576085,0.0,-0.04052043,-0.1024159,0.26544362,-0.105335236,-0.11972624,0.009353898,0.0,0.0,0.0,-0.0035064751,-0.003985533,-0.3265775
395471649,13.410869,-3.4355533,nan,-0.07576085,0.0,-0.04537201,-0.1101449,0.2265274,-0.07723113,-0.076321505,-1.0919431,0.0,0.0,0.0,-0.0028601608,-0.0028264737,-0.36340237
395570656,13.410869,-3.4355533,nan,-0.07576085,0.0,-0.048224065,-0.117391236,0.15486094,-0.054436687,-0.16564439,-0.5100183,0.0,0.0,0.0,-0.001908702,-0.0058079534,-0.3439251
395660745,13.410869,-3.4355533,nan,-0.07576085,0.0,-0.047205735,-0.12647425,0.13969709,-0.08560035,-0.24460357,0.032228492,0.0,0.0,0.0,-0.0028461288,-0.008132833,-0.32605943
395768452,13.410869,-3.4355533,nan,-0.07576085,0.0,-0.04560666,-0.13322501,0.20162314,-0.051089484,-0.2332029,0.99960506,0.0,0.0,0.0,-0.0015299524,-0.0069836164,-0.29370928
395868296,13.410869,-3.4355533,nan,-0.07576085,0.0,-0.045950938,-0.14071144,0.28917497,-0.023721661,-0.1776952,0.37183362,0.0,0.0,0.0,-0.00076117006,-0.005701804,-0.31470564
395971119,13.410869,-3.4355533,nan,-0.07576085,0.0,-0.047142316,-0.14325704,0.30271998,-0.08436318,-0.2199093,-0.49873698,0.0,0.0,0.0,-0.0029585562,-0.0077120615,-0.343912
396069718,13.410869,-3.4355533,nan,-0.07576085,0.0,-0.04345312,-0.14306724,0.29358312,-0.008618936,-0.1596655,-0.5341524,0.0,0.0,0.0,-0.00030344765,-0.0056213583,-0.34524095
396168714,13.410869,-3.4355533,nan,-0.07576085,0.0,-0.039301872,-0.13877103,0.29065892,0.02874054,-0.14337416,-0.30126137,0.0,0.0,0.0,0.0009886393,-0.004931895,-0.33731693
396272125,13.410869,-3.4355533,nan,-0.07576085,0.0,-0.032627437,-0.13673232,0.29065892,0.040862277,-0.119825915,-0.29237622,0.0,0.0,0.0,0.001404364,-0.0041182037,-0.33702385
396370991,13.410869,-3.4355533,nan,-0.07576085,0.0,-0.025519943,-0.13322954,0.29065892,0.11860855,-0.14924236,-0.2117701,0.0,0.0,0.0,0.004045187,-0.005089964,-0.3344606
396470275,13.410869,-3.4355533,nan,-0.07576085,0.0,-0.018409729,-0.13434277,0.29065892,0.14007705,-0.18622264,-0.05078136,0.0,0.0,0.0,0.0047030104,-0.0062523237,-0.32919848
396569110,13.410869,-3.4355533,nan,-0.07576085,0.0,-0.011791468,-0.1327958,0.29065892,0.123094134,-0.08946362,-0.2362953,0.0,0.0,0.0,0.004210655,-0.0030602633,-0.3354909
396672522,13.410869,-3.4355533,nan,-0.07576085,0.0,-0.0029317855,-0.12925813,0.29065892,0.08948011,-0.14461555,-0.12845378,0.0,0.0,0.0,0.0030259455,-0.0048904587,-0.33163455
396771247,13.410869,-3.4355533,nan,-0.07576085,0.0,0.0059288023,-0.124319576,0.29065892,0.10084842,-0.12082723,-0.33145416,0.0,0.0,0.0,0.0034835069,-0.004173615,-0.3387532
396870114,13.410869,-3.4355533,nan,-0.07576085,0.0,0.014817476,-0.11956517,0.29065892,0.13325246,-0.015446804,-0.26479584,0.0,0.0,0.0,0.004574765,-0.000530313,-0.33672112
396969149,13.410869,-3.4355533,nan,-0.07576085,0.0,0.023060178,-0.11251044,0.29065892,0.19071145,-0.05609136,0.14714643,0.0,0.0,0.0,0.006277262,-0.0018462451,-0.32273299
397073108,13.410869,-3.4355533,nan,-0.07576085,0.0,0.0323339,-0.110716805,0.29065892,0.15057124,-0.111855805,-0.15092929,0.0,0.0,0.0,0.0051090773,-0.0037954121,-0.33275697
397171625,13.410869,-3.4355533,nan,-0.07576085,0.0,0.03957095,-0.10746747,0.29065892,0.2042183,-0.03915336,-0.3616534,0.0,0.0,0.0,0.0070828283,-0.0013579415,-0.34013116
397270423,13.410869,-3.4355533,nan,-0.07576085,0.0,0.049826764,-0.10262541,0.29065892,0.22067215,0.013649162,-0.028866112,0.0,0.0,0.0,0.0073971082,0.00045753093,-0.3287355
397369211,13.410869,-3.4355533,nan,-0.07576085,0.0,0.05943389,-0.095439315,0.29065892,0.2466782,-0.06812601,-0.1093103,0.0,0.0,0.0,0.008336552,-0.0023023356,-0.33140838
397468287,13.410869,-3.4355533,nan,-0.07576085,0.0,0.06851101,-0.0929569,0.29065892,0.25054237,-0.07413748,0.029309407,0.0,0.0,0.0,0.008349855,-0.0024707885,-0.32681635
397571709,13.410869,-3.4355533,nan,-0.07576085,0.0,0.0744987,-0.08873793,0.30871108,0.14007854,-0.06537837,0.49536398,0.0,0.0,0.0,0.0044438355,-0.0020740558,-0.31118008
397670475,13.410869,-3.4355533,nan,-0.07576085,0.0,0.0784153,-0.08615404,0.33601812,0.19205253,-0.08692813,0.34023982,0.0,0.0,0.0,0.006192826,-0.0028030395,-0.3161819
397769713,13.410869,-3.4355533,nan,-0.07576085,0.0,0.08013034,-0.08296496,0.3501173,0.10293805,-0.16311403,-0.0773271,0.0,0.0,0.0,0.0034703012,-0.0054989853,-0.3305609
397869051,13.410869,-3.4355533,nan,-0.07576085,0.0,0.08215432,-0.08335589,0.3541278,0.13110565,-0.101416536,-0.56004,0.0,0.0,0.0,0.0046395566,-0.0035889202,-0.3469608
397967742,13.410869,-3.4355533,nan,-0.07576085,0.0,0.08307028,-0.0818678,0.3541278,0.14204034,-0.13832721,-0.37975523,0.0,0.0,0.0,0.0049394146,-0.004810291,-0.3410143
398070688,13.410869,-3.4355533,nan,-0.07576085,0.0,0.08592234,-0.08321727,0.35876885,0.08566044,-0.104988344,-0.030296251,0.0,0.0,0.0,0.0028774939,-0.0035267537,-0.32934883
398169729,13.410869,-3.4355533,nan,-0.07576085,0.0,0.08797259,-0.08383199,0.4162484,0.06554003,-0.08214702,0.9315982,0.0,0.0,0.0,0.0019871981,-0.002490728,-0.29722002
398268697,13.410869,-3.4355533,nan,-0.07576085,0.0,0.09092975,-0.08549086,0.4778809,0.093922615,-0.1739583,-0.039911464,0.0,0.0,0.0,0.0031581407,-0.005849335,-0.32974935
398367825,13.410869,-3.4355533,nan,-0.07576085,0.0,0.09146247,-0.08519256,0.45420548,0.15754314,-0.112498574,-0.45405814,0.0,0.0,0.0,0.0055199014,-0.0039416566,-0.34364817
398471258,13.410869,-3.4355533,nan,-0.07576085,0.0,0.09167628,-0.08593411,0.41252595,0.13966146,-0.24868864,-0.5327836,0.0,0.0,0.0,0.004933607,-0.008785043,-0.34641224
398570233,13.410869,-3.4355533,nan,-0.07576085,0.0,0.09077392,-0.08569697,0.4029367,0.17888713,-0.18785028,0.13981205,0.0,0.0,0.0,0.005909656,-0.0062057595,-0.3239485
398673394,13.410869,-3.4355533,nan,-0.07576085,0.0,0.09158296,-0.08817508,0.45411754,0.16263013,-0.1870822,1.192003,0.0,0.0,0.0,0.0047881207,-0.0055080336,-0.28870785
398772699,13.410869,-3.4355533,nan,-0.07576085,0.0,0.09168172,-0.0905003,0.5425015,0.13629344,-0.15392406,0.8486587,0.0,0.0,0.0,0.0041718385,-0.0047114994,-0.3002035
398871258,13.410869,-3.4355533,nan,-0.07576085,0.0,0.093040705,-0.09473536,0.56591725,0.13448876,-0.16654143,0.17446122,0.0,0.0,0.0,0.0044290093,-0.0054845735,-0.32297778
398970202,13.410869,-3.4355533,nan,-0.07576085,0.0,0.09174695,-0.09754076,0.5368169,0.15767774,-0.16377337,-0.9495567,0.0,0.0,0.0,0.0058045466,-0.006028944,-0.36102548
399069514,13.410869,-3.4355533,nan,-0.07576085,0.0,0.09093337,-0.101304926,0.50336534,0.1278048,-0.17757817,-0.13141498,0.0,0.0,0.0,0.004348434,-0.0060419245,-0.33365402
399168294,13.410869,-3.4355533,nan,-0.07576085,0.0,0.08853612,-0.10267297,0.50336534,0.16001773,-0.1368756,0.022133932,0.0,0.0,0.0,0.0053587714,-0.0045837737,-0.3284255
399271711,13.410869,-3.4355533,nan,-0.07576085,0.0,0.08863578,-0.10817505,0.50336534,0.13185853,-0.22788666,0.13534006,0.0,0.0,0.0,0.004363591,-0.0075414474,-0.32456318
399370588,13.410869,-3.4355533,nan,-0.07576085,0.0,0.087398194,-0.1116117,0.50336534,0.068935685,-0.23610473,-0.0038958732,0.0,0.0,0.0,0.0023151224,-0.007929294,-0.32932907
399469233,13.410869,-3.4355533,nan,-0.07576085,0.0,0.08772526,-0.11950401,0.50336534,0.06710653,-0.18779203,-0.11344613,0.0,0.0,0.0,0.0022794737,-0.006378917,-0.33310485
399568289,13.410869,-3.4355533,nan,-0.07576085,0.0,0.087315746,-0.12552771,0.50336534,0.13330473,-0.22010335,-0.09088243,0.0,0.0,0.0,0.004520707,-0.0074642715,-0.3325624
399671895,13.410869,-3.4355533,nan,-0.07576085,0.0,0.086294696,-0.13392375,0.50336534,0.13633677,-0.22750518,0.25982243,0.0,0.0,0.0,0.004459583,-0.0074417065,-0.3207682
399770919,13.410869,-3.4355533,nan,-0.07576085,0.0,0.08415837,-0.13889425,0.50336534,0.04537399,-0.21157399,0.12130834,0.0,0.0,0.0,0.0015057805,-0.0070212907,-0.32542983
399869361,13.410869,-3.4355533,nan,-0.07576085,0.0,0.08059964,-0.15104358,0.50336534,0.118925214,-0.2322471,0.29492164,0.0,0.0,0.0,0.0038753066,-0.007568023,-0.31954408
399968499,13.410869,-3.4355533,nan,-0.07576085,0.0,0.07539926,-0.15950169,0.50336534,0.09356895,-0.2853726,0.09175255,0.0,0.0,0.0,0.003115022,-0.0095003955,-0.3264889
400071899,13.410869,-3.4355533,nan,-0.07576085,0.0,0.068964906,-0.17065057,0.50336534,0.011868175,-0.22355121,0.11890513,0.0,0.0,0.0,0.0003937115,-0.0074160253,-0.32531324
400170956,13.410869,-3.4355533,nan,-0.07576085,0.0,0.061004877,-0.1774387,0.50336534,-0.035043612,-0.24107517,0.08324742,0.0,0.0,0.0,-0.0011666657,-0.0080258325,-0.32651564
400274489,13.410869,-3.4355533,nan,-0.07576085,0.0,0.053936336,-0.18471019,0.50336534,0.016419323,-0.32290766,0.21505143,0.0,0.0,0.0,0.000538949,-0.010599142,-0.32189664
400369070,13.410869,-3.4355533,nan,-0.07576085,0.0,0.047720335,-0.18808569,0.54194874,-0.0014747605,-0.2595539,0.7964263,0.0,0.0,0.0,-4.546035e-05,-0.008000901,-0.30230603
400472756,13.410869,-3.4355533,nan,-0.07576085,0.0,0.04106221,-0.18598446,0.5874569,-0.04098188,-0.18292634,0.8531966,0.0,0.0,0.0,-0.001255059,-0.0056020697,-0.3002984
400570940,13.410869,-3.4355533,nan,-0.07576085,0.0,0.034323454,-0.17985182,0.64759076,0.056731924,-0.17972444,1.1356112,0.0,0.0,0.0,0.0016827438,-0.0053308643,-0.29084882
400670169,13.410869,-3.4355533,nan,-0.07576085,0.0,0.027024793,-0.18330975,0.6651968,0.00589332,-0.2387051,0.048607662,0.0,0.0,0.0,0.0001967498,-0.007969224,-0.3273971
400769037,13.410869,-3.4355533,nan,-0.07576085,0.0,0.019592047,-0.18406354,0.6512225,-0.05022269,-0.27130476,0.15845557,0.0,0.0,0.0,-0.0016576765,-0.008954827,-0.32369542
400872456,13.410869,-3.4355533,nan,-0.07576085,0.0,0.0095563885,-0.18282664,0.6362998,-0.014309783,-0.16208713,-0.41931584,0.0,0.0,0.0,-0.00050050503,-0.0056692283,-0.3430774
400967465,13.410869,-3.4355533,nan,-0.07576085,0.0,0.0007157326,-0.17884752,0.5598485,-0.024428252,-0.26020712,-1.3484207,0.0,0.0,0.0,-0.0009326483,-0.00993447,-0.3744023
401070453,13.410869,-3.4355533,nan,-0.07576085,0.0,-0.009358883,-0.17650078,0.42134583,-0.05946479,-0.2097976,-1.8404536,0.0,0.0,0.0,-0.0023739575,-0.008375555,-0.39151025
401169251,13.410869,-3.4355533,nan,-0.07576085,0.0,-0.018379832,-0.17229585,0.3084721,-0.041120693,-0.17494309,-1.0751579,0.0,0.0,0.0,-0.0015340246,-0.0065263254,-0.36586443
401268137,13.410869,-3.4355533,nan,-0.07576085,0.0,-0.02726035,-0.16325589,0.25034562,-0.09149694,-0.11855164,-0.23958305,0.0,0.0,0.0,-0.0031517537,-0.004083695,-0.33770305
401371539,13.410869,-3.4355533,nan,-0.07576085,0.0,-0.034946773,-0.15054777,0.20550016,-0.09423201,-0.12292187,-0.2755253,0.0,0.0,0.0,-0.0032562322,-0.004247624,-0.33896464
401470403,13.410869,-3.4355533,nan,-0.07576085,0.0,-0.040312957,-0.14161766,0.19277997,-0.023114435,-0.10649049,-0.07477579,0.0,0.0,0.0,-0.00078277127,-0.003606305,-0.3320506
401569492,13.410869,-3.4355533,nan,-0.07576085,0.0,-0.04391427,-0.13166444,0.18416439,-0.040308632,-0.14977087,-0.0021638498,0.0,0.0,0.0,-0.0013555347,-0.005036629,-0.32978177
401673639,13.410869,-3.4355533,nan,-0.07576085,0.0,-0.04785805,-0.118532784,0.21690583,-0.04487424,-0.11758767,0.84343195,0.0,0.0,0.0,-0.0013794007,-0.0036145572,-0.3013996
401771942,13.410869,-3.4355533,nan,-0.07576085,0.0,-0.051006366,-0.1050145,0.2888775,-0.0049217716,-0.06398632,0.73483336,0.0,0.0,0.0,-0.00015309577,-0.0019903472,-0.30514097
401870738,13.410869,-3.4355533,nan,-0.07576085,0.0,-0.050910328,-0.09492562,0.3478029,-0.047614712,-0.07723368,1.0228058,0.0,0.0,0.0,-0.0014333109,-0.0023249087,-0.2954123
401969705,13.410869,-3.4355533,nan,-0.07576085,0.0,-0.049394608,-0.08447592,0.40605414,0.046435542,-0.08632768,0.327637,0.0,0.0,0.0,0.001509919,-0.0028070696,-0.3187012
402068688,13.410869,-3.4355533,nan,-0.07576085,0.0,-0.048208665,-0.07541035,0.3996316,0.001039434,-0.13188328,-0.08536562,0.0,0.0,0.0,3.5281355e-05,-0.0044764946,-0.33276004
402171916,13.410869,-3.4355533,nan,-0.07576085,0.0,-0.046923064,-0.06601908,0.3996316,0.0044206516,-0.05979823,-0.23760924,0.0,0.0,0.0,0.00015214735,-0.0020580997,-0.33784434
402271076,13.410869,-3.4355533,nan,-0.07576085,0.0,-0.045645617,-0.06103455,0.3996316,-0.0074557606,-0.05894002,-0.29761544,0.0,0.0,0.0,-0.0002584867,-0.0020434149,-0.33991268
402369870,13.410869,-3.4355533,nan,-0.07576085,0.0,-0.044376325,-0.056382738,0.3996316,-0.04202439,-0.09413577,-0.41306394,0.0,0.0,0.0,-0.0014737267,-0.003301188,-0.3438904
402469005,13.410869,-3.4355533,nan,-0.07576085,0.0,-0.042138528,-0.049026776,0.38296795,-0.035588216,-0.13542125,-0.711591,0.0,0.0,0.0,-0.0012844149,-0.00488749,-0.35391667
402567896,13.410869,-3.4355533,nan,-0.07576085,0.0,-0.03939247,-0.040775012,0.32922825,0.03559023,-0.054922774,-0.79793406,0.0,0.0,0.0,0.0012955207,-0.001999245,-0.35677826
402670956,13.410869,-3.4355533,nan,-0.07576085,0.0,-0.03622241,-0.032825623,0.300705,0.02715231,-0.086299635,-0.90076953,0.0,0.0,0.0,0.0009983508,-0.0031731115,-0.36029682
402770367,13.410869,-3.4355533,nan,-0.07576085,0.0,-0.033701945,-0.025588345,0.29065895,-0.038264327,-0.11146687,-0.44431815,0.0,0.0,0.0,-0.0013463837,-0.003922117,-0.3452545
402869176,13.410869,-3.4355533,nan,-0.07576085,0.0,-0.029198265,-0.028056944,0.29303008,0.14393942,-0.10200393,0.03921108,0.0,0.0,0.0,0.004824678,-0.0034190502,-0.3287147
402972628,13.410869,-3.4355533,nan,-0.07576085,0.0,-0.024492549,-0.030998694,0.32551974,0.032118388,-0.10564836,0.49999714,0.0,0.0,0.0,0.0010262325,-0.0033756297,-0.31325915
403071392,13.410869,-3.4355533,nan,-0.07576085,0.0,-0.019397259,-0.03527837,0.36017933,0.068186775,-0.2311325,0.677401,0.0,0.0,0.0,0.002136241,-0.0072412095,-0.307238
403170222,13.410869,-3.4355533,nan,-0.07576085,0.0,-0.014118957,-0.038969148,0.44644824,0.06236019,-0.16800262,1.0442133,0.0,0.0,0.0,0.001875083,-0.0050516017,-0.29484385
403269174,13.410869,-3.4355533,nan,-0.07576085,0.0,-0.0064841746,-0.043671463,0.49132258,0.097897485,-0.18068844,0.024448197,0.0,0.0,0.0,0.0032856418,-0.006064278,-0.32920113
403372727,13.410869,-3.4355533,nan,-0.07576085,0.0,0.0016171932,-0.046508346,0.4502587,0.1456844,-0.18520305,-0.6502435,0.0,0.0,0.0,0.005229012,-0.006647445,-0.3519904
403471909,13.410869,-3.4355533,nan,-0.07576085,0.0,0.01158762,-0.04964466,0.436338,0.18846826,-0.14342955,-0.04828448,0.0,0.0,0.0,0.0063749035,-0.004851477,-0.33172837
403570806,13.410869,-3.4355533,nan,-0.07576085,0.0,0.021137666,-0.05084487,0.43646592,0.16215183,-0.18416826,0.080732,0.0,0.0,0.0,0.0054124757,-0.0061473628,-0.32732254
403669538,13.410869,-3.4355533,nan,-0.07576085,0.0,0.03128748,-0.05940331,0.43646592,0.20809488,-0.13521598,0.1739093,0.0,0.0,0.0,0.0068767085,-0.004468351,-0.32408372
403772813,13.410869,-3.4355533,nan,-0.07576085,0.0,0.040301178,-0.06787274,0.43646592,0.21320806,-0.20310128,0.11319117,0.0,0.0,0.0,0.0070925164,-0.0067563066,-0.3262059
403871720,13.410869,-3.4355533,nan,-0.07576085,0.0,0.04920888,-0.07823659,0.43646592,0.20700167,-0.1861048,0.16532199,0.0,0.0,0.0,0.0068489113,-0.0061575114,-0.32443264
403970878,13.410869,-3.4355533,nan,-0.07576085,0.0,0.056826446,-0.08643603,0.44615948,0.1976695,-0.26370865,0.49427882,0.0,0.0,0.0,0.006316143,-0.008426296,-0.31335458
404069858,13.410869,-3.4355533,nan,-0.07576085,0.0,0.06572962,-0.1033511,0.5185272,0.22362714,-0.24298042,1.1623572,0.0,0.0,0.0,0.00663044,-0.007204255,-0.2907755
404168852,13.410869,-3.4355533,nan,-0.07576085,0.0,0.072799064,-0.11711401,0.5538241,0.21105567,-0.27730468,0.36902568,0.0,0.0,0.0,0.006831651,-0.008976062,-0.31741557
404272201,13.410869,-3.4355533,nan,-0.07576085,0.0,0.07802934,-0.12962528,0.5056557,0.21063876,-0.24424797,-0.5301788,0.0,0.0,0.0,0.007468072,-0.008659667,-0.34769762
404370976,13.410869,-3.4355533,nan,-0.07576085,0.0,0.081580825,-0.13801453,0.48941398,0.23035464,-0.30634212,0.27372587,0.0,0.0,0.0,0.0075291377,-0.010012788,-0.32053873
404469886,13.410869,-3.4355533,nan,-0.07576085,0.0,0.0876872,-0.14893126,0.48941398,0.22884075,-0.26407546,0.342101,0.0,0.0,0.0,0.00742462,-0.008567792,-0.31818023
404573222,13.410869,-3.4355533,nan,-0.07576085,0.0,0.092984535,-0.15521748,0.48941398,0.2867165,-0.3013934,0.32759476,0.0,0.0,0.0,0.009314722,-0.009791539,-0.31860182
404672425,13.410869,-3.4355533,nan,-0.07576085,0.0,0.09581485,-0.15746501,0.48941398,0.23189875,-0.26562914,0.32450825,0.0,0.0,0.0,0.0075362325,-0.008632402,-0.318709
404771345,13.410869,-3.4355533,nan,-0.07576085,0.0,0.09725446,-0.15542676,0.482305,0.23561257,-0.18886355,-0.010910869,0.0,0.0,0.0,0.007927913,-0.0063548973,-0.32997298
404869925,13.410869,-3.4355533,nan,-0.07576085,0.0,0.099776745,-0.156699,0.46029493,0.21705411,-0.24503654,-0.09661624,0.0,0.0,0.0,0.007365518,-0.008315074,-0.33277884
404968958,13.410869,-3.4355533,nan,-0.07576085,0.0,0.10133414,-0.15570581,0.41201058,0.22963521,-0.17551775,-0.75543875,0.0,0.0,0.0,0.00831146,-0.0063527236,-0.35494512
405067921,13.410869,-3.4355533,nan,-0.07576085,0.0,0.098818205,-0.15026487,0.34350032,0.16918528,-0.1266176,-0.7950226,0.0,0.0,0.0,0.006147595,-0.0046008355,-0.35637575
405171234,13.410869,-3.4355533,nan,-0.07576085,0.0,0.09386425,-0.14100996,0.31280234,0.18098974,-0.103051975,-0.38584435,0.0,0.0,0.0,0.00632465,-0.0036011303,-0.3426617
405270592,13.410869,-3.4355533,nan,-0.07576085,0.0,0.09136281,-0.13684173,0.3124887,0.25227958,-0.1538374,0.2383058,0.0,0.0,0.0,0.00827072,-0.0050433963,-0.3214932
405369562,13.410869,-3.4355533,nan,-0.07576085,0.0,0.08865027,-0.13220486,0.3124887,0.12105574,-0.15053654,0.13213791,0.0,0.0,0.0,0.0040140897,-0.004991644,-0.3251277
405472882,13.410869,-3.4355533,nan,-0.07576085,0.0,0.081642434,-0.122243725,0.3124887,0.13888936,-0.15098558,0.13151696,0.0,0.0,0.0,0.004605049,-0.005006114,-0.32514673
405571545,13.410869,-3.4355533,nan,-0.07576085,0.0,0.073641635,-0.11032746,0.3124887,0.12494395,-0.13520828,0.1647703,0.0,0.0,0.0,0.004128225,-0.004467365,-0.32399163
405670555,13.410869,-3.4355533,nan,-0.07576085,0.0,0.06864963,-0.10632185,0.3124887,0.09385971,-0.09435476,-0.071768135,0.0,0.0,0.0,0.0031784677,-0.0031952318,-0.33206937
405769251,13.410869,-3.4355533,nan,-0.07576085,0.0,0.0644576,-0.10313231,0.31943053,0.15056825,-0.059593014,0.017798632,0.0,0.0,0.0,0.0050530676,-0.0019999405,-0.32902446
