timestamp,timestamp_sample,gyro_device_id,gyro_bias[0],gyro_bias[1],gyro_bias[2],gyro_bias_limit,gyro_bias_variance[0],gyro_bias_variance[1],gyro_bias_variance[2],accel_device_id,accel_bias[0],accel_bias[1],accel_bias[2],accel_bias_limit,accel_bias_variance[0],accel_bias_variance[1],accel_bias_variance[2],mag_device_id,mag_bias[0],mag_bias[1],mag_bias[2],mag_bias_limit,mag_bias_variance[0],mag_bias_variance[1],mag_bias_variance[2],gyro_bias_valid,accel_bias_valid,mag_bias_valid
368402813,368399723,2162698,-0.006852338,0.0018363398,-0.002136291,0.34906584,1.9668585e-09,1.96686e-09,3.4046228e-09,2162698,0.0,0.0,-0.06354408,0.4,0.00040068713,0.00040068713,5.0085887e-06,73225,0.0,0.0,0.0,0.5,0.0,0.0,0.0,1,1,0
368605832,368602081,2162698,-0.006832745,0.0018324092,-0.002132856,0.34906584,1.9618374e-09,1.9618391e-09,3.3970573e-09,2162698,0.0,0.0,-0.0649616,0.4,0.0003997077,0.0003997077,4.9963455e-06,73225,0.0,0.0,0.0,0.5,0.0,0.0,0.0,1,1,0
368794027,368790947,2162698,-0.006830918,0.0018345276,-0.0021373366,0.34906584,1.965031e-09,1.9650328e-09,3.4011067e-09,2162698,0.0,0.0,-0.06638893,0.4,0.00040021224,0.00040021224,5.0026524e-06,73225,0.0,0.0,0.0,0.5,0.0,0.0,0.0,1,1,0
369001038,368997780,2162698,-0.0068211253,0.0018322024,-0.002136883,0.34906584,1.962901e-09,1.9629032e-09,3.39597e-09,2162698,0.0,0.0,-0.067836605,0.4,0.00039968546,0.00039968546,4.9960677e-06,73225,0.0,0.0,0.0,0.5,0.0,0.0,0.0,1,1,0
369202966,369200127,2162698,-0.0068275584,0.0018347265,-0.002143722,0.34906584,1.966565e-09,1.9665674e-09,3.4037417e-09,2162698,0.0,0.0,-0.06957761,0.4,0.00040051117,0.00040051117,5.006389e-06,73225,0.0,0.0,0.0,0.5,0.0,0.0,0.0,1,1,0
369405881,369402483,2162698,-0.006810579,0.0018355272,-0.0021358267,0.34906584,1.9615174e-09,1.9615203e-09,3.3963319e-09,2162698,0.0,0.0,-0.0707052,0.4,0.0003995515,0.0003995515,4.9943933e-06,73225,0.0,0.0,0.0,0.5,0.0,0.0,0.0,1,1,0
369594442,369591337,2162698,-0.006814116,0.0018392015,-0.0021402838,0.34906584,1.963058e-09,1.9630604e-09,3.3999044e-09,2162698,0.0,0.0,-0.07195731,0.4,0.00040000136,0.00040000136,5.0000162e-06,73225,0.0,0.0,0.0,0.5,0.0,0.0,0.0,1,1,0
369822949,369820670,2162698,-0.006825596,0.0018423916,-0.002144325,0.34906584,1.9670523e-09,1.967055e-09,3.4011576e-09,2162698,0.0,0.0,-0.07302758,0.4,0.00040027406,0.00040027406,5.003443e-06,73225,0.0,0.0,0.0,0.5,0.0,0.0,0.0,1,1,0
370192511,370189408,2162698,-0.0068356376,0.0018456932,-0.0021514255,0.34906584,1.9682884e-09,1.9682913e-09,3.406684e-09,2162698,0.0,0.0,-0.074878424,0.4,0.00040081656,0.00040081656,5.010206e-06,73225,0.0,0.0,0.0,0.5,0.0,0.0,0.0,1,1,0
370615531,370612083,2162698,-0.0068097063,0.0018474883,-0.0021301745,0.34906584,1.9639903e-09,1.963994e-09,3.3957657e-09,2162698,0.0,0.0,-0.07620127,0.4,0.0003996865,0.0003996865,4.996081e-06,73225,0.0,0.0,0.0,0.5,0.0,0.0,0.0,1,1,0
371234974,371232631,2162698,-0.006826048,0.0018588996,-0.0021338686,0.34906584,1.9642994e-09,1.9643038e-09,3.3937568e-09,2162698,0.0,0.0,-0.0751475,0.4,0.0003995146,0.0003995146,4.993932e-06,73225,0.0,0.0,0.0,0.5,0.0,0.0,0.0,1,1,0
371600227,371596854,2162698,-0.006825003,0.0018630808,-0.002124875,0.34906584,1.963463e-09,1.963468e-09,3.3985543e-09,2162698,0.0,0.0,-0.07644638,0.4,0.00039997158,0.00039997158,4.9996443e-06,73225,0.0,0.0,0.0,0.5,0.0,0.0,0.0,1,1,0
372602941,372599615,2162698,-0.0068000117,0.0018653218,-0.0021196913,0.34906584,1.9586897e-09,1.9586952e-09,3.388138e-09,2162698,0.0,0.0,-0.07784351,0.4,0.00039886593,0.00039886593,4.9858236e-06,73225,0.0,0.0,0.0,0.5,0.0,0.0,0.0,1,1,0
372801219,372797467,2162698,-0.0068076863,0.0018725514,-0.002126134,0.34906584,1.9628592e-09,1.9628648e-09,3.396293e-09,2162698,0.0,0.0,-0.07911022,0.4,0.00039973663,0.00039973663,4.996707e-06,73225,0.0,0.0,0.0,0.5,0.0,0.0,0.0,1,1,0
373007171,373004315,2162698,-0.006823791,0.0018728947,-0.0021328793,0.34906584,1.9669315e-09,1.9669373e-09,3.4041463e-09,2162698,0.0,0.0,-0.08028734,0.4,0.00040057118,0.00040057118,5.0071394e-06,73225,0.0,0.0,0.0,0.5,0.0,0.0,0.0,1,1,0
373403424,373400026,2162698,-0.006812269,0.001875182,-0.0021337026,0.34906584,1.9667918e-09,1.9667978e-09,3.4031122e-09,2162698,0.0,0.0,-0.082195155,0.4,0.00040055424,0.00040055424,5.0069275e-06,73225,0.0,0.0,0.0,0.5,0.0,0.0,0.0,1,1,0
373811770,373809221,2162698,-0.0068134926,0.0018876845,-0.0021372428,0.34906584,1.969281e-09,1.969287e-09,3.4058505e-09,2162698,0.0,0.0,-0.083275296,0.4,0.00040086286,0.00040086286,5.0107856e-06,73225,0.0,0.0,0.0,0.5,0.0,0.0,0.0,1,1,0
375011688,375009836,2162698,-0.0067887167,0.0018913677,-0.0021150054,0.34906584,1.9602058e-09,1.960215e-09,3.3886889e-09,2162698,0.0,0.0,-0.08225936,0.4,0.00039887227,0.00039887227,4.985912e-06,73225,0.0,0.0,0.0,0.5,0.0,0.0,0.0,1,1,0
375209953,375207691,2162698,-0.0068132766,0.001899297,-0.0021215805,0.34906584,1.9644546e-09,1.9644653e-09,3.3969436e-09,2162698,0.0,0.0,-0.08125096,0.4,0.00039975505,0.00039975505,4.9969376e-06,73225,0.0,0.0,0.0,0.5,0.0,0.0,0.0,1,1,0
375602038,375598903,2162698,-0.006798864,0.0018920593,-0.0021132305,0.34906584,1.9621458e-09,1.9621589e-09,3.3931637e-09,2162698,0.0029683528,0.0045303204,-0.08046038,0.4,0.00038283452,0.00038283464,4.990621e-06,73225,0.0,0.0,0.0,0.5,0.0,0.0,0.0,1,1,0
375800157,375796763,2162698,-0.006810457,0.0018932729,-0.002108663,0.34906584,1.9701911e-09,1.970205e-09,3.3983343e-09,2162698,0.005188069,0.0072363624,-0.08047225,0.4,0.00035378468,0.000353785,5.000651e-06,73225,0.0,0.0,0.0,0.5,0.0,0.0,0.0,1,1,0
376002091,375999108,2162698,-0.006798187,0.0018914663,-0.0021003888,0.34906584,1.9739288e-09,1.973942e-09,3.3915013e-09,2162698,-0.001180901,0.0013951476,-0.079793446,0.4,0.00031164728,0.00031164777,4.9894634e-06,73225,0.0,0.0,0.0,0.5,0.0,0.0,0.0,1,1,0
376200139,376196968,2162698,-0.0068166866,0.0018954893,-0.0021033082,0.34906584,1.9901134e-09,1.9901252e-09,3.3993268e-09,2162698,-0.0036437912,-0.009314407,-0.07983533,0.4,0.00026707706,0.0002670767,4.999859e-06,73225,0.0,0.0,0.0,0.5,0.0,0.0,0.0,1,1,0
376402725,376399315,2162698,-0.006796709,0.0018857606,-0.0020967366,0.34906584,2.0002708e-09,2.000281e-09,3.3896874e-09,2162698,0.008861835,0.0022666105,-0.08099374,0.4,0.00022425993,0.00022425751,4.988082e-06,73225,0.0,0.0,0.0,0.5,0.0,0.0,0.0,1,1,0
376600533,376597169,2162698,-0.006811141,0.0018871954,-0.0020969505,0.34906584,2.0216744e-09,2.021682e-09,3.3974268e-09,2162698,0.014925552,0.00078458205,-0.081080824,0.4,0.00018820289,0.00018819909,4.998354e-06,73225,0.0,0.0,0.0,0.5,0.0,0.0,0.0,1,1,0
376802677,376799520,2162698,-0.006789685,0.001880693,-0.0020914844,0.34906584,2.0354187e-09,2.0354234e-09,3.3900747e-09,2162698,0.02085614,0.028222429,-0.08081471,0.4,0.00015778557,0.00015778124,4.986416e-06,73225,0.0,0.0,0.0,0.5,0.0,0.0,0.0,1,1,0
376991326,376988405,2162698,-0.0067975647,0.0018824639,-0.0020938744,0.34906584,2.0561384e-09,2.05614e-09,3.3938972e-09,2162698,0.01893053,0.032084793,-0.08047059,0.4,0.00013415572,0.00013415058,4.992391e-06,73225,0.0,0.0,0.0,0.5,0.0,0.0,0.0,1,1,0
377203580,377199727,2162698,-0.0068227286,0.001888797,-0.0021007292,0.34906584,2.083836e-09,2.083834e-09,3.4048997e-09,2162698,0.013531568,0.015460888,-0.07950044,0.4,0.00011523104,0.00011522523,5.0095205e-06,73225,0.0,0.0,0.0,0.5,0.0,0.0,0.0,1,1,0
377400659,377397582,2162698,-0.0068053906,0.0018831978,-0.002095286,0.34906584,2.0984006e-09,2.0983935e-09,3.3972463e-09,2162698,0.02118749,0.03843786,-0.07829702,0.4,9.9589335e-05,9.958411e-05,4.997152e-06,73225,0.0,0.0,0.0,0.5,0.0,0.0,0.0,1,1,0
377602863,377599933,2162698,-0.006819429,0.0018864799,-0.0020969415,0.34906584,2.122351e-09,2.1223383e-09,3.404747e-09,2162698,0.022240536,0.034754504,-0.076961875,0.4,8.749131e-05,8.7487024e-05,5.0070635e-06,73225,0.0,0.0,0.0,0.5,0.0,0.0,0.0,1,1,0
377801255,377797819,2162698,-0.006803301,0.0018815727,-0.002088775,0.34906584,2.1369926e-09,2.1369753e-09,3.394888e-09,2162698,0.026718082,0.014351782,-0.07563337,0.4,7.815219e-05,7.814888e-05,4.994993e-06,73225,0.0,0.0,0.0,0.5,0.0,0.0,0.0,1,1,0
377994310,377991146,2162698,-0.0068121054,0.0018834571,-0.0020912583,0.34906584,2.1583304e-09,2.1583073e-09,3.4010788e-09,2162698,0.026957763,0.019922204,-0.07435458,0.4,7.016631e-05,7.016397e-05,5.000931e-06,73225,0.0,0.0,0.0,0.5,0.0,0.0,0.0,1,1,0
378192209,378189002,2162698,-0.00682809,0.0018872592,-0.0020949596,0.34906584,2.1830788e-09,2.1830504e-09,3.4071057e-09,2162698,0.027890814,0.006633916,-0.073666446,0.4,6.547505e-05,6.547325e-05,5.012233e-06,73225,0.0,0.0,0.0,0.5,0.0,0.0,0.0,1,1,0
378403828,378400347,2162698,-0.0068196747,0.0018846783,-0.0020907747,0.34906584,2.2010629e-09,2.2010282e-09,3.4019596e-09,2162698,0.021493208,0.016607657,-0.07157868,0.4,5.9372243e-05,5.9371047e-05,5.005624e-06,73225,0.0,0.0,0.0,0.5,0.0,0.0,0.0,1,1,0
378803412,378800554,2162698,-0.0068178405,0.0018834459,-0.0020776961,0.34906584,2.2397622e-09,2.2397142e-09,3.4018621e-09,2162698,0.021748507,0.009097143,-0.06868757,0.4,5.1028135e-05,5.1028495e-05,5.0032536e-06,73225,0.0,0.0,0.0,0.5,0.0,0.0,0.0,1,1,0
379001463,378998409,2162698,-0.0068329615,0.0018882563,-0.0020746896,0.34906584,2.264352e-09,2.2642959e-09,3.4097345e-09,2162698,0.013743658,0.0055087996,-0.06686555,0.4,4.7714635e-05,4.7715963e-05,5.013704e-06,73225,0.0,0.0,0.0,0.5,0.0,0.0,0.0,1,1,0
379199699,379196271,2162698,-0.0068158964,0.0018832531,-0.0020696174,0.34906584,2.2783182e-09,2.2782551e-09,3.4212526e-09,2162698,0.012131156,0.003064447,-0.06408501,0.4,4.4307817e-05,4.4309934e-05,5.0012295e-06,73225,0.0,0.0,0.0,0.5,0.0,0.0,0.0,1,1,0
379402066,379398624,2162698,-0.0067997775,0.001877488,-0.0020652371,0.34906584,2.2918851e-09,2.2918172e-09,3.4337428e-09,2162698,0.009723264,0.0002664319,-0.062091697,0.4,4.1044463e-05,4.10469e-05,4.9903183e-06,73225,0.0,0.0,0.0,0.5,0.0,0.0,0.0,1,1,0
379613266,379609968,2162698,-0.00681751,0.0018827884,-0.0020717764,0.34906584,2.3173068e-09,2.3172364e-09,3.4655516e-09,2162698,0.0095831035,-0.0042919815,-0.061427172,0.4,3.812375e-05,3.812601e-05,5.0060125e-06,73225,0.0,0.0,0.0,0.5,0.0,0.0,0.0,1,1,0
379802165,379798825,2162698,-0.0068199094,0.0018839136,-0.0020739192,0.34906584,2.334912e-09,2.3348412e-09,3.4883338e-09,2162698,0.00920309,-0.009105849,-0.060523733,0.4,3.5368565e-05,3.537038e-05,5.011445e-06,73225,0.0,0.0,0.0,0.5,0.0,0.0,0.0,1,1,0
380004512,380001177,2162698,-0.006794488,0.0018863037,-0.0020685487,0.34906584,2.3446627e-09,2.3445936e-09,3.4997178e-09,2162698,0.014683331,-0.01588956,-0.05894193,0.4,3.2956494e-05,3.295751e-05,4.9991186e-06,73225,0.0,0.0,0.0,0.5,0.0,0.0,0.0,1,1,0
380202091,380199032,2162698,-0.0068130847,0.0018867606,-0.0020731112,0.34906584,2.3642581e-09,2.3641924e-09,3.5274135e-09,2162698,0.012702662,-0.013959197,-0.057281535,0.4,3.072748e-05,3.0727275e-05,5.0101175e-06,73225,0.0,0.0,0.0,0.5,0.0,0.0,0.0,1,1,0
380408980,380405890,2162698,-0.0067990045,0.0018791254,-0.0020707622,0.34906584,2.3763498e-09,2.3762876e-09,3.5441041e-09,2162698,0.009886126,-0.017809339,-0.056068473,0.4,2.8582937e-05,2.8581338e-05,5.004069e-06,73225,0.0,0.0,0.0,0.5,0.0,0.0,0.0,1,1,0
380602582,380599241,2162698,-0.0068197795,0.0018719677,-0.0020733092,0.34906584,2.392172e-09,2.3921154e-09,3.5668566e-09,2162698,0.0051581417,-0.0106063215,-0.055515245,0.4,2.6824586e-05,2.682112e-05,5.009429e-06,73225,0.0,0.0,0.0,0.5,0.0,0.0,0.0,1,1,0
380800314,380797096,2162698,-0.006810914,0.0018621073,-0.0020685848,0.34906584,2.4013072e-09,2.401255e-09,3.5785277e-09,2162698,0.0026148546,-0.007286816,-0.055785026,0.4,2.524381e-05,2.5238838e-05,4.997881e-06,73225,0.0,0.0,0.0,0.5,0.0,0.0,0.0,1,1,0
381002773,380999449,2162698,-0.0068199555,0.0018694153,-0.0020730882,0.34906584,2.421349e-09,2.4213005e-09,3.605854e-09,2162698,0.004829597,-0.010300774,-0.05459361,0.4,2.399571e-05,2.3989573e-05,5.0082594e-06,73225,0.0,0.0,0.0,0.5,0.0,0.0,0.0,1,1,0
381204683,381201801,2162698,-0.006807623,0.001864489,-0.0020684672,0.34906584,2.4312683e-09,2.4312208e-09,3.6170538e-09,2162698,0.0050148605,-0.008653793,-0.05381225,0.4,2.285232e-05,2.2845938e-05,4.9962623e-06,73225,0.0,0.0,0.0,0.5,0.0,0.0,0.0,1,1,0
381402848,381399661,2162698,-0.0068228054,0.001867964,-0.002073374,0.34906584,2.4530402e-09,2.452991e-09,3.6450158e-09,2162698,0.0050483327,-0.009126955,-0.05240393,0.4,2.1984211e-05,2.197826e-05,5.007462e-06,73225,0.0,0.0,0.0,0.5,0.0,0.0,0.0,1,1,0
381601324,381597514,2162698,-0.006811099,0.00187373,-0.0020690763,0.34906584,2.464195e-09,2.4641418e-09,3.656459e-09,2162698,0.010280157,-0.0075876764,-0.049055096,0.4,2.115056e-05,2.1145761e-05,4.9960463e-06,73225,0.0,0.0,0.0,0.5,0.0,0.0,0.0,1,1,0
381803252,381799873,2162698,-0.0068214308,0.001875118,-0.0020731527,0.34906584,2.4866726e-09,2.4866142e-09,3.6837793e-09,2162698,0.009365512,-0.009848214,-0.04610451,0.4,2.053424e-05,2.0530686e-05,5.006345e-06,73225,0.0,0.0,0.0,0.5,0.0,0.0,0.0,1,1,0
382000989,381997732,2162698,-0.006810551,0.0018654036,-0.002068965,0.34906584,2.4991824e-09,2.499119e-09,3.6952683e-09,2162698,0.0066924086,-0.007922001,-0.0436438,0.4,1.994599e-05,1.994373e-05,4.9951805e-06,73225,0.0,0.0,0.0,0.5,0.0,0.0,0.0,1,1,0
382203206,382200085,2162698,-0.006826167,0.001869249,-0.0020738628,0.34906584,2.5230806e-09,2.5230127e-09,3.7227488e-09,2162698,0.0069208886,-0.007551925,-0.04153376,0.4,1.9537238e-05,1.9536195e-05,5.005686e-06,73225,0.0,0.0,0.0,0.5,0.0,0.0,0.0,1,1,0
382401740,382397932,2162698,-0.006810114,0.0018629828,-0.002069396,0.34906584,2.5361613e-09,2.5360898e-09,3.733497e-09,2162698,0.0059936624,-0.0077842525,-0.0396497,0.4,1.9119167e-05,1.9119138e-05,4.9938185e-06,73225,0.0,0.0,0.0,0.5,0.0,0.0,0.0,1,1,0
382603362,382600285,2162698,-0.006798826,0.0018560215,-0.0020649831,0.34906584,2.5498574e-09,2.549783e-09,3.744586e-09,2162698,0.0040500774,-0.0049098907,-0.03840495,0.4,1.8774475e-05,1.8775307e-05,4.9825267e-06,73225,0.0,0.0,0.0,0.5,0.0,0.0,0.0,1,1,0
382801221,382798141,2162698,-0.006812044,0.001860365,-0.002068643,0.34906584,2.5752296e-09,2.5751519e-09,3.772261e-09,2162698,0.005068601,-0.0073122354,-0.039633844,0.4,1.8581066e-05,1.8582694e-05,4.9933715e-06,73225,0.0,0.0,0.0,0.5,0.0,0.0,0.0,1,1,0
383004478,383000495,2162698,-0.006826684,0.0018639953,-0.0020723036,0.34906584,2.6005955e-09,2.6005145e-09,3.799557e-09,2162698,0.0047446005,-0.0049516056,-0.040813316,0.4,1.8443074e-05,1.8445511e-05,5.003757e-06,73225,0.0,0.0,0.0,0.5,0.0,0.0,0.0,1,1,0
383201568,383198352,2162698,-0.006810489,0.001860073,-0.0020675748,0.34906584,2.6142652e-09,2.6141818e-09,3.809821e-09,2162698,0.0038119657,-0.005409576,-0.04045532,0.4,1.825972e-05,1.8262821e-05,4.991711e-06,73225,0.0,0.0,0.0,0.5,0.0,0.0,0.0,1,1,0
383602331,383598593,2162698,-0.006805166,0.0018635783,-0.0020685822,0.34906584,2.652826e-09,2.6527383e-09,3.847221e-09,2162698,0.002135452,-0.004103243,-0.040022068,0.4,1.8053994e-05,1.8058261e-05,4.990198e-06,73225,0.0,0.0,0.0,0.5,0.0,0.0,0.0,1,1,0
384200003,384196635,2162698,-0.0068200277,0.0018679581,-0.0020716814,0.34906584,2.7146552e-09,2.7145601e-09,3.9124877e-09,2162698,0.0026428232,-0.0050238585,-0.039002426,0.4,1.7922812e-05,1.792843e-05,5.0002977e-06,73225,0.0,0.0,0.0,0.5,0.0,0.0,0.0,1,1,0
384402370,384398989,2162698,-0.006832767,0.0018776129,-0.0020765944,0.34906584,2.7381644e-09,2.7380676e-09,3.9398613e-09,2162698,0.002352711,-0.0051194755,-0.037637115,0.4,1.7928412e-05,1.7934395e-05,5.0108824e-06,73225,0.0,0.0,0.0,0.5,0.0,0.0,0.0,1,1,0
384613787,384610332,2162698,-0.00682812,0.0018750946,-0.0020742437,0.34906584,2.7531295e-09,2.7530318e-09,3.954583e-09,2162698,0.0026124169,-0.005699178,-0.036515456,0.4,1.7881928e-05,1.7888175e-05,5.0043423e-06,73225,0.0,0.0,0.0,0.5,0.0,0.0,0.0,1,1,0
385603412,385599643,2162698,-0.0068255384,0.001891314,-0.0020787262,0.34906584,2.8249378e-09,2.8248264e-09,4.0496486e-09,2162698,0.0028721332,-0.0063167242,-0.035360154,0.4,1.783568e-05,1.7842887e-05,5.0074827e-06,73225,0.0,0.0,0.0,0.5,0.0,0.0,0.0,1,1,0
385805856,385801974,2162698,-0.0068121883,0.0018757002,-0.0020740463,0.34906584,2.8303182e-09,2.8302034e-09,4.0592023e-09,2162698,0.0031680155,-0.0065622423,-0.03389835,0.4,1.7791031e-05,1.7798353e-05,4.9964983e-06,73225,0.0,0.0,0.0,0.5,0.0,0.0,0.0,1,1,0
386003081,385999826,2162698,-0.006833333,0.0018838459,-0.0020796023,0.34906584,2.8477238e-09,2.8476044e-09,4.0875596e-09,2162698,0.003385012,-0.006840278,-0.032799188,0.4,1.7829958e-05,1.783741e-05,5.0087724e-06,73225,0.0,0.0,0.0,0.5,0.0,0.0,0.0,1,1,0
386610023,386606912,2162698,-0.006850028,0.0018820975,-0.002077373,0.34906584,2.8630838e-09,2.8629488e-09,4.1353743e-09,2162698,0.0039188927,-0.007215585,-0.034173626,0.4,1.777933e-05,1.7787053e-05,5.0000285e-06,73225,0.0,0.0,0.0,0.5,0.0,0.0,0.0,1,1,0
386803392,386800249,2162698,-0.0068662437,0.0018787589,-0.0020791737,0.34906584,2.8655591e-09,2.865417e-09,4.157044e-09,2162698,0.0039006937,-0.00720196,-0.037259325,0.4,1.7781153e-05,1.7788972e-05,5.0054446e-06,73225,0.0,0.0,0.0,0.5,0.0,0.0,0.0,1,1,0
387001523,386998107,2162698,-0.0068517514,0.001876847,-0.0020718947,0.34906584,2.856997e-09,2.8568476e-09,4.1647215e-09,2162698,0.0041013057,-0.007340739,-0.03945344,0.4,1.7716844e-05,1.7724746e-05,4.993612e-06,73225,0.0,0.0,0.0,0.5,0.0,0.0,0.0,1,1,0
387802248,387798530,2162698,-0.0068916804,0.0018833665,-0.0020712204,0.34906584,2.8397504e-09,2.8395701e-09,4.232406e-09,2162698,0.005078774,-0.00695841,-0.037575632,0.4,1.7613367e-05,1.7621705e-05,4.9914265e-06,73225,0.0,0.0,0.0,0.5,0.0,0.0,0.0,1,1,0
388004177,388000886,2162698,-0.0068956893,0.0018941356,-0.0020733767,0.34906584,2.8418274e-09,2.8416414e-09,4.2585087e-09,2162698,0.005435107,-0.0074392487,-0.035969812,0.4,1.7633041e-05,1.7641485e-05,5.0019667e-06,73225,0.0,0.0,0.0,0.5,0.0,0.0,0.0,1,1,0
388601996,388598957,2162698,-0.006921589,0.0018975203,-0.0020677114,0.34906584,2.8129499e-09,2.8127578e-09,4.2979815e-09,2162698,0.006132333,-0.0067271176,-0.034470636,0.4,1.7520117e-05,1.7528795e-05,4.989457e-06,73225,0.0,0.0,0.0,0.5,0.0,0.0,0.0,1,1,0
389042020,389039642,2162698,-0.0069522127,0.0019144508,-0.0020762573,0.34906584,2.8068678e-09,2.8066751e-09,4.3496993e-09,2162698,0.0067563746,-0.006946903,-0.03522779,0.4,1.7532791e-05,1.754162e-05,5.008073e-06,73225,0.0,0.0,0.0,0.5,0.0,0.0,0.0,1,1,0
389402474,389399412,2162698,-0.0069593643,0.0019304609,-0.0020786966,0.34906584,2.7783662e-09,2.7781737e-09,4.3801913e-09,2162698,0.0075318255,-0.0071097855,-0.03637615,0.4,1.7477816e-05,1.7486711e-05,5.0094077e-06,73225,0.0,0.0,0.0,0.5,0.0,0.0,0.0,1,1,0
389600537,389597242,2162698,-0.006950661,0.0019362553,-0.0020744107,0.34906584,2.7573932e-09,2.7572014e-09,4.385139e-09,2162698,0.007975853,-0.006993075,-0.03763466,0.4,1.7402746e-05,1.7411647e-05,4.9974406e-06,73225,0.0,0.0,0.0,0.5,0.0,0.0,0.0,1,1,0
389811008,389808591,2162698,-0.0069813053,0.0019401903,-0.0020823833,0.34906584,2.7518074e-09,2.7516147e-09,4.415449e-09,2162698,0.008080426,-0.006897976,-0.03865749,0.4,1.742319e-05,1.7432138e-05,5.0134545e-06,73225,0.0,0.0,0.0,0.5,0.0,0.0,0.0,1,1,0
390401018,390397670,2162698,-0.0069709118,0.0019487496,-0.002075893,0.34906584,2.6950324e-09,2.6948384e-09,4.4441975e-09,2162698,0.008966121,-0.006831194,-0.03815515,0.4,1.7256532e-05,1.7265433e-05,4.994841e-06,73225,0.0,0.0,0.0,0.5,0.0,0.0,0.0,1,1,0
391003535,391000277,2162698,-0.0069882413,0.0019751631,-0.0020797586,0.34906584,2.6491709e-09,2.6489653e-09,4.497902e-09,2162698,0.010051959,-0.007169608,-0.037586574,0.4,1.7184646e-05,1.7193412e-05,5.00579e-06,73225,0.0,0.0,0.0,0.5,0.0,0.0,0.0,1,1,0
391601568,391598313,2162698,-0.006987404,0.0019619723,-0.0020701713,0.34906584,2.5841207e-09,2.5839104e-09,4.5276822e-09,2162698,0.01009492,-0.0069200606,-0.03650126,0.4,1.7023003e-05,1.7031423e-05,4.992172e-06,73225,0.0,0.0,0.0,0.5,0.0,0.0,0.0,1,1,0
391803904,391800669,2162698,-0.0070192334,0.0019769876,-0.0020744838,0.34906584,2.5710565e-09,2.5708453e-09,4.5509982e-09,2162698,0.010549993,-0.006513363,-0.035691667,0.4,1.7021941e-05,1.7030268e-05,5.002574e-06,73225,0.0,0.0,0.0,0.5,0.0,0.0,0.0,1,1,0
392002321,391998534,2162698,-0.006992259,0.001994358,-0.00206714,0.34906584,2.5465663e-09,2.546357e-09,4.552989e-09,2162698,0.011286344,-0.006874664,-0.036376614,0.4,1.6944821e-05,1.6953021e-05,4.9906394e-06,73225,0.0,0.0,0.0,0.5,0.0,0.0,0.0,1,1,0
392630384,392628080,2162698,-0.0070263906,0.0020091936,-0.0020642476,0.34906584,2.4984863e-09,2.4982845e-09,4.596545e-09,2162698,0.0118937045,-0.006179736,-0.035941496,0.4,1.6854005e-05,1.6861914e-05,4.99354e-06,73225,0.0,0.0,0.0,0.5,0.0,0.0,0.0,1,1,0
393004653,393001315,2162698,-0.0070258337,0.0020431785,-0.0020672332,0.34906584,2.4695281e-09,2.4693316e-09,4.6258277e-09,2162698,0.012925254,-0.0064903293,-0.036665242,0.4,1.6820106e-05,1.682786e-05,5.000047e-06,73225,0.0,0.0,0.0,0.5,0.0,0.0,0.0,1,1,0
393202350,393199174,2162698,-0.007063694,0.002051313,-0.0020715154,0.34906584,2.4583715e-09,2.4581766e-09,4.6480704e-09,2162698,0.013089823,-0.005816436,-0.039827514,0.4,1.6826365e-05,1.6834052e-05,5.0106905e-06,73225,0.0,0.0,0.0,0.5,0.0,0.0,0.0,1,1,0
393405380,393401530,2162698,-0.0070529175,0.0020458384,-0.0020677769,0.34906584,2.4358953e-09,2.435701e-09,4.6489004e-09,2162698,0.013091082,-0.005638281,-0.042470854,0.4,1.6756338e-05,1.6763915e-05,4.9995674e-06,73225,0.0,0.0,0.0,0.5,0.0,0.0,0.0,1,1,0
393602514,393599392,2162698,-0.007066443,0.0020678903,-0.0020731746,0.34906584,2.4238251e-09,2.4236304e-09,4.6711723e-09,2162698,0.013730469,-0.00569464,-0.045332734,0.4,1.6758071e-05,1.6765583e-05,5.010696e-06,73225,0.0,0.0,0.0,0.5,0.0,0.0,0.0,1,1,0
393801130,393797249,2162698,-0.007045366,0.0020590036,-0.002069798,0.34906584,2.4049538e-09,2.4047582e-09,4.670389e-09,2162698,0.013641314,-0.0057884743,-0.04776713,0.4,1.6686497e-05,1.6693919e-05,4.9984756e-06,73225,0.0,0.0,0.0,0.5,0.0,0.0,0.0,1,1,0
394003590,393999611,2162698,-0.0070102047,0.0020733713,-0.0020634856,0.34906584,2.3837936e-09,2.3835958e-09,4.6703077e-09,2162698,0.014258864,-0.0063125766,-0.05018426,0.4,1.6612701e-05,1.6620023e-05,4.9862156e-06,73225,0.0,0.0,0.0,0.5,0.0,0.0,0.0,1,1,0
394205684,394201962,2162698,-0.0070215394,0.002102217,-0.0020691734,0.34906584,2.3718747e-09,2.3716722e-09,4.6918305e-09,2162698,0.01508887,-0.00645594,-0.052758686,0.4,1.6614853e-05,1.6622098e-05,4.9972837e-06,73225,0.0,0.0,0.0,0.5,0.0,0.0,0.0,1,1,0
394403551,394399822,2162698,-0.0070542013,0.0021048663,-0.0020752253,0.34906584,2.363992e-09,2.3637832e-09,4.712822e-09,2162698,0.0151233915,-0.0059675695,-0.054015618,0.4,1.6623497e-05,1.6630676e-05,5.007982e-06,73225,0.0,0.0,0.0,0.5,0.0,0.0,0.0,1,1,0
394601126,394597682,2162698,-0.0070287287,0.0021249584,-0.0020713327,0.34906584,2.342563e-09,2.3423463e-09,4.71092e-09,2162698,0.015872134,-0.0061977203,-0.05668957,0.4,1.6552776e-05,1.6559856e-05,4.9958676e-06,73225,0.0,0.0,0.0,0.5,0.0,0.0,0.0,1,1,0
394803222,394800062,2162698,-0.0070219166,0.0021383245,-0.0020670833,0.34906584,2.321303e-09,2.3210769e-09,4.7104756e-09,2162698,0.016464282,-0.0058810245,-0.05983422,0.4,1.6481532e-05,1.6488508e-05,4.984385e-06,73225,0.0,0.0,0.0,0.5,0.0,0.0,0.0,1,1,0
395212413,395209249,2162698,-0.007063906,0.002179376,-0.002072241,0.34906584,2.3070779e-09,2.3068363e-09,4.7560293e-09,2162698,0.017487878,-0.0057463367,-0.06587646,0.4,1.6516977e-05,1.6523867e-05,5.011506e-06,73225,0.0,0.0,0.0,0.5,0.0,0.0,0.0,1,1,0
395410421,395407109,2162698,-0.007085404,0.0021755586,-0.0020627936,0.34906584,2.2882174e-09,2.287969e-09,4.754022e-09,2162698,0.01755351,-0.004607048,-0.06835071,0.4,1.6450445e-05,1.6457283e-05,4.9991854e-06,73225,0.0,0.0,0.0,0.5,0.0,0.0,0.0,1,1,0
395603785,395600472,2162698,-0.007102542,0.002177603,-0.0020651643,0.34906584,2.2775482e-09,2.2772897e-09,4.767373e-09,2162698,0.017603755,-0.0043302625,-0.06983646,0.4,1.6443533e-05,1.6450364e-05,5.0043286e-06,73225,0.0,0.0,0.0,0.5,0.0,0.0,0.0,1,1,0
395801773,395798332,2162698,-0.007095443,0.0021900865,-0.0020619964,0.34906584,2.2605058e-09,2.2602356e-09,4.7643467e-09,2162698,0.018090062,-0.0040494623,-0.07143367,0.4,1.6381859e-05,1.6388667e-05,4.992926e-06,73225,0.0,0.0,0.0,0.5,0.0,0.0,0.0,1,1,0
396004017,396000689,2162698,-0.0071007973,0.0021933694,-0.0020673545,0.34906584,2.2562094e-09,2.2559252e-09,4.783059e-09,2162698,0.018131642,-0.0042797676,-0.07291252,0.4,1.6396238e-05,1.6403072e-05,5.003154e-06,73225,0.0,0.0,0.0,0.5,0.0,0.0,0.0,1,1,0
396210783,396207543,2162698,-0.007101309,0.0021928283,-0.002058736,0.34906584,2.2436413e-09,2.24334e-09,4.785434e-09,2162698,0.018201513,-0.0040140464,-0.07475487,0.4,1.6356618e-05,1.6363474e-05,4.997e-06,73225,0.0,0.0,0.0,0.5,0.0,0.0,0.0,1,1,0
396399686,396396414,2162698,-0.007121171,0.002205471,-0.0020557896,0.34906584,2.2349873e-09,2.2346671e-09,4.797976e-09,2162698,0.01850578,-0.0036923897,-0.07611116,0.4,1.6355374e-05,1.6362279e-05,5.002347e-06,73225,0.0,0.0,0.0,0.5,0.0,0.0,0.0,1,1,0
396619893,396616754,2162698,-0.007111802,0.0022070217,-0.0020570804,0.34906584,2.2256061e-09,2.2252642e-09,4.804612e-09,2162698,0.018592043,-0.0038357638,-0.077303715,0.4,1.63297e-05,1.6336646e-05,5.000234e-06,73225,0.0,0.0,0.0,0.5,0.0,0.0,0.0,1,1,0
397002445,396998984,2162698,-0.0071079563,0.0022078673,-0.0020555365,0.34906584,2.2003663e-09,2.1999833e-09,4.8068425e-09,2162698,0.01872242,-0.0035105832,-0.078279294,0.4,1.625835e-05,1.6265354e-05,4.98852e-06,73225,0.0,0.0,0.0,0.5,0.0,0.0,0.0,1,1,0
397204617,397201341,2162698,-0.007114194,0.002208857,-0.0020598515,0.34906584,2.197107e-09,2.1967124e-09,4.8248707e-09,2162698,0.018688101,-0.003717304,-0.07964523,0.4,1.6279793e-05,1.628684e-05,4.9995665e-06,73225,0.0,0.0,0.0,0.5,0.0,0.0,0.0,1,1,0
397418977,397417189,2162698,-0.0071215727,0.0022126932,-0.0020610183,0.34906584,2.190369e-09,2.1899698e-09,4.8312696e-09,2162698,0.018797722,-0.0034950518,-0.080614895,0.4,1.6260918e-05,1.6267988e-05,4.9984174e-06,73225,0.0,0.0,0.0,0.5,0.0,0.0,0.0,1,1,0
397802799,397799420,2162698,-0.0071066213,0.002206541,-0.0020598858,0.34906584,2.1678148e-09,2.1674331e-09,4.8314703e-09,2162698,0.01875182,-0.0034334476,-0.08196149,0.4,1.6196094e-05,1.6203187e-05,4.9868445e-06,73225,0.0,0.0,0.0,0.5,0.0,0.0,0.0,1,1,0
398409685,398406502,2162698,-0.007134784,0.0021958316,-0.002067962,0.34906584,2.1562605e-09,2.1559758e-09,4.8630726e-09,2162698,0.018419826,-0.0032990626,-0.0801403,0.4,1.6215574e-05,1.6222732e-05,5.0015656e-06,73225,0.0,0.0,0.0,0.5,0.0,0.0,0.0,1,1,0
398611966,398608854,2162698,-0.00712591,0.0021820918,-0.0020646525,0.34906584,2.1448676e-09,2.1446172e-09,4.8551314e-09,2162698,0.018195651,-0.0031378786,-0.07891785,0.4,1.6167665e-05,1.617482e-05,4.989628e-06,73225,0.0,0.0,0.0,0.5,0.0,0.0,0.0,1,1,0
398810070,398806712,2162698,-0.0071484833,0.0021821423,-0.0020725583,0.34906584,2.1440052e-09,2.1437887e-09,4.871505e-09,2162698,0.01812153,-0.0030364348,-0.07779167,0.4,1.6196753e-05,1.620394e-05,5.001106e-06,73225,0.0,0.0,0.0,0.5,0.0,0.0,0.0,1,1,0
399003531,399000094,2162698,-0.007158925,0.002183541,-0.002076839,0.34906584,2.1404636e-09,2.1402775e-09,4.8803566e-09,2162698,0.018086331,-0.0029923678,-0.07598731,0.4,1.6206997e-05,1.6214206e-05,5.006131e-06,73225,0.0,0.0,0.0,0.5,0.0,0.0,0.0,1,1,0
399201136,399197942,2162698,-0.0071554948,0.0021687085,-0.0020676688,0.34906584,2.1304822e-09,2.1303228e-09,4.8731637e-09,2162698,0.017872198,-0.002758233,-0.074506365,0.4,1.616144e-05,1.6168646e-05,4.993936e-06,73225,0.0,0.0,0.0,0.5,0.0,0.0,0.0,1,1,0
399412365,399409288,2162698,-0.007165665,0.0021553403,-0.0020584941,0.34906584,2.1233737e-09,2.1232403e-09,4.8700244e-09,2162698,0.01764837,-0.002435585,-0.07211891,0.4,1.6132995e-05,1.6140202e-05,4.9871455e-06,73225,0.0,0.0,0.0,0.5,0.0,0.0,0.0,1,1,0
399601896,399598158,2162698,-0.0071874564,0.00215601,-0.0020610716,0.34906584,2.1203055e-09,2.1201934e-09,4.878612e-09,2162698,0.017597973,-0.002243815,-0.069291204,0.4,1.6145688e-05,1.6152915e-05,4.992715e-06,73225,0.0,0.0,0.0,0.5,0.0,0.0,0.0,1,1,0
399803899,399800538,2162698,-0.007231534,0.002161706,-0.0020675904,0.34906584,2.1200581e-09,2.119963e-09,4.892581e-09,2162698,0.017624812,-0.0018154201,-0.06665319,0.4,1.6173319e-05,1.618057e-05,5.0030017e-06,73225,0.0,0.0,0.0,0.5,0.0,0.0,0.0,1,1,0
400001780,399998381,2162698,-0.007236475,0.0021579172,-0.0020643452,0.34906584,2.1105868e-09,2.110508e-09,4.8844706e-09,2162698,0.017570946,-0.0014930321,-0.063782044,0.4,1.6129397e-05,1.6136646e-05,4.9909854e-06,73225,0.0,0.0,0.0,0.5,0.0,0.0,0.0,1,1,0
400204938,400200733,2162698,-0.007232177,0.0021468352,-0.002059034,0.34906584,2.1014082e-09,2.10134e-09,4.874403e-09,2162698,0.017415572,-0.0013093611,-0.06159966,0.4,1.6087059e-05,1.6094307e-05,4.979378e-06,73225,0.0,0.0,0.0,0.5,0.0,0.0,0.0,1,1,0
400401741,400398594,2162698,-0.0072117224,0.002143047,-0.002047866,0.34906584,2.0968065e-09,2.096746e-09,4.86765e-09,2162698,0.017366413,-0.0013867267,-0.060083013,0.4,1.605059e-05,1.6057838e-05,4.9693217e-06,73225,0.0,0.0,0.0,0.5,0.0,0.0,0.0,1,1,0
400604129,400600954,2162698,-0.007295285,0.0021576812,-0.0020569935,0.34906584,2.1065292e-09,2.1064737e-09,4.9037454e-09,2162698,0.017440584,-0.00096142915,-0.058531377,0.4,1.6156306e-05,1.6163624e-05,5.00325e-06,73225,0.0,0.0,0.0,0.5,0.0,0.0,0.0,1,1,0
400802203,400798821,2162698,-0.0073151286,0.0021726107,-0.0020629698,0.34906584,2.1068656e-09,2.10681e-09,4.914048e-09,2162698,0.017552897,-0.0008967917,-0.05610276,0.4,1.6186057e-05,1.6193408e-05,5.013344e-06,73225,0.0,0.0,0.0,0.5,0.0,0.0,0.0,1,1,0
401004559,401001171,2162698,-0.0073094694,0.0021738021,-0.0020594692,0.34906584,2.0979316e-09,2.0978739e-09,4.9044395e-09,2162698,0.017533064,-0.0007505417,-0.053363252,0.4,1.614393e-05,1.6151283e-05,5.0011813e-06,73225,0.0,0.0,0.0,0.5,0.0,0.0,0.0,1,1,0
401394163,401392402,2162698,-0.0072901486,0.0021799358,-0.0020549595,0.34906584,2.113074e-09,2.1130164e-09,4.901225e-09,2162698,0.017631391,-0.00087365496,-0.052320477,0.4,1.6120204e-05,1.6127564e-05,4.994941e-06,73225,0.0,0.0,0.0,0.5,0.0,0.0,0.0,1,1,0
401404663,401401403,2162698,-0.007306993,0.0021824974,-0.002057144,0.34906584,2.090035e-09,2.0899706e-09,4.904852e-09,2162698,0.017652176,-0.0007074275,-0.053385537,0.4,1.612905e-05,1.6136435e-05,4.9999567e-06,73225,0.0,0.0,0.0,0.5,0.0,0.0,0.0,1,1,0
401830311,401828609,2162698,-0.007293609,0.002185512,-0.0020576024,0.34906584,2.0801323e-09,2.0800506e-09,4.901275e-09,2162698,0.017733764,-0.000750679,-0.052381266,0.4,1.6092588e-05,1.6099988e-05,4.9927953e-06,73225,0.0,0.0,0.0,0.5,0.0,0.0,0.0,1,1,0
402011516,402008467,2162698,-0.0072935815,0.0021925266,-0.0020596154,0.34906584,2.073381e-09,2.0732895e-09,4.9004623e-09,2162698,0.017815325,-0.00074211264,-0.050660346,0.4,1.6088112e-05,1.6095531e-05,4.992938e-06,73225,0.0,0.0,0.0,0.5,0.0,0.0,0.0,1,1,0
402244259,402242303,2162698,-0.007305748,0.0021955648,-0.0020609382,0.34906584,2.0735054e-09,2.0734043e-09,4.9045346e-09,2162698,0.017815389,-0.00063603907,-0.04954602,0.4,1.6093221e-05,1.6100663e-05,4.995718e-06,73225,0.0,0.0,0.0,0.5,0.0,0.0,0.0,1,1,0
402403515,402399693,2162698,-0.00731076,0.0022017187,-0.0020662008,0.34906584,2.0714999e-09,2.0713926e-09,4.916542e-09,2162698,0.017889954,-0.0008205296,-0.04832513,0.4,1.61323e-05,1.6139775e-05,5.0090234e-06,73225,0.0,0.0,0.0,0.5,0.0,0.0,0.0,1,1,0
402600814,402597577,2162698,-0.007286783,0.0021967818,-0.0020626418,0.34906584,2.0632094e-09,2.0631001e-09,4.9047246e-09,2162698,0.01785409,-0.0008981212,-0.046992265,0.4,1.6088765e-05,1.609623e-05,4.996701e-06,73225,0.0,0.0,0.0,0.5,0.0,0.0,0.0,1,1,0
402803811,402799923,2162698,-0.007324796,0.0021965439,-0.0020686025,0.34906584,2.064243e-09,2.0641349e-09,4.912685e-09,2162698,0.017752474,-0.0006371492,-0.045528393,0.4,1.6119136e-05,1.6126629e-05,5.00731e-06,73225,0.0,0.0,0.0,0.5,0.0,0.0,0.0,1,1,0
403009656,403006769,2162698,-0.00731578,0.002191046,-0.0020681105,0.34906584,2.05916e-09,2.059056e-09,4.906279e-09,2162698,0.017672317,-0.00063217815,-0.043964874,0.4,1.609081e-05,1.6098289e-05,4.999999e-06,73225,0.0,0.0,0.0,0.5,0.0,0.0,0.0,1,1,0
403203385,403200134,2162698,-0.0073251817,0.002186555,-0.0020729234,0.34906584,2.057256e-09,2.0571567e-09,4.910772e-09,2162698,0.017572965,-0.0006637361,-0.04192534,0.4,1.6106158e-05,1.6113647e-05,5.0060626e-06,73225,0.0,0.0,0.0,0.5,0.0,0.0,0.0,1,1,0
403401422,403398018,2162698,-0.007309667,0.0021756943,-0.0020636374,0.34906584,2.0499733e-09,2.0498807e-09,4.8966142e-09,2162698,0.017431052,-0.00069690973,-0.03912607,0.4,1.6067466e-05,1.607493e-05,4.9949713e-06,73225,0.0,0.0,0.0,0.5,0.0,0.0,0.0,1,1,0
403612486,403609348,2162698,-0.0073598577,0.0021782834,-0.002060971,0.34906584,2.0543731e-09,2.0542839e-09,4.911893e-09,2162698,0.017344449,-0.00041286397,-0.036811605,0.4,1.6114207e-05,1.6121685e-05,5.010479e-06,73225,0.0,0.0,0.0,0.5,0.0,0.0,0.0,1,1,0
403811076,403807210,2162698,-0.007355401,0.0021670333,-0.002056217,0.34906584,2.0461612e-09,2.0460786e-09,4.8957154e-09,2162698,0.017168866,-0.0002854898,-0.03365951,0.4,1.60701e-05,1.6077549e-05,4.9978626e-06,73225,0.0,0.0,0.0,0.5,0.0,0.0,0.0,1,1,0
404004423,404000576,2162698,-0.0073984084,0.0021587748,-0.0020597784,0.34906584,2.0449535e-09,2.0448794e-09,4.898773e-09,2162698,0.016957127,6.1527484e-05,-0.03022598,0.4,1.6084867e-05,1.6092314e-05,5.003415e-06,73225,0.0,0.0,0.0,0.5,0.0,0.0,0.0,1,1,0
404210587,404207432,2162698,-0.0074023376,0.0021567903,-0.0020588804,0.34906584,2.04094e-09,2.040878e-09,4.891952e-09,2162698,0.016888397,0.00017215683,-0.026901444,0.4,1.6061835e-05,1.6069267e-05,4.9970486e-06,73225,0.0,0.0,0.0,0.5,0.0,0.0,0.0,1,1,0
404404042,404400824,2162698,-0.0074303467,0.0021480871,-0.0020557395,0.34906584,2.0402098e-09,2.040158e-09,4.894271e-09,2162698,0.016740177,0.00033315227,-0.024882782,0.4,1.6076532e-05,1.6083968e-05,5.0022804e-06,73225,0.0,0.0,0.0,0.5,0.0,0.0,0.0,1,1,0
404610575,404607653,2162698,-0.0074222116,0.0021495903,-0.002042846,0.34906584,2.0364044e-09,2.0363593e-09,4.884679e-09,2162698,0.01675589,0.00034661574,-0.023741221,0.4,1.6054866e-05,1.6062288e-05,4.99634e-06,73225,0.0,0.0,0.0,0.5,0.0,0.0,0.0,1,1,0
404808681,404805523,2162698,-0.007459349,0.0021472631,-0.0020488012,0.34906584,2.0386546e-09,2.0386142e-09,4.8929767e-09,2162698,0.016680267,0.0005409463,-0.022240795,0.4,1.60873e-05,1.6094731e-05,5.0071344e-06,73225,0.0,0.0,0.0,0.5,0.0,0.0,0.0,1,1,0
405010952,405007874,2162698,-0.0074399547,0.0021526967,-0.0020453567,0.34906584,2.0355433e-09,2.035507e-09,4.8757713e-09,2162698,0.01675214,0.00053612667,-0.020746516,0.4,1.6046197e-05,1.60536e-05,4.9949354e-06,73225,0.0,0.0,0.0,0.5,0.0,0.0,0.0,1,1,0
405213129,405210233,2162698,-0.0074763503,0.0021489665,-0.002051565,0.34906584,2.037016e-09,2.036989e-09,4.8826454e-09,2162698,0.016665483,0.0007727786,-0.019748947,0.4,1.6074884e-05,1.6082315e-05,5.0047574e-06,73225,0.0,0.0,0.0,0.5,0.0,0.0,0.0,1,1,0
405890926,405889268,2162698,-0.007487806,0.002147375,-0.0020473823,0.34906584,2.031547e-09,2.031555e-09,4.8524655e-09,2162698,0.01667208,0.001250552,-0.018861232,0.4,1.6007762e-05,1.6015172e-05,4.9871205e-06,73225,0.0,0.0,0.0,0.5,0.0,0.0,0.0,1,1,0
406611605,406608762,2162698,-0.0075537194,0.0021786997,-0.0020609687,0.34906584,2.0239133e-09,2.0239497e-09,4.860122e-09,2162698,0.017040716,0.0015317248,-0.016996726,0.4,1.6076952e-05,1.608443e-05,5.0128033e-06,73225,0.0,0.0,0.0,0.5,0.0,0.0,0.0,1,1,0
407214156,407211344,2162698,-0.007553022,0.002191263,-0.002062058,0.34906584,2.021285e-09,2.0213213e-09,4.8319744e-09,2162698,0.017213536,0.0017528216,-0.01437108,0.4,1.6029788e-05,1.6037298e-05,5.0006465e-06,73225,0.0,0.0,0.0,0.5,0.0,0.0,0.0,1,1,0
407461057,407458679,2162698,-0.0075245746,0.0022013807,-0.0020505823,0.34906584,2.0245632e-09,2.0245972e-09,4.8135367e-09,2162698,0.017300868,0.0015849014,-0.013377734,0.4,1.599718e-05,1.6004695e-05,4.991012e-06,73225,0.0,0.0,0.0,0.5,0.0,0.0,0.0,1,1,0
407721801,407719492,2162698,-0.007570598,0.0021993758,-0.0020500813,0.34906584,2.0328268e-09,2.0328534e-09,4.8260933e-09,2162698,0.017297791,0.0017958094,-0.012310754,0.4,1.6053938e-05,1.6061513e-05,5.0095205e-06,73225,0.0,0.0,0.0,0.5,0.0,0.0,0.0,1,1,0
407799193,407795943,2162698,-0.007577242,0.002204634,-0.0020487646,0.34906584,2.0148372e-09,2.0148514e-09,4.8167705e-09,2162698,0.017402595,0.0019168132,-0.010766763,0.4,1.6035949e-05,1.604356e-05,5.004647e-06,73225,0.0,0.0,0.0,0.5,0.0,0.0,0.0,1,1,0
408001608,407998315,2162698,-0.0076026525,0.0022047942,-0.0020434381,0.34906584,2.0065305e-09,2.0065312e-09,4.7999444e-09,2162698,0.017525049,0.0023412642,-0.008753281,0.4,1.5995265e-05,1.6002916e-05,4.9926894e-06,73225,0.0,0.0,0.0,0.5,0.0,0.0,0.0,1,1,0
408410612,408407515,2162698,-0.0076027745,0.0022315201,-0.0020429287,0.34906584,2.0064317e-09,2.0064144e-09,4.7902966e-09,2162698,0.017804878,0.002228383,-0.009806158,0.4,1.6001099e-05,1.600888e-05,4.996412e-06,73225,0.0,0.0,0.0,0.5,0.0,0.0,0.0,1,1,0
408613241,408609875,2162698,-0.007598241,0.002235475,-0.0020299791,0.34906584,1.9976483e-09,1.9976185e-09,4.7694377e-09,2162698,0.017847937,0.002379324,-0.011176679,0.4,1.5958143e-05,1.5965981e-05,4.9839764e-06,73225,0.0,0.0,0.0,0.5,0.0,0.0,0.0,1,1,0
408801946,408798788,2162698,-0.007657284,0.0022623218,-0.0020346935,0.34906584,2.0051485e-09,2.0051028e-09,4.792741e-09,2162698,0.018092075,0.0025618826,-0.012171037,0.4,1.6045575e-05,1.6053535e-05,5.0121657e-06,73225,0.0,0.0,0.0,0.5,0.0,0.0,0.0,1,1,0
409211203,409207962,2162698,-0.007645625,0.0022691595,-0.0020249162,0.34906584,1.9976936e-09,1.9976145e-09,4.758202e-09,2162698,0.018171314,0.0027451818,-0.013865419,0.4,1.5982518e-05,1.5990621e-05,4.994562e-06,73225,0.0,0.0,0.0,0.5,0.0,0.0,0.0,1,1,0
409405599,409401358,2162698,-0.007678873,0.0022795582,-0.0020267032,0.34906584,1.9959119e-09,1.9958097e-09,4.759774e-09,2162698,0.018259646,0.0030310107,-0.015146594,0.4,1.5998123e-05,1.600634e-05,5.000451e-06,73225,0.0,0.0,0.0,0.5,0.0,0.0,0.0,1,1,0
409611109,409608208,2162698,-0.007647626,0.0022871082,-0.0020214443,0.34906584,1.9924062e-09,1.992294e-09,4.7447255e-09,2162698,0.018310161,0.002780107,-0.0165038,0.4,1.5974061e-05,1.5982347e-05,4.9937967e-06,73225,0.0,0.0,0.0,0.5,0.0,0.0,0.0,1,1,0
409813681,409810542,2162698,-0.0076645324,0.0023064616,-0.0020241453,0.34906584,1.9939124e-09,1.9937854e-09,4.748313e-09,2162698,0.018459367,0.0027804417,-0.018572362,0.4,1.6005233e-05,1.6013626e-05,5.004479e-06,73225,0.0,0.0,0.0,0.5,0.0,0.0,0.0,1,1,0
410213949,410210772,2162698,-0.0076562236,0.0023203846,-0.002025104,0.34906584,1.9899085e-09,1.9897661e-09,4.7295496e-09,2162698,0.01856437,0.002710931,-0.020248435,0.4,1.5993242e-05,1.6001784e-05,5.0024128e-06,73225,0.0,0.0,0.0,0.5,0.0,0.0,0.0,1,1,0
410402960,410399658,2162698,-0.0076734237,0.002328626,-0.0020281386,0.34906584,1.9893573e-09,1.989201e-09,4.727325e-09,2162698,0.01862075,0.0027995184,-0.021333193,0.4,1.6009613e-05,1.6018254e-05,5.008457e-06,73225,0.0,0.0,0.0,0.5,0.0,0.0,0.0,1,1,0
410811787,410808856,2162698,-0.007640032,0.0023327558,-0.0020201039,0.34906584,1.9811541e-09,1.98098e-09,4.6932693e-09,2162698,0.018624008,0.0027221013,-0.022749975,0.4,1.594615e-05,1.5954929e-05,4.9898795e-06,73225,0.0,0.0,0.0,0.5,0.0,0.0,0.0,1,1,0
411009798,411006720,2162698,-0.007661322,0.0023468765,-0.0020254012,0.34906584,1.983761e-09,1.9835813e-09,4.69592e-09,2162698,0.018720224,0.0027704176,-0.024106981,0.4,1.5977766e-05,1.598663e-05,5.0004132e-06,73225,0.0,0.0,0.0,0.5,0.0,0.0,0.0,1,1,0
411750610,411748709,2162698,-0.0076528927,0.0023355086,-0.0020237311,0.34906584,1.9899962e-09,1.9898316e-09,4.6533155e-09,2162698,0.018653804,0.0028510154,-0.02296078,0.4,1.5938142e-05,1.5947126e-05,4.98951e-06,73225,0.0,0.0,0.0,0.5,0.0,0.0,0.0,1,1,0
411815070,411811669,2162698,-0.0076482347,0.0023476225,-0.00202488,0.34906584,1.9790547e-09,1.9789013e-09,4.655993e-09,2162698,0.018760873,0.00273153,-0.02181477,0.4,1.5961257e-05,1.5970285e-05,4.997095e-06,73225,0.0,0.0,0.0,0.5,0.0,0.0,0.0,1,1,0
412012605,412009558,2162698,-0.0076743164,0.0023237343,-0.0020243097,0.34906584,1.9824578e-09,1.9823172e-09,4.6582787e-09,2162698,0.018617352,0.0028192832,-0.020247048,0.4,1.599444e-05,1.6003514e-05,5.0078156e-06,73225,0.0,0.0,0.0,0.5,0.0,0.0,0.0,1,1,0
412210469,412207395,2162698,-0.0076596565,0.0023117673,-0.002014484,0.34906584,1.9770605e-09,1.9769322e-09,4.6401905e-09,2162698,0.01855656,0.0028329017,-0.018308675,0.4,1.5957648e-05,1.5966742e-05,4.99672e-06,73225,0.0,0.0,0.0,0.5,0.0,0.0,0.0,1,1,0
412412640,412409754,2162698,-0.007691709,0.0023129247,-0.0020188133,0.34906584,1.9811286e-09,1.9810091e-09,4.6427484e-09,2162698,0.018645622,0.0029289315,-0.015163262,0.4,1.5992824e-05,1.6001988e-05,5.007904e-06,73225,0.0,0.0,0.0,0.5,0.0,0.0,0.0,1,1,0
412610916,412607618,2162698,-0.007700806,0.0022988168,-0.0020137713,0.34906584,1.9799966e-09,1.9798925e-09,4.619938e-09,2162698,0.018663462,0.0029744636,-0.011570826,0.4,1.5953412e-05,1.5962596e-05,4.995553e-06,73225,0.0,0.0,0.0,0.5,0.0,0.0,0.0,1,1,0
412982805,412980864,2162698,-0.0077202055,0.0023074572,-0.002005535,0.34906584,1.9984094e-09,1.9983346e-09,4.6097597e-09,2162698,0.018732158,0.0030080806,-0.010522847,0.4,1.597154e-05,1.5980788e-05,5.001243e-06,73225,0.0,0.0,0.0,0.5,0.0,0.0,0.0,1,1,0
413010726,413007843,2162698,-0.007720155,0.0022959474,-0.0020026155,0.34906584,1.9776212e-09,1.9775663e-09,4.60229e-09,2162698,0.018705836,0.003047869,-0.008918279,0.4,1.5947067e-05,1.5956346e-05,4.993693e-06,73225,0.0,0.0,0.0,0.5,0.0,0.0,0.0,1,1,0
413613665,413610440,2162698,-0.0077675963,0.002298813,-0.001996141,0.34906584,1.9791664e-09,1.979167e-09,4.5831245e-09,2162698,0.018752003,0.003252685,-0.007451044,0.4,1.5975453e-05,1.5984911e-05,5.003138e-06,73225,0.0,0.0,0.0,0.5,0.0,0.0,0.0,1,1,0
414103150,414100593,2162698,-0.007796903,0.0022872114,-0.0019944555,0.34906584,1.9861335e-09,1.9861535e-09,4.55852e-09,2162698,0.018689536,0.0034189087,-0.006464618,0.4,1.5976088e-05,1.5985643e-05,5.00377e-06,73225,0.0,0.0,0.0,0.5,0.0,0.0,0.0,1,1,0
414409635,414406391,2162698,-0.007788612,0.0022900808,-0.0019950166,0.34906584,1.976875e-09,1.9768907e-09,4.5419086e-09,2162698,0.018682748,0.0033871478,-0.007480787,0.4,1.5970401e-05,1.5980018e-05,5.0020985e-06,73225,0.0,0.0,0.0,0.5,0.0,0.0,0.0,1,1,0
414611973,414608744,2162698,-0.0077921622,0.0022922782,-0.0019906326,0.34906584,1.9706619e-09,1.9706625e-09,4.5223385e-09,2162698,0.018639315,0.0035142004,-0.008551973,0.4,1.5930493e-05,1.5940126e-05,4.989814e-06,73225,0.0,0.0,0.0,0.5,0.0,0.0,0.0,1,1,0
414809946,414806621,2162698,-0.007814663,0.0023029773,-0.0019951782,0.34906584,1.9774227e-09,1.9774171e-09,4.5240487e-09,2162698,0.0186921,0.0035545405,-0.009694263,0.4,1.5965552e-05,1.5975236e-05,5.0010162e-06,73225,0.0,0.0,0.0,0.5,0.0,0.0,0.0,1,1,0
415016583,415013467,2162698,-0.007842118,0.0023136716,-0.00199896,0.34906584,1.9821331e-09,1.9821198e-09,4.524609e-09,2162698,0.018736959,0.0036418699,-0.010809431,0.4,1.59967e-05,1.6006432e-05,5.0110207e-06,73225,0.0,0.0,0.0,0.5,0.0,0.0,0.0,1,1,0
416010476,416007287,2162698,-0.007889122,0.0023166826,-0.0019945677,0.34906584,1.9684696e-09,1.9683803e-09,4.4629624e-09,2162698,0.018643579,0.0040531536,-0.011847198,0.4,1.595098e-05,1.5960788e-05,4.9979913e-06,73225,0.0,0.0,0.0,0.5,0.0,0.0,0.0,1,1,0
416410817,416407517,2162698,-0.0079049505,0.0023250272,-0.001979412,0.34906584,1.965851e-09,1.9657227e-09,4.441058e-09,2162698,0.018685222,0.0041713947,-0.010720946,0.4,1.5945792e-05,1.5955617e-05,4.996749e-06,73225,0.0,0.0,0.0,0.5,0.0,0.0,0.0,1,1,0
416621353,416618881,2162698,-0.007957852,0.0023396618,-0.0019800258,0.34906584,1.97218e-09,1.9720263e-09,4.4470716e-09,2162698,0.01876503,0.004349681,-0.009691639,0.4,1.5994481e-05,1.6004342e-05,5.012142e-06,73225,0.0,0.0,0.0,0.5,0.0,0.0,0.0,1,1,0
417013878,417010101,2162698,-0.00798568,0.002351317,-0.0019791427,0.34906584,1.9671154e-09,1.966902e-09,4.419942e-09,2162698,0.01883009,0.004630635,-0.008257117,0.4,1.5974274e-05,1.5984115e-05,5.0063345e-06,73225,0.0,0.0,0.0,0.5,0.0,0.0,0.0,1,1,0
417206882,417203473,2162698,-0.008016579,0.0023584343,-0.001981427,0.34906584,1.9685764e-09,1.9683362e-09,4.4149724e-09,2162698,0.018870171,0.004712974,-0.0066734543,0.4,1.5991367e-05,1.6001208e-05,5.0116846e-06,73225,0.0,0.0,0.0,0.5,0.0,0.0,0.0,1,1,0
417611553,417608193,2162698,-0.0080271205,0.0023772586,-0.0019664594,0.34906584,1.9718538e-09,1.9715565e-09,4.398061e-09,2162698,0.018964298,0.004777313,-0.0081338445,0.4,1.6001773e-05,1.6011596e-05,5.015165e-06,73225,0.0,0.0,0.0,0.5,0.0,0.0,0.0,1,1,0
418209653,418206285,2162698,-0.008032999,0.002391284,-0.001963343,0.34906584,1.9678148e-09,1.9674375e-09,4.3566235e-09,2162698,0.019060569,0.0049023847,-0.009431254,0.4,1.5956433e-05,1.596616e-05,5.001569e-06,73225,0.0,0.0,0.0,0.5,0.0,0.0,0.0,1,1,0
418411622,418408651,2162698,-0.008012178,0.0023851276,-0.0019582554,0.34906584,1.962467e-09,1.9620692e-09,4.337801e-09,2162698,0.0189962,0.0048418907,-0.011471789,0.4,1.5918227e-05,1.5927902e-05,4.989816e-06,73225,0.0,0.0,0.0,0.5,0.0,0.0,0.0,1,1,0
418605774,418602019,2162698,-0.008020681,0.0023915719,-0.0019597202,0.34906584,1.9622584e-09,1.9618365e-09,4.333182e-09,2162698,0.019027887,0.0048039667,-0.013249277,0.4,1.5935615e-05,1.5945272e-05,4.9955224e-06,73225,0.0,0.0,0.0,0.5,0.0,0.0,0.0,1,1,0
418816741,418813371,2162698,-0.008010182,0.0023958674,-0.0019587034,0.34906584,1.9593727e-09,1.9589237e-09,4.3161705e-09,2162698,0.01903225,0.0047425055,-0.015482925,0.4,1.5913025e-05,1.592264e-05,4.9887394e-06,73225,0.0,0.0,0.0,0.5,0.0,0.0,0.0,1,1,0
419009883,419006762,2162698,-0.00803333,0.0024077096,-0.0019648615,0.34906584,1.9637774e-09,1.9633093e-09,4.3180273e-09,2162698,0.019102393,0.004719073,-0.018146332,0.4,1.5950534e-05,1.5960144e-05,5.0007625e-06,73225,0.0,0.0,0.0,0.5,0.0,0.0,0.0,1,1,0
419211890,419209102,2162698,-0.008053482,0.0024262047,-0.001970126,0.34906584,1.9696402e-09,1.9691604e-09,4.3182045e-09,2162698,0.019208321,0.0046740267,-0.020819435,0.4,1.5982028e-05,1.5991625e-05,5.0108424e-06,73225,0.0,0.0,0.0,0.5,0.0,0.0,0.0,1,1,0
419414740,419411464,2162698,-0.008045654,0.0024186042,-0.0019658222,0.34906584,1.963023e-09,1.9625412e-09,4.295789e-09,2162698,0.019144308,0.004688317,-0.023803849,0.4,1.5942793e-05,1.5952337e-05,4.9987957e-06,73225,0.0,0.0,0.0,0.5,0.0,0.0,0.0,1,1,0
420210561,420207423,2162698,-0.008073852,0.002453279,-0.001982401,0.34906584,1.9572706e-09,1.9567807e-09,4.2563157e-09,2162698,0.018255206,0.0044128946,-0.024437215,0.4,1.592725e-05,1.5936776e-05,4.9966493e-06,73225,0.0,0.0,0.0,0.5,0.0,0.0,0.0,1,1,0
420610767,420607650,2162698,-0.008096286,0.0024766198,-0.0019897514,0.34906584,1.954029e-09,1.9535038e-09,4.2385615e-09,2162698,0.017251087,0.0032036402,-0.02491003,0.4,1.5823774e-05,1.5833177e-05,4.995328e-06,73225,0.0,0.0,0.0,0.5,0.0,0.0,0.0,1,1,0
421010937,421007878,2162698,-0.008106936,0.0024838496,-0.0019854226,0.34906584,1.956661e-09,1.956152e-09,4.218462e-09,2162698,0.016631853,0.0023910461,-0.025595158,0.4,1.5591582e-05,1.5600715e-05,4.995131e-06,73225,0.0,0.0,0.0,0.5,0.0,0.0,0.0,1,1,0
421209181,421205760,2162698,-0.008143609,0.0024965603,-0.00198868,0.34906584,1.9630748e-09,1.9625708e-09,4.21876e-09,2162698,0.015936762,0.0004188795,-0.02582978,0.4,1.5453714e-05,1.5462672e-05,5.0051603e-06,73225,0.0,0.0,0.0,0.5,0.0,0.0,0.0,1,1,0
421411322,421408113,2162698,-0.008141604,0.0024929426,-0.0019885926,0.34906584,1.9621162e-09,1.9616195e-09,4.196813e-09,2162698,0.015655115,-0.0014875724,-0.025756521,0.4,1.5224005e-05,1.5232735e-05,4.9929004e-06,73225,0.0,0.0,0.0,0.5,0.0,0.0,0.0,1,1,0
421613335,421610471,2162698,-0.008169629,0.0025022656,-0.001996287,0.34906584,1.9717319e-09,1.9712387e-09,4.1980304e-09,2162698,0.015234334,-0.0026328277,-0.025891496,0.4,1.5048988e-05,1.5057519e-05,5.0039625e-06,73225,0.0,0.0,0.0,0.5,0.0,0.0,0.0,1,1,0
422022744,422019695,2162698,-0.008140924,0.0024978598,-0.0019848475,0.34906584,1.9792479e-09,1.9787678e-09,4.163708e-09,2162698,0.0144448085,-0.002810559,-0.026836192,0.4,1.4551322e-05,1.4559385e-05,4.9850605e-06,73225,0.0,0.0,0.0,0.5,0.0,0.0,0.0,1,1,0
422413846,422410955,2162698,-0.0081756525,0.0025068591,-0.0019901895,0.34906584,2.0032271e-09,2.002757e-09,4.160815e-09,2162698,0.014334326,-0.0037915518,-0.027730383,0.4,1.416627e-05,1.4173959e-05,5.001763e-06,73225,0.0,0.0,0.0,0.5,0.0,0.0,0.0,1,1,0
422823196,422820156,2162698,-0.008184714,0.0025119788,-0.0019963714,0.34906584,2.0268054e-09,2.0263473e-09,4.145375e-09,2162698,0.0137505615,-0.0042313254,-0.028498316,0.4,1.37707575e-05,1.3778104e-05,5.00502e-06,73225,0.0,0.0,0.0,0.5,0.0,0.0,0.0,1,1,0
423012004,423009022,2162698,-0.008201551,0.002517597,-0.001997624,0.34906584,2.0397553e-09,2.0393025e-09,4.1415724e-09,2162698,0.013335487,-0.005230354,-0.029452292,0.4,1.3602915e-05,1.3610124e-05,5.011009e-06,73225,0.0,0.0,0.0,0.5,0.0,0.0,0.0,1,1,0
423214580,423211395,2162698,-0.008172052,0.002511114,-0.0019948615,0.34906584,2.046663e-09,2.0462168e-09,4.1238475e-09,2162698,0.013270845,-0.0037330303,-0.03050015,0.4,1.3398909e-05,1.340597e-05,4.9988785e-06,73225,0.0,0.0,0.0,0.5,0.0,0.0,0.0,1,1,0
423412678,423409251,2162698,-0.008191836,0.002514439,-0.0020023745,0.34906584,2.0632824e-09,2.0628408e-09,4.1216586e-09,2162698,0.013540221,-0.003955529,-0.031648096,0.4,1.326875e-05,1.32757095e-05,5.009707e-06,73225,0.0,0.0,0.0,0.5,0.0,0.0,0.0,1,1,0
423610442,423607144,2162698,-0.008169698,0.002507473,-0.0020014711,0.34906584,2.070641e-09,2.070205e-09,4.1041557e-09,2162698,0.013564623,-0.0035227232,-0.03274762,0.4,1.3091139e-05,1.3097984e-05,4.9976597e-06,73225,0.0,0.0,0.0,0.5,0.0,0.0,0.0,1,1,0
423813228,423809511,2162698,-0.008183042,0.0025127989,-0.002009082,0.34906584,2.0872726e-09,2.0868403e-09,4.104813e-09,2162698,0.013481878,-0.0030513892,-0.033955794,0.4,1.29833115e-05,1.2990084e-05,5.0076533e-06,73225,0.0,0.0,0.0,0.5,0.0,0.0,0.0,1,1,0
424018012,424016340,2162698,-0.008174556,0.0025111306,-0.0020077454,0.34906584,2.0984208e-09,2.0979942e-09,4.090296e-09,2162698,0.013263636,-0.003070736,-0.034959875,0.4,1.2847365e-05,1.2854058e-05,5.002059e-06,73225,0.0,0.0,0.0,0.5,0.0,0.0,0.0,1,1,0
424212798,424209714,2162698,-0.008183405,0.002515913,-0.0020099992,0.34906584,2.112292e-09,2.1118691e-09,4.0864667e-09,2162698,0.012991753,-0.0029771253,-0.03592476,0.4,1.2751336e-05,1.2757976e-05,5.0077e-06,73225,0.0,0.0,0.0,0.5,0.0,0.0,0.0,1,1,0
424613118,424609948,2162698,-0.008185631,0.0025167903,-0.0020162684,0.34906584,2.1363602e-09,2.1359468e-09,4.070785e-09,2162698,0.012772757,-0.0033445742,-0.037023067,0.4,1.2558986e-05,1.2565534e-05,5.0065432e-06,73225,0.0,0.0,0.0,0.5,0.0,0.0,0.0,1,1,0
425030521,425028157,2162698,-0.00820093,0.002526187,-0.0020268476,0.34906584,2.1625401e-09,2.1621382e-09,4.057702e-09,2162698,0.012793575,-0.0033493456,-0.038054615,0.4,1.257844e-05,1.2584998e-05,5.0143135e-06,73225,0.0,0.0,0.0,0.5,0.0,0.0,0.0,1,1,0
