timestamp,gyro_rad[0],gyro_rad[1],gyro_rad[2],gyro_integral_dt,accelerometer_timestamp_relative,accelerometer_m_s2[0],accelerometer_m_s2[1],accelerometer_m_s2[2],accelerometer_integral_dt,accelerometer_clipping
368080459,-0.00013470562,-0.1099558,-0.026736187,4486,0,3.2709877,0.932947,-9.328316,4486,0
368084964,0.0501757,-0.051977497,-0.018522924,4505,0,-1.3124505,1.7959019,-13.38043,4505,0
368089450,-0.03495029,0.11321035,0.04431334,4486,0,-0.63604945,-0.40578714,-12.057601,4486,0
368093946,0.007122304,0.118715815,0.014962254,4496,0,2.779586,0.42078298,-11.579183,4496,0
368098446,-0.0018104172,-0.054182887,0.06279891,4500,0,0.11011469,1.8678838,-8.69493,4500,0
368102946,0.021752393,-0.0073075225,0.07117793,4500,0,-2.2560976,0.29596972,-11.196953,4500,0
368107435,-0.046766125,0.03601771,0.06599849,4489,0,-1.0505842,-2.1986794,-10.598441,4489,0
368111933,0.01472073,0.046980847,0.040673345,4498,0,0.9727515,1.4173355,-9.969813,4498,0
368116442,0.056449626,0.0070817135,0.012811247,4509,0,1.6209372,0.7748585,-10.358327,4509,0
368120926,-0.033358917,-0.018981004,0.013469673,4484,0,0.83776385,0.10737146,-10.517315,4484,0
368125430,0.013262815,0.0021801498,-0.0002713129,4504,0,-1.0224707,1.8281914,-11.229329,4504,0
368129920,0.027298378,0.03157419,-0.026789963,4490,0,-0.50712764,1.5603594,-10.395796,4490,0
368134417,-0.031662792,-0.0057074046,-0.02992241,4497,0,-0.2972379,0.54078716,-9.481833,4497,0
368138913,-0.006035745,0.0014253987,-0.021967141,4496,0,-1.0799514,0.14794278,-9.910421,4496,0
368143424,-0.011157835,0.01407296,-0.018713636,4511,0,-0.11325964,-0.8116509,-10.696901,4511,0
368147925,-0.024074802,-0.013265675,-0.00762337,4501,0,0.9078834,-0.6460613,-9.21432,4501,0
368152411,-0.00032888664,-0.020504821,0.008149408,4486,0,0.18996216,-0.40312347,-7.9928594,4486,0
368156920,-0.007646897,0.014186738,0.0100296205,4509,0,0.24023032,-1.7494386,-9.174608,4509,0
368161397,-0.028206222,-0.0035333973,0.012117826,4477,0,0.63927716,-1.9033217,-10.182832,4477,0
368165893,-0.008144355,-0.012709757,0.031548828,4496,0,0.21391615,-1.6882983,-10.328008,4496,0
368170408,-0.01844078,0.011894716,0.016682811,4515,0,-0.086892724,-1.7010428,-9.550203,4515,0
368174886,-0.012381198,0.00013790582,0.020090709,4478,0,0.15972494,0.6839425,-9.42681,4478,0
368179427,-0.00045485105,-0.022449384,0.013801904,4541,0,-0.3041029,-0.35829818,-10.570105,4541,0
368183948,-0.0074700364,-0.0011753478,0.007425513,4521,0,-1.2881426,0.23398493,-10.755616,4521,0
368188388,-0.018661078,0.0070353774,0.012654603,4440,0,-1.4501275,0.8227883,-10.164243,4440,0
368192873,-0.017399175,0.014905092,0.011982593,4485,0,-0.5657758,2.3439662,-9.572379,4485,0
368197370,0.002531003,-0.00062830886,0.0130859045,4497,0,-0.11925753,2.0677361,-9.36173,4497,0
368201870,0.014291494,0.005677473,-0.009716098,4500,0,-0.6560281,0.37797377,-9.743647,4500,0
368206366,0.022952264,0.027176442,-0.030365152,4496,0,-0.23517977,-0.37542555,-10.38208,4496,0
368210860,0.026183354,0.005848213,-0.046543844,4494,0,1.2240789,-0.16965881,-10.074711,4494,0
368215374,0.01161936,-0.026420007,-0.06165451,4514,0,1.4143171,-0.21211207,-9.24644,4514,0
368219860,0.011490097,-0.0154676335,-0.08020637,4486,0,0.8654367,0.6482816,-9.300482,4486,0
368224353,-0.015276952,-0.0019655689,-0.07567416,4493,0,1.0915157,0.79814565,-10.964557,4493,0
368228858,-0.048667345,0.0037998757,-0.041614104,4505,0,0.909491,1.3903184,-10.926242,4505,0
368233343,-0.06894698,0.02193155,-0.022506393,4485,0,0.79882026,1.3964894,-9.126832,4485,0
368237840,-0.037080616,0.026899967,-0.009296162,4497,0,0.63677037,1.0319972,-9.715811,4497,0
368242343,-0.02941007,-0.0050931387,0.0019120302,4503,0,-0.8934209,-0.6742568,-10.488287,4503,0
368246841,-0.036924914,0.0007505523,-0.014938097,4498,0,-2.0444505,-2.7068667,-9.589931,4498,0
368251330,-0.011757285,0.023490729,-0.030918092,4489,0,-2.189083,-2.2172186,-9.570208,4489,0
368255835,0.0052626687,-0.016599532,-0.015633529,4505,0,-0.46961662,-1.3208585,-9.781357,4505,0
368260327,0.021340935,-0.04633678,-0.0079746535,4492,0,0.14120965,-1.1485615,-9.947118,4492,0
368264820,0.013346274,-0.0075885477,-0.0004928328,4493,0,-0.6169161,-1.2003363,-10.280973,4493,0
368269317,0.007890831,0.011427415,0.0071563176,4497,0,0.095360875,0.22514687,-10.294771,4497,0
368273813,0.0016640648,-0.01935629,0.01727811,4496,0,0.3732492,1.6220225,-9.815461,4496,0
368278319,0.0084249005,-0.030364698,0.012441186,4506,0,-0.12948678,1.7751789,-9.442835,4506,0
368282807,0.00026153476,-0.013651372,0.022986032,4488,0,-0.0016791028,1.2367357,-9.609195,4488,0
368287303,-0.025483893,0.014312896,0.028922671,4496,0,0.37145042,1.0197419,-10.433436,4496,0
368291800,-0.012044232,0.01823224,0.035656497,4497,0,0.88934636,0.16571978,-9.948955,4497,0
368296297,-0.0020341757,0.00666468,0.026633678,4497,0,0.38399896,-1.3685622,-9.987656,4497,0
368300802,-0.005037457,0.012748299,0.009596324,4505,0,-0.94037205,-0.74260086,-10.454181,4505,0
368305290,-0.0035827104,0.014745832,-0.00069798663,4488,0,-0.29639247,0.4047306,-10.513281,4488,0
368309790,0.0047766184,-0.0075598317,-0.00962906,4500,0,0.13508596,1.4339072,-9.933509,4500,0
368314283,-0.007280973,0.010376378,-0.0052666226,4493,0,0.014301682,1.4688581,-9.78162,4493,0
368318780,-0.024790764,0.031221308,0.00729321,4497,0,0.3120425,0.8625231,-10.040938,4497,0
368323283,-0.011755003,0.02538887,0.014439444,4503,0,0.48444912,0.018680435,-9.677822,4503,0
368327780,-0.004095718,0.01729472,0.00629622,4497,0,-0.021147,-0.36039808,-9.315698,4497,0
368332270,-0.0069202776,-0.004186534,0.0066027953,4490,0,-0.07914056,-0.45520398,-8.856998,4490,0
368336766,0.0061281933,-0.024269216,0.009135871,4496,0,-0.40067893,-0.25809243,-9.228573,4496,0
368341260,0.0024831868,-0.004548308,0.006309784,4494,0,-0.57712126,0.25168172,-10.48211,4494,0
368345760,0.003128977,-0.0038283183,0.007220682,4500,0,0.24387676,0.2169076,-10.911287,4500,0
368350257,0.0043450766,-0.013456351,0.012011218,4497,0,-0.20955347,-0.31715783,-10.170652,4497,0
368354775,-0.0045034303,0.022951458,0.0034570838,4518,0,-0.46753165,-0.64272267,-10.141641,4518,0
368359250,-0.0076547675,0.011302498,0.003311388,4475,0,0.281275,-0.75495005,-9.945163,4475,0
368363750,-0.010489506,-0.0076410794,0.009427894,4500,0,-0.4047055,-0.6895928,-9.521233,4500,0
368368243,-0.0142728565,0.020810938,0.0009745283,4493,0,-0.9132709,-0.7566448,-9.552882,4493,0
368372741,-0.013483847,0.021562135,-0.0005763386,4498,0,-0.004115609,-0.5413189,-9.738169,4498,0
368377246,-0.009905157,0.00073764584,0.0013239209,4505,0,0.17204878,-0.12467741,-9.613538,4505,0
368381733,0.0051886146,0.0070185573,-0.012176839,4487,0,0.24292655,0.3336429,-9.762465,4487,0
368386289,0.0048236833,-0.0046888674,-0.014697048,4556,0,0.55616647,0.7806905,-9.844647,4556,0
368390742,0.006223473,-0.008314424,-0.016737876,4453,0,0.121875025,1.3182093,-10.306779,4453,0
368395223,0.006957362,-0.0013646362,-0.018889662,4481,0,-0.19466431,1.2172743,-10.317925,4481,0
368399723,0.0027855297,-0.008823723,-0.014104443,4500,0,0.23658626,0.42376113,-9.809832,4500,0
368404242,-0.0061498047,-0.005721984,-0.017437603,4519,0,-0.14899676,-0.51338327,-9.885089,4519,0
368408713,-0.018517625,0.009497558,-0.01652203,4471,0,0.1992339,-0.80013233,-9.8847685,4471,0
368413210,-0.024616709,-0.007998741,-0.008685107,4497,0,0.41145748,-0.7017169,-9.427587,4497,0
368417715,-0.020507006,0.0074829697,-0.010190019,4505,0,-0.27833375,-0.11691086,-9.804785,4505,0
368422210,-0.02918456,0.023944547,-0.012047803,4495,0,-0.19984296,0.33285582,-10.342435,4495,0
368426709,-0.02312057,0.0049725315,-0.007996494,4499,0,0.124800414,0.48022872,-10.179686,4499,0
368431200,-0.0102179255,0.00062899827,-0.0134203555,4491,0,-0.32950366,0.51515186,-9.447433,4491,0
368435701,-0.0048533715,0.007832685,-0.023326628,4501,0,0.11499599,0.2487893,-9.5015745,4501,0
368440190,-0.009504849,-0.022486674,-0.018611642,4489,0,0.38008448,0.37552515,-9.7479925,4489,0
368444688,0.009774695,-0.013817424,-0.02061528,4498,0,-0.01110194,0.539018,-9.37282,4498,0
368449191,0.006039085,-0.01396149,-0.021182042,4503,0,0.39989626,0.15836303,-9.505337,4503,0
368453680,-0.001131957,-0.023375059,-0.011163343,4489,0,0.21559301,-0.13041523,-10.334999,4489,0
368458177,-0.004212119,0.0030237567,-0.0160108,4497,0,-0.49655688,-0.5218484,-10.505827,4497,0
368462680,-0.013511009,0.015340117,-0.01172099,4503,0,-0.22073002,-0.7147105,-10.137899,4503,0
368467184,-0.0103478925,0.0005677385,0.005238461,4504,0,-0.10616687,-0.44565105,-10.106682,4504,0
368471667,-0.0073512862,0.025268449,0.0068284892,4483,0,-0.6302884,-0.33236718,-10.058607,4483,0
368476163,-0.02847991,0.019182611,0.013326344,4496,0,-0.08612536,-0.03202949,-10.165839,4496,0
368480668,-0.0048317066,-0.008034997,0.025560353,4505,0,-0.12956755,0.30039248,-9.71286,4505,0
368485168,-0.011844464,0.017393058,0.012859643,4500,0,-0.29586115,0.008016933,-9.392383,4500,0
368489663,-0.024042342,-0.011937054,0.01025663,4495,0,0.4032018,0.53484887,-9.460774,4495,0
368494150,0.018087909,-0.008636198,0.0077918298,4487,0,0.13512085,0.9515949,-9.790729,4487,0
368498666,0.0038220342,-4.0508912e-05,0.002830479,4516,0,0.0048763924,0.5690042,-9.56954,4516,0
368503149,0.0029154664,-0.0138698835,0.0023505783,4483,0,0.3636103,0.8340978,-9.89349,4483,0
368507642,0.023977356,-0.015948772,0.00067683,4493,0,-0.5065086,0.23048544,-10.460921,4493,0
368512137,-0.001329036,0.017728066,-0.005243128,4495,0,-0.52764904,-1.0819016,-10.386951,4495,0
368516633,-0.023868276,-0.0003728395,0.008934119,4496,0,0.31127706,-0.32743397,-9.610211,4496,0
368521142,0.007540148,0.012958007,0.016409475,4509,0,-0.037311204,-0.04449245,-9.751453,4509,0
368525641,-0.03130835,0.028115734,0.01712336,4499,0,0.017978067,-0.74342334,-9.726802,4499,0
368530137,-0.026537579,-0.0015897417,0.028072933,4496,0,0.2364347,0.6820358,-9.594077,4496,0
368534620,0.00987273,0.0140150115,0.02031787,4483,0,-0.5794441,0.4632721,-9.890323,4483,0
368539117,-0.02381896,0.02084914,0.005798557,4497,0,0.02373837,0.14846337,-9.877367,4497,0
368543623,-6.7592923e-06,-0.006930202,0.008140746,4506,0,0.4765621,0.8628645,-9.702547,4506,0
368548121,0.019096667,0.006374423,-0.006140345,4498,0,-0.040348712,0.53177786,-9.403988,4498,0
368552607,-0.003905314,0.0033893774,-0.012597607,4486,0,0.58567697,0.20260723,-8.938987,4486,0
368557111,0.027351817,-0.022047203,-0.0062153134,4504,0,0.12677689,0.0918825,-9.558385,4504,0
368561614,0.0032021506,0.014982536,-0.015081755,4503,0,-0.864256,-0.85176754,-10.362621,4503,0
368566100,-0.01756326,0.01772112,-0.010576145,4486,0,0.10124516,-0.59868765,-9.661444,4486,0
368570596,0.0050304458,-0.004219627,0.00504482,4496,0,-0.0111390585,-0.349484,-9.682942,4496,0
368575097,-0.023974825,0.022191178,0.003291037,4501,0,-0.62405616,-0.7768549,-10.402267,4501,0
368579590,-0.025905915,0.0047681183,0.008421529,4493,0,0.2852907,0.045816343,-9.845389,4493,0
368584098,0.0052377363,0.0014924948,0.0061131166,4508,0,-0.22658715,0.023582669,-9.964266,4508,0
368588603,-0.025913889,0.010412394,-0.0064712744,4505,0,-0.15698403,-0.0209299,-9.970724,4505,0
368593092,-0.008681371,-0.00047279985,-0.009423998,4489,0,0.4591729,0.65774155,-9.592049,4489,0
368597576,0.0067696483,-0.0136849815,-0.014528546,4484,0,0.13851425,0.62809604,-9.747555,4484,0
368602081,-0.014810216,-0.009456354,-0.020898987,4505,0,0.0621742,0.47326052,-9.993259,4505,0
368606571,0.010864442,-0.011700931,-0.020788988,4490,0,0.1618815,0.40981588,-10.18495,4490,0
368611064,-0.0004040429,-0.001262258,-0.021412529,4493,0,-0.2916066,-0.33376843,-10.2634735,4493,0
368615567,-0.01626376,0.01096681,-0.02004509,4503,0,0.08839071,-0.54123676,-9.976131,4503,0
368620081,0.000112863076,-0.0045197257,-0.0056486386,4514,0,0.0451156,-0.27621058,-9.656089,4514,0
368624573,-0.009771114,0.009644836,-0.007590543,4492,0,-0.3507535,-0.5609104,-10.026454,4492,0
368629051,-0.02608858,0.009534235,-0.0018940177,4478,0,0.09863235,-0.29995602,-9.697024,4478,0
368633551,-0.010252377,-0.0010788454,0.0032088826,4500,0,0.04300145,0.35258257,-9.971377,4500,0
368638047,-0.012945091,0.004594885,-0.0071883886,4496,0,-0.09988162,0.473457,-10.157429,4496,0
368642550,-0.014198026,0.0065935906,-0.011605698,4503,0,0.31185368,0.6831423,-9.672309,4503,0
368647037,-0.0045422916,-0.0138326315,-0.010303107,4487,0,0.40488964,0.80250186,-9.394237,4487,0
368651541,-0.0035960395,-0.0055674673,-0.016777636,4504,0,-0.12757592,0.7957233,-9.85936,4504,0
368656031,-0.0007422672,-0.00023938685,-0.017919986,4490,0,0.020994924,0.2014854,-9.923363,4490,0
368660532,-0.0023943705,-0.006544436,-0.012274707,4501,0,-0.032995235,-0.09158807,-10.071746,4501,0
368665033,-0.0004237555,-0.0069250385,-0.010268823,4501,0,-0.27078268,-0.57947785,-9.796278,4501,0
368669521,0.0006673511,0.0054019997,-0.0029037404,4488,0,-0.36049563,-0.85576594,-10.008161,4488,0
368674028,-0.021019436,0.0032047695,0.0072973534,4507,0,-0.317963,-0.7428453,-10.272536,4507,0
368678514,-0.0186172,0.0014097298,0.013695268,4486,0,-0.14351714,0.0059750397,-9.936031,4486,0
368683016,-0.01000818,0.007817972,0.0147166625,4502,0,-0.18406194,0.34301332,-9.925572,4502,0
368687509,-0.018524664,0.0013574538,0.016491877,4493,0,0.0712765,0.0628536,-9.955323,4493,0
368692004,-0.013094605,0.00469454,0.008772431,4495,0,-0.034173463,0.64113563,-10.077111,4495,0
368696503,0.0028835454,0.0035237444,0.00140546,4499,0,0.12283176,0.5829992,-10.0184145,4499,0
368700997,-0.009362673,-0.017571446,0.0012451852,4494,0,0.24816063,0.32168642,-9.488438,4494,0
368705503,8.052549e-05,-0.0051673674,-0.0037443775,4506,0,-0.33901855,0.55941284,-9.810672,4506,0
368709990,0.012013855,0.0076242965,-0.0059039197,4487,0,-0.18913843,-0.018373903,-10.594186,4487,0
368718997,0.0018817288,0.009085648,0.005348332,4498,0,-0.2925157,-0.190124,-9.713652,4498,0
368723484,0.005025253,0.012110641,0.013655834,4487,0,-0.16328545,-0.58563846,-10.502855,4487,0
368727976,-0.021767972,0.0040086233,0.019487059,4492,0,-0.2107734,-0.50267106,-10.115845,4492,0
368732476,-0.01063791,0.01907405,0.017299403,4500,0,-0.2613835,0.7351915,-9.607004,4500,0
368736976,0.0066018654,0.0049532615,0.018900782,4500,0,0.35209298,0.31171098,-10.011525,4500,0
368741466,-0.024031498,0.0027436127,0.008267419,4490,0,-0.041517947,0.3527954,-10.1248665,4490,0
368745963,-0.002220645,0.013699082,-0.0038249467,4497,0,0.053140372,0.9809691,-9.853368,4497,0
368750459,0.0044204993,-0.005604304,-0.0058713853,4496,0,0.6451885,0.22276287,-9.578754,4496,0
368754956,-0.01953223,-0.0041109733,-0.012830829,4497,0,0.0036967446,0.4763686,-9.576673,4497,0
368759493,0.01877609,0.004224183,-0.014667729,4537,0,-0.110144325,0.3892191,-10.29152,4537,0
368763961,0.0035300797,-0.0050748144,-0.008269742,4468,0,-0.056774594,-1.0247707,-9.826245,4468,0
368768464,-0.021540016,0.008770675,-0.0086344285,4503,0,-0.37956855,-0.48681703,-9.931969,4503,0
368772943,0.010290399,0.008337695,0.00061180885,4479,0,-0.3153106,-0.4239539,-10.23959,4479,0
368777444,-0.017847875,0.007395635,0.006643239,4501,0,-0.12541312,-0.93628377,-10.008575,4501,0
368781936,-0.025656536,0.00988714,0.0035738118,4492,0,-0.16830069,0.33345106,-9.643099,4492,0
368786432,0.01599311,0.0040415833,0.0053397156,4496,0,0.24736033,0.57542676,-9.638221,4496,0
368790947,-0.028469384,-0.0028876336,-0.004202383,4515,0,0.17003536,-0.19219014,-9.944599,4515,0
368795426,-0.019566083,0.0036853938,-0.01237141,4479,0,-0.015292594,0.9827578,-10.2595,4479,0
368799933,0.016079148,-0.002536419,-0.015964914,4507,0,0.40303823,0.40666017,-9.821545,4507,0
368804419,-0.021135729,-0.0068759657,-0.022693723,4486,0,0.2105477,0.09755984,-9.416569,4486,0
368808926,0.006539374,-0.0069669667,-0.024345124,4507,0,-0.058085162,0.44293484,-10.313118,4507,0
368813413,0.009746561,-0.0017765987,-0.019814817,4487,0,-0.18243031,-0.7867552,-9.946188,4487,0
368817916,-0.027029326,0.0033161365,-0.011981467,4503,0,-0.121732526,-0.69725066,-9.698016,4503,0
368822405,0.0014751111,-0.0027811609,-0.003219877,4489,0,-0.30057955,-0.112174064,-10.195899,4489,0
368826909,-0.008910688,0.0059628803,0.0014940855,4504,0,-0.42247435,-0.7948201,-10.248791,4504,0
368831399,-0.030922981,0.010680718,0.0035049438,4490,0,-0.03552255,0.2141684,-9.602503,4490,0
368835896,0.012007737,-0.005591758,0.0053639533,4497,0,0.35827506,0.78083855,-9.676109,4497,0
368840403,-0.022141067,-0.0020204328,-0.0029736327,4507,0,0.044124715,0.057755984,-9.809423,4507,0
368844889,-0.021405077,0.0015536814,-0.012327101,4486,0,0.22483055,0.93481183,-9.808635,4486,0
368849394,0.010484019,-0.0071080406,-0.013902728,4505,0,0.42216104,0.5604691,-9.683242,4505,0
368853883,-0.015411456,-0.00024253529,-0.018948352,4489,0,0.008419473,0.22605486,-9.553521,4489,0
368858390,-0.0019505213,-0.0033935674,-0.015632821,4507,0,0.16045564,0.48511976,-9.902017,4507,0
368862880,0.01140811,-0.008000496,-0.009922499,4490,0,-0.13301168,-0.29995593,-10.142366,4490,0
368867379,-0.011344514,0.009598149,-0.0053496077,4499,0,-0.5178011,-0.75830305,-9.973004,4499,0
368871870,-0.012897137,-0.0034270813,0.006193977,4491,0,-0.119327106,-0.49294323,-9.732748,4491,0
368876366,-0.009459182,-0.000388594,0.013187013,4496,0,-0.5207774,-0.32267073,-10.386382,4496,0
368880863,-0.0101973815,0.02203357,0.013226142,4497,0,-0.32942894,0.18548054,-10.056452,4497,0
368885360,-0.0069208853,-0.00010783652,0.015364176,4497,0,0.5079773,0.112629704,-9.132737,4497,0
368889856,-0.012779071,0.0014314927,0.011074486,4496,0,0.0008878411,0.5624771,-9.715428,4496,0
368894353,-0.006189932,0.006201342,0.0039499635,4497,0,0.0027626443,0.55707085,-10.197792,4497,0
368898849,-0.0047400114,-0.013538652,-0.0034043794,4496,0,0.43480387,0.3711557,-9.903116,4496,0
368903352,-0.00035816574,-0.0011563263,-0.007990455,4503,0,-0.36316726,0.6236842,-9.993328,4503,0
368907848,0.0031320013,0.012159178,-0.008779007,4496,0,0.04814649,0.013363562,-9.988272,4496,0
368912340,-0.008429066,-0.005065499,-0.0011827504,4492,0,0.036123082,-0.2200336,-9.725212,4492,0
368916841,-0.00047684932,0.008558568,0.0017522275,4501,0,-0.3756993,-0.3859692,-9.988079,4501,0
368921333,-0.0031670765,-0.0006835397,0.011606792,4492,0,-0.2504843,-0.91352457,-9.867641,4492,0
368925847,-0.0083128065,0.0017488936,0.015376275,4514,0,-0.33482185,-0.36470157,-10.156332,4514,0
368930334,-0.0029966743,0.021012828,0.013163247,4487,0,-0.4710018,0.17083023,-9.8489685,4487,0
368934823,-0.0139102135,0.009709105,0.018034864,4489,0,0.55127037,0.23852351,-9.658362,4489,0
368939319,-0.010885751,0.00096455653,0.012997735,4496,0,0.072550565,0.6746783,-9.834107,4496,0
368943820,-0.005904434,0.0075626266,-0.0012314721,4501,0,0.11389875,0.5277955,-9.595298,4501,0
368948313,-0.0075717648,-0.0059342673,-0.00960244,4493,0,0.508808,0.21554485,-9.684576,4493,0
368952810,0.002981987,0.0017075238,-0.016515937,4497,0,-0.20168008,0.6807379,-10.266083,4497,0
368957309,0.00605217,0.014418743,-0.02023212,4499,0,0.012932313,0.15531078,-9.967211,4499,0
368961862,-0.015900472,-0.0020976358,-0.012903751,4553,0,0.12586652,-0.17315885,-9.758286,4553,0
368966300,0.0022950578,-0.006081417,-0.00290066,4438,0,-0.40662134,-0.34350273,-10.312187,4438,0
368970796,-0.0003107384,0.005152854,-0.0006200086,4496,0,-0.46795955,-1.2750177,-10.101378,4496,0
368975309,-0.020450499,0.0053574964,0.0054073064,4513,0,-0.2540997,-0.46267915,-10.070081,4513,0
368979790,0.0034505283,0.00863299,0.008342297,4481,0,-0.16229491,0.28720757,-10.055045,4481,0
368984290,-0.012031688,0.0074839005,0.0047357455,4500,0,0.30680677,0.057990737,-9.611482,4500,0
368988783,-0.019840157,0.0051923143,0.0011722425,4493,0,0.16760397,0.5738447,-9.905226,4493,0
368993298,0.00016607989,-0.0043019103,-0.0031139466,4515,0,0.1787946,0.49311578,-9.989235,4515,0
368997780,-0.012794434,-0.00408372,-0.018387984,4482,0,0.2182699,0.09230155,-9.713996,4482,0
369002277,-0.00014340943,-0.0048038005,-0.024099473,4497,0,0.09864578,0.5426439,-9.703942,4497,0
369006777,-0.003294549,-0.008848192,-0.022037843,4500,0,0.1739515,0.07399712,-9.8401785,4500,0
369011266,-0.0143060805,0.004973162,-0.022445345,4489,0,-0.294215,0.15691546,-10.085094,4489,0
369015769,-0.0026992322,0.0052397014,-0.008025778,4503,0,-0.053584963,-0.1436959,-9.725719,4503,0
369020267,-0.017391156,-0.014943212,0.003552188,4498,0,-0.27209634,-1.2892277,-9.651626,4498,0
369024773,-0.013190178,0.0023132158,0.0020283714,4506,0,-0.55482954,-0.18160897,-10.243428,4506,0
369029253,0.0031436037,0.010595154,0.006391313,4480,0,-0.1743249,-0.07480232,-10.118116,4480,0
369033750,-0.023435082,0.00091577927,0.009653693,4497,0,0.27203897,-0.13039225,-9.74058,4497,0
369038247,-0.011049272,0.00855856,-0.0010734742,4497,0,-0.013750188,1.1184527,-9.71213,4497,0
369042743,-0.0013636507,-0.0030150025,-0.0026968585,4496,0,0.3672099,0.42756706,-9.98934,4496,0
369047240,-0.01974649,-0.009002426,-0.015121315,4497,0,0.11049013,-0.14183839,-10.0151825,4497,0
369051737,0.0017199619,0.003041861,-0.025124218,4497,0,-0.029107824,0.88919187,-9.69491,4497,0
369056233,-0.0035684202,-0.011629981,-0.019358024,4496,0,0.43577054,0.17252964,-9.705256,4496,0
369060730,-0.010969562,-0.008697259,-0.016963923,4497,0,-0.34011346,0.17550166,-10.543822,4497,0
369065233,-0.0032345338,0.011115732,-0.0028333722,4503,0,-0.4549185,-0.09385485,-10.095127,4503,0
369069723,-0.02031988,-0.006573693,0.009228135,4490,0,-0.11547384,-1.102382,-9.546038,4490,0
369074226,-0.00991954,0.00013854506,0.013132675,4503,0,-0.51569104,-0.26050755,-10.4372635,4503,0
369078716,0.0027622816,0.0064103142,0.013961736,4490,0,-0.14431916,-0.18579209,-10.058484,4490,0
369083213,-0.013461123,-0.0010861187,0.017041845,4497,0,0.168861,-0.11084148,-9.283762,4497,0
369087713,-0.00320613,0.013609173,0.0071761995,4500,0,-0.04619614,1.04356,-9.7472925,4500,0
369092206,-0.010507098,0.0041802,0.002536844,4493,0,0.46083802,0.4269515,-9.499699,4493,0
369096703,-0.013798277,-0.008520618,-0.008183351,4497,0,0.07544658,0.34050792,-9.875728,4497,0
369101200,0.009411266,0.012533074,-0.018919688,4497,0,-0.294728,0.5973155,-10.16528,4497,0
369105701,-0.0041882773,-0.0011766965,-0.014444376,4501,0,0.42176247,0.11664915,-9.853258,4501,0
369110193,-0.004622113,-0.006871804,-0.008013209,4492,0,-0.32730168,0.22910452,-9.938199,4492,0
369114690,0.0062771756,0.019870745,-0.0027197127,4497,0,-0.63722855,-0.07317302,-9.919266,4497,0
369119196,-0.015249389,-0.005997576,0.014070794,4506,0,-0.077936985,-1.001299,-9.409309,4506,0
369123693,-0.010924026,-0.0013535484,0.016410287,4497,0,-0.48436996,-0.18757047,-10.032439,4497,0
369128183,0.0015688409,0.013713981,0.018868178,4490,0,-0.39741457,-0.23677745,-10.086936,4490,0
369132684,-0.009733356,0.010101977,0.018561075,4501,0,0.31237832,-0.23890375,-9.323189,4501,0
369137173,-0.00653661,0.009643671,0.004374988,4489,0,0.3129811,0.6109424,-9.706415,4489,0
369141670,-0.00393757,-0.0006504976,0.0024594995,4497,0,0.3726423,0.42546368,-10.339095,4497,0
369146167,-0.0062423525,-0.004517623,-0.008131789,4497,0,-0.056013197,0.2766436,-9.966844,4497,0
369150658,-0.012197282,0.0127134025,-0.021015042,4491,0,-0.023401612,0.69625056,-10.012694,4491,0
369155160,-0.0016965684,-0.0048815394,-0.011632277,4502,0,0.4073258,0.3453707,-9.785952,4502,0
369159656,-0.0004504491,-0.0031649957,-0.012890765,4496,0,-0.16509944,-0.043415096,-10.093773,4496,0
369164199,-0.0005035825,0.011970096,-0.0066876863,4543,0,-0.36585337,-0.33715305,-10.349183,4543,0
369168650,-0.0040614917,-0.0017712298,0.011237796,4451,0,-0.16408801,-0.7966413,-9.786788,4451,0
369173146,-0.010769439,0.0016618292,0.010237558,4496,0,-0.33581078,-0.39396966,-10.144708,4496,0
369177658,-0.004831966,0.008117899,0.009976195,4512,0,-0.14672248,-0.24483752,-10.048343,4512,0
369182192,0.0002391283,0.0040978203,0.0107011115,4534,0,0.25100198,-0.17804107,-9.243335,4534,0
369186637,-0.009520265,0.0137057,0.0008420315,4445,0,0.268566,0.37249708,-9.515734,4445,0
369191133,-0.013005574,-0.0015559688,-0.010200452,4496,0,0.6432964,0.36053368,-9.909758,4496,0
369195644,-0.0088995695,-0.0006586268,-0.017720621,4511,0,0.13917486,0.60622203,-9.981735,4511,0
369200127,-0.005233217,0.009617834,-0.020988796,4483,0,-0.056637306,0.65051895,-10.217889,4483,0
369204623,-0.0052147163,0.0021785882,-0.021844214,4496,0,0.2998861,0.29814968,-9.922403,4496,0
369209120,-0.011817833,-0.006575316,-0.016002918,4497,0,-0.13848242,0.093083,-9.859657,4497,0
369213624,0.0038357463,-0.0064033573,-0.0054868734,4504,0,-0.39629465,-0.25015363,-10.11719,4504,0
369218113,-0.014369156,-0.0059921094,-6.141369e-05,4489,0,-0.38479593,-1.0898979,-9.955193,4489,0
369222616,-0.017141724,-0.0006641504,0.0052200356,4503,0,-0.36436716,-0.04478758,-9.835163,4503,0
369227115,0.015216202,0.004321228,0.008089446,4499,0,-0.08619879,-0.008058207,-9.726402,4499,0
369231603,-0.016363412,0.0028203418,0.002595789,4488,0,0.32832754,-0.44929063,-9.547903,4488,0
369236108,-0.017837552,-0.0043799737,0.0042195367,4505,0,0.20557885,0.5685024,-9.813878,4505,0
369240596,0.005068822,0.0023254338,-0.0055614626,4488,0,0.08991197,0.10792765,-9.943793,4488,0
369245100,-0.03204429,0.0067371824,-0.0178479,4504,0,0.34608898,0.5885176,-9.679691,4504,0
369249590,0.0027904396,-0.0057955845,-0.014268208,4490,0,0.17364924,1.0163585,-9.508418,4490,0
369254087,0.004374621,0.0067994334,-0.017938036,4497,0,-0.21429929,0.027707554,-9.775163,4497,0
369258587,-0.03131842,0.007350339,-0.011854278,4500,0,-0.12272743,0.11412757,-9.947727,4500,0
369263086,0.01643565,-0.013018771,0.0029637278,4499,0,-0.18868497,0.20952801,-9.560454,4499,0
369267577,-0.001296363,0.001501132,0.0027811949,4491,0,-0.68352795,-1.1078832,-9.9057,4491,0
369272073,-0.026491338,0.009199711,0.006357306,4496,0,-0.30061534,-0.38949957,-10.051762,4496,0
369276570,0.025932599,0.004360639,0.013677758,4497,0,0.018529132,0.20936166,-9.725474,4497,0
369281067,-0.009696261,0.0020210221,0.00881186,4497,0,0.30450392,-0.19870773,-9.377916,4497,0
369285566,-0.016906777,0.003099648,0.005172589,4499,0,0.3012054,0.5474943,-9.726451,4499,0
369290061,0.008372727,0.0049691442,0.0036645788,4495,0,0.08193841,0.40915406,-10.10379,4495,0
369294557,-0.03291956,0.011054028,-0.010791593,4496,0,0.20386748,0.09673729,-10.182739,4496,0
369299054,-0.0058243554,0.0071062287,-0.012404921,4497,0,0.14406347,1.1132874,-9.642149,4497,0
369303550,0.012743022,0.004452246,-0.010444183,4496,0,-0.08334793,0.25464323,-9.936566,4496,0
369308047,-0.028602555,-0.0008373349,-0.008114028,4497,0,-0.1447589,-0.056911994,-10.594009,4497,0
369312543,0.0037542556,-0.0043106605,0.0016099621,4496,0,-0.46618676,0.06719104,-10.3983755,4496,0
369317040,0.0048101144,0.0064781657,0.001979141,4497,0,-0.74881154,-1.0372814,-10.522207,4497,0
369321537,-0.022373872,0.0026789769,0.007818687,4497,0,-0.06114833,-0.78541774,-10.353427,4497,0
369326048,0.013522416,0.0033938673,0.0142659005,4511,0,-0.13382179,0.22840379,-9.935578,4511,0
369330534,0.00079044956,0.0052161706,0.011369723,4486,0,0.27046698,-0.19210672,-9.815005,4486,0
369335058,-0.01642055,-0.00599766,0.008904942,4524,0,0.5080497,0.014013925,-9.905335,4524,0
369339524,0.0063034333,0.011028765,0.0037411298,4466,0,-0.15311655,0.6254106,-10.056592,4466,0
369344020,-0.022281917,0.012992237,-0.0061961245,4496,0,0.3782893,-0.104307696,-10.079454,4496,0
369348517,-0.014640094,-0.0049229385,-0.010445772,4497,0,0.30577618,0.8583771,-10.021142,4497,0
369353014,0.009205754,0.009914099,-0.015297269,4497,0,-0.34584075,0.36452508,-10.04539,4497,0
369357509,-0.021648603,0.0018951253,-0.0087854965,4495,0,0.1161716,-0.18706372,-9.966012,4495,0
369362007,-0.0054582423,-0.018453624,8.14095e-05,4498,0,-0.35965616,0.1671584,-10.008785,4498,0
369366529,0.006068072,0.0077292784,-0.0042822105,4522,0,-0.9710539,-0.73885906,-9.997346,4522,0
369371000,-0.020099219,-0.0033754152,0.0074847513,4471,0,0.07498116,-0.7548622,-9.5852165,4471,0
369375497,-1.1902287e-05,-0.0036561028,0.010182693,4497,0,0.13796706,0.12270616,-9.421334,4497,0
369379993,-0.0069453963,0.002785042,0.0027734453,4496,0,0.31827867,0.09231913,-9.263179,4496,0
369384497,-0.008868996,-0.008411444,0.006267286,4504,0,0.50324106,-0.020585187,-9.618944,4504,0
369389012,-0.009084964,0.0054764827,-0.0013150643,4515,0,-0.07772105,0.35483828,-9.916178,4515,0
369393484,-0.021580115,0.013577893,-0.014183364,4472,0,0.27309927,0.48164237,-9.842406,4472,0
369397982,-0.00043373165,-0.012094027,-0.011999148,4498,0,0.2968268,0.8841148,-9.891558,4498,0
369402483,-0.0065044006,0.0009795012,-0.019655414,4501,0,-0.442989,0.19401234,-10.075043,4501,0
369406974,-0.021221949,0.006165268,-0.01789245,4491,0,-0.20055589,0.057279386,-9.77926,4491,0
369411470,0.0036141449,-0.008808608,-0.004094388,4496,0,-0.1588407,0.1802567,-9.873453,4496,0
369415967,-0.004140704,-0.001708637,-0.005210093,4497,0,-0.6381477,-0.8963423,-10.041113,4497,0
369420465,-0.00962803,0.003379994,0.0008920515,4498,0,-0.22013226,-0.41007522,-9.588796,4498,0
369424960,0.013289062,0.0015100345,0.007798156,4495,0,0.03717484,-0.010943182,-9.601283,4495,0
369429472,-0.010955382,-0.0020464938,0.00038700315,4512,0,0.3141459,-0.19377936,-9.509368,4512,0
369433954,-0.01299726,0.0028248155,0.004510389,4482,0,0.12128884,0.31928498,-9.545624,4482,0
369438450,-0.0072095594,0.011548564,0.0014249048,4496,0,0.12273621,0.38435525,-10.094848,4496,0
369442947,-0.024639957,0.011775228,-0.01099777,4497,0,0.2219407,0.23512755,-9.87543,4497,0
369447449,-0.0059260083,-0.0028257978,-0.013343266,4502,0,0.16268255,1.033275,-9.439353,4502,0
369451940,0.00019139585,-0.0058244746,-0.010839438,4491,0,-0.37045777,0.14492825,-9.96134,4491,0
369456437,-0.017484708,0.0086974995,-0.014791836,4497,0,-0.52364516,0.06922643,-10.18174,4497,0
369460934,-0.0054690065,0.00044964056,-0.007699684,4497,0,-0.21822333,0.2076558,-9.973218,4497,0
369465447,0.0019225839,-0.011035002,0.0011964992,4513,0,-0.20500118,-0.6550994,-10.170956,4513,0
369469927,-0.005015915,0.004491318,0.002088645,4480,0,-0.39846426,-0.749942,-9.9333,4480,0
369474424,0.0073903846,-0.003010822,0.01065152,4497,0,0.17354384,-0.16344102,-9.614592,4497,0
369478921,0.0019169978,-0.0052003358,0.0072535286,4497,0,0.34920013,-0.2693226,-9.958177,4497,0
369483424,-0.015328531,0.013651462,0.0026011858,4503,0,0.07933917,0.38995078,-10.101584,4503,0
369487914,-0.012667441,0.0078041493,0.0052882726,4490,0,0.39435437,0.38749835,-10.016818,4490,0
369492411,-0.017336475,0.009984125,-0.0016863146,4497,0,-0.01924156,0.3973163,-9.875276,4497,0
369496907,-0.013954627,0.014421287,-0.008566779,4496,0,0.17421405,0.8857614,-9.623277,4496,0
369501404,0.004454749,-0.006353809,-0.00848199,4497,0,-0.032889105,0.07991206,-9.60956,4497,0
369505908,-0.015381292,0.009470455,-0.013911137,4504,0,-0.5580326,0.02448751,-10.097698,4504,0
369510404,-0.0069463253,0.004540467,-0.007228937,4496,0,-0.20566493,0.2643033,-10.187382,4496,0
369514894,0.011215016,-0.01063453,0.0056375917,4490,0,-0.098023266,-0.33801958,-10.200167,4490,0
369519407,-0.006039878,0.00752761,0.0027697077,4513,0,-0.46709284,-0.80747086,-9.867986,4513,0
369523894,0.0018439365,-0.0019637104,0.008552362,4487,0,0.37562266,-0.2784748,-9.442429,4487,0
369528404,0.002466676,-0.0053688814,0.0065935906,4510,0,0.4316143,-0.46095604,-9.669222,4510,0
369532881,-0.01984346,0.008942175,0.0025796092,4477,0,0.2605678,0.42023465,-9.8414755,4477,0
369537411,-0.0033784423,-0.0035539076,0.009558556,4530,0,0.45414338,0.60478437,-9.556358,4530,0
369541880,-0.022019386,0.004927208,-0.0010503893,4469,0,-0.050607737,0.37748483,-9.836424,4469,0
369546370,-0.026208123,0.0029536271,-0.0037816858,4490,0,0.059922583,0.70046973,-10.074441,4490,0
369550867,0.0066930843,0.001427183,-0.010202942,4497,0,-0.25072932,0.059252582,-9.916434,4497,0
369555364,-0.020010848,0.008591252,-0.014173899,4497,0,-0.45777383,-0.24277866,-9.896415,4497,0
369559861,-0.0066937944,3.4128207e-05,-0.0047583147,4497,0,-0.09765631,0.1920581,-9.691096,4497,0
369564426,0.015929256,-0.016729785,-0.0006557714,4565,0,-0.15191463,-0.050742332,-10.07401,4565,0
369568873,-0.012219874,-0.0033603583,0.00161262,4447,0,-0.4847022,-0.94949496,-10.365321,4447,0
369573351,0.008560921,0.007393407,0.0045246906,4478,0,0.06526531,-0.24501446,-9.867429,4478,0
369577847,-8.647229e-05,-3.496339e-05,0.004616195,4496,0,0.37626028,-0.33660865,-9.609385,4496,0
369582351,-0.017019566,0.0073571606,2.5489328e-05,4504,0,0.41120446,0.3038769,-10.181117,4504,0
369586841,-0.0027714737,-0.0036510264,0.0041172947,4490,0,0.33373585,0.41693172,-9.800311,4490,0
369591337,-0.026012538,0.012812053,-0.0011650352,4496,0,0.0027401645,0.41217488,-10.375816,4496,0
369595864,-0.0149450805,0.003395572,-0.007401516,4527,0,-0.043482095,0.9025174,-10.248761,4527,0
369600327,0.0027051496,0.00082810974,-0.012352523,4463,0,-0.29314572,0.20609567,-9.314425,4463,0
369604834,-0.020645946,0.0049756593,-0.014606284,4507,0,-0.577188,-0.31405962,-10.03057,4507,0
369609324,0.004658694,0.010568806,-0.013895056,4490,0,-0.20461223,0.3062489,-10.260119,4490,0
369613821,0.011447619,-0.018845253,-0.002197015,4497,0,-0.03366604,-0.37880448,-10.041973,4497,0
369618317,-0.01440247,-0.011340776,-0.0001931194,4496,0,-0.4460633,-0.57114536,-10.416203,4496,0
369622820,0.007900146,0.001529779,0.0037353886,4503,0,-0.13504316,-0.20489338,-9.896403,4503,0
369627328,-0.0056313802,0.0055528306,0.0035184198,4508,0,0.3261244,-0.4993613,-9.990887,4508,0
369631815,-0.019131003,0.009206907,0.00074543897,4487,0,0.4363534,0.35669947,-10.118985,4487,0
369636304,-0.004474786,-0.0029122303,0.0029949741,4489,0,0.47684926,0.38570142,-9.490128,4489,0
369640800,-0.036047675,2.7970515e-05,-0.0010732647,4496,0,-0.16883372,0.23712747,-10.275665,4496,0
369645308,-0.01302671,0.012432846,-0.0075634015,4508,0,-0.19969714,1.053141,-10.198592,4508,0
369649794,0.0032590202,0.0024558313,-0.008388697,4486,0,-0.1606253,0.13950588,-9.469707,4486,0
369654291,-0.024515783,0.0056129075,-0.013677409,4497,0,-0.6602582,-0.3403954,-10.016665,4497,0
369658787,0.008812299,0.014201595,-0.013460634,4496,0,-0.13752769,0.2398121,-10.076252,4496,0
369663298,0.012889072,-0.02148739,-0.0007765313,4511,0,0.16014345,-0.55251896,-9.89984,4511,0
369667781,-0.01083538,-0.0054765046,0.00070612406,4483,0,-0.4462438,-0.49073225,-10.388053,4483,0
369672277,0.014636086,0.014641807,0.003431584,4496,0,-0.14599681,-0.04106887,-9.813275,4496,0
369676774,-0.004990912,-0.0047509954,0.0099512385,4497,0,0.6638698,-0.38314855,-9.507229,4497,0
369681271,-0.0136437565,0.01007969,0.0005463768,4497,0,0.23270413,0.25521645,-9.859895,4497,0
369685767,-0.002678696,0.0054110866,0.006691868,4496,0,0.45931658,0.49686,-9.660167,4496,0
369690264,-0.027054284,-0.0008757828,0.00428479,4497,0,0.07915825,0.34116936,-10.172688,4497,0
369694761,-0.014143004,0.016099386,-0.0061629363,4497,0,-0.2331849,1.0484405,-10.154467,4497,0
369699264,-0.005031134,0.004344102,-0.0056580645,4503,0,-0.14218155,0.23218396,-9.302404,4503,0
369703758,-0.013925248,-0.0009065609,-0.009770546,4494,0,-0.4810358,-0.26564893,-9.773786,4494,0
369708258,0.0031200661,0.012282723,-0.01113603,4500,0,-0.31245497,0.28820184,-10.186264,4500,0
369712748,0.0071961554,-0.0204087,0.00015581839,4490,0,0.22691394,-0.710429,-9.991248,4490,0
369717244,-0.0064380397,-0.0023269148,-0.0007145368,4496,0,-0.32223487,-0.30117717,-10.072184,4496,0
369721741,0.00632746,0.01207975,0.0014747696,4497,0,0.0053879544,-0.09268896,-10.007231,4497,0
369726252,-0.010539838,-0.009968892,0.009580669,4511,0,0.7249031,-0.5825662,-9.8212,4511,0
369730734,-0.014017019,0.005703106,0.0009826963,4482,0,0.04014051,0.34363315,-9.667992,4482,0
369735238,-0.0062107067,0.0056002424,0.0049649104,4504,0,0.31972557,0.28182125,-9.51502,4504,0
369739735,-0.028456531,-0.0069840634,0.0033676638,4497,0,0.075827554,0.07698853,-9.94605,4497,0
369744229,-0.0190796,0.020197727,-0.0072292397,4494,0,-0.387663,1.1561052,-10.216231,4494,0
369748721,-0.003696697,0.0025873038,-0.006023619,4492,0,-0.19133264,0.15010704,-9.759718,4492,0
369753217,-0.0076868394,-0.00033855386,-0.00810481,4496,0,-0.4909359,-0.28279096,-9.818845,4496,0
369757714,0.004225909,0.010097577,-0.012079859,4497,0,-0.37908214,0.2761327,-10.133518,4497,0
369762211,0.0037380406,-0.019535458,-0.00021512632,4497,0,0.060415164,-0.77105796,-10.106403,4497,0
369766707,0.0028680011,0.00081529643,-0.0020899698,4496,0,-0.5355538,0.011254051,-10.371495,4496,0
369771243,0.007952515,0.011821099,0.0016562743,4536,0,0.089913964,-0.12998827,-9.513284,4536,0
369775701,-0.015291742,-0.010402589,0.010516792,4458,0,0.7608737,-0.61374307,-9.310145,4458,0
369780203,-0.0125090275,0.0058244946,0.0012340345,4502,0,0.004920515,0.584528,-9.963896,4502,0
369784698,-0.0041023805,0.008859577,0.002197454,4495,0,0.21237884,0.11836567,-9.946351,4495,0
369789191,-0.03270973,-0.0012150456,0.003661581,4493,0,0.0022027893,0.22017601,-9.697483,4493,0
369793688,-0.009191265,0.019029543,-0.010353967,4497,0,-0.21565418,1.5265368,-9.776502,4497,0
369798191,-0.000996347,-0.0041674306,-0.0072594094,4503,0,-0.2526248,-0.102924325,-9.873077,4503,0
369802699,-0.016505051,0.003955378,-0.010111204,4508,0,-0.68184805,-0.31474438,-10.001631,4508,0
369807177,0.0064212293,0.01700088,-0.013405211,4478,0,-0.16444054,0.4419146,-9.866491,4478,0
369811674,0.010974172,-0.02444724,-0.002102612,4497,0,0.25436556,-0.72269005,-9.729106,4497,0
369816171,-0.006664404,0.00448525,-0.006290202,4497,0,-0.4260726,-0.22504115,-10.556164,4497,0
369820670,0.0056894072,0.0067026294,0.0015860291,4499,0,0.13284361,-0.1170837,-9.856699,4499,0
369825170,-0.010623424,-0.0047836048,0.0078121684,4500,0,0.5649602,-0.5859677,-9.158215,4500,0
369829661,-0.01955351,0.005506526,-0.0012187692,4491,0,0.1726797,0.43585786,-9.5120735,4491,0
369834158,-0.0014659446,0.0020721355,0.0036352181,4497,0,0.3921572,0.5089999,-10.13884,4497,0
369838656,-0.022381622,0.000103236365,0.0015324058,4498,0,-0.09938274,0.012218552,-9.769096,4498,0
369843164,-0.028865254,0.024617022,-0.0076453323,4508,0,-0.13017099,1.1092088,-9.340358,4508,0
369847648,-0.0023413496,-0.010855489,-0.005600584,4484,0,0.05432598,0.19478184,-9.501586,4484,0
369852144,-0.0063279266,0.0052160155,-0.013252995,4496,0,-0.8756773,-0.35722244,-10.192787,4496,0
369856660,-0.0039775353,0.01972221,-0.0135220755,4516,0,-0.18496816,0.098992854,-10.166236,4516,0
369861138,0.018242357,-0.024754653,-6.889251e-05,4478,0,0.34880084,-0.27825075,-9.826205,4478,0
369865635,-0.006320401,-0.0018372543,-0.0072960807,4497,0,-0.51643574,-0.5480321,-10.215273,4497,0
369870131,-0.0058956654,0.006617056,0.0041185073,4496,0,0.15900736,-0.29308224,-9.571478,4496,0
369874628,0.0044074706,-0.006456293,0.009137453,4497,0,0.5849998,-0.36381128,-9.180858,4497,0
369879124,-0.023195539,0.0032914772,0.0015190998,4496,0,0.2061629,0.36268747,-9.962341,4496,0
369883626,-0.004739757,-0.0021705802,0.008087989,4502,0,0.26140612,0.5724893,-10.344533,4502,0
369888118,-0.0106522795,0.0075132507,0.0021444925,4492,0,-0.2765,0.073250115,-9.734968,4492,0
369892615,-0.03439575,0.020748539,-0.004698215,4497,0,0.09381684,1.0136719,-9.498873,4497,0
369897111,0.016463518,-0.007837358,-0.0019942108,4496,0,-0.046634767,0.3589472,-9.301592,4496,0
369901608,-0.006369754,0.014659737,-0.01167215,4497,0,-0.7289321,-0.40098107,-9.743304,4497,0
369906105,-0.017446542,-0.0009898562,-0.006048052,4497,0,0.06963567,-0.058789678,-10.158802,4497,0
369910633,0.027351324,-0.008235169,-0.00082465773,4528,0,-0.23417911,0.043319423,-10.398836,4528,0
369915098,-0.011494917,0.008576909,-0.007496676,4465,0,-0.31469956,-0.4370447,-10.020724,4465,0
369919594,-0.0068004043,-0.01086636,0.008820702,4496,0,0.46755686,-0.30208075,-9.481556,4496,0
369924101,0.008364197,0.0026885497,0.0025684237,4507,0,-0.05228992,-0.16218121,-9.975432,4507,0
369928588,-0.02591508,0.0076876786,-0.0005988125,4487,0,0.4793961,-0.015473896,-10.177886,4487,0
369933085,-0.007942359,-0.021716317,0.0138155585,4497,0,0.34419733,0.43009266,-9.800293,4497,0
369937589,-0.016736597,0.013185146,-0.000788617,4504,0,-0.71435624,0.30888736,-9.95152,4504,0
369942097,-0.033338748,0.016567057,-0.0036086196,4508,0,0.19167647,0.6714838,-9.548415,4508,0
369946579,0.012433277,-0.012734342,0.0001262515,4482,0,-0.11527226,0.30263352,-9.443109,4482,0
369951071,-0.0076355017,0.02049934,-0.015890772,4492,0,-0.7248053,-0.1371994,-9.895069,4492,0
369955568,-0.007862856,-0.0035406,-0.0067454814,4497,0,0.19350891,-0.11500988,-9.767723,4497,0
369960065,0.014074858,-0.009896744,-0.0033458683,4497,0,-0.22173697,-0.298099,-10.499047,4497,0
369964579,-0.016185213,0.009725093,-0.009136485,4514,0,-0.12243213,-0.06506946,-10.21804,4514,0
369969060,0.011507997,-0.009276464,0.008208866,4481,0,0.29737437,-0.359639,-9.471035,4481,0
369973557,0.004151682,0.011269745,-0.0024598604,4497,0,-0.090712614,-0.42393684,-10.073445,4497,0
369978058,-0.03354905,-0.0013125947,-0.0009513814,4501,0,0.70433384,0.29902098,-9.820318,4501,0
369982551,0.0024146526,-0.016345749,0.006583245,4493,0,0.036491424,0.68282104,-10.155807,4493,0
369987044,-0.026469322,0.027081529,-0.004621315,4493,0,-0.3691155,0.12201489,-10.619463,4493,0
369991542,-0.031749163,0.003174579,-0.0051175044,4498,0,0.42961287,0.55690396,-9.305774,4498,0
369996038,0.025642706,-0.008391794,-0.0036543335,4496,0,-0.46437898,0.624842,-9.621581,4496,0
370000535,-0.012061043,0.020718278,-0.013131471,4497,0,-0.5655916,-0.7220982,-10.44255,4497,0
370005034,-0.017591693,-0.010371637,-0.007229606,4499,0,0.10367986,0.14031295,-10.095112,4499,0
370009562,0.022373306,-0.0012208181,-0.00888163,4528,0,-0.26978153,0.23519933,-10.580581,4528,0
370014024,-0.014182348,0.007715754,-0.007820255,4462,0,0.14002717,-0.71146464,-10.029149,4462,0
370018521,-0.00060570764,-0.009167784,0.0066705863,4497,0,0.07337764,-0.15349819,-9.859364,4497,0
370023025,0.010077816,0.017053448,-0.0038940448,4504,0,0.023936907,-0.230788,-10.080587,4504,0
370027521,-0.033425514,-0.012354944,-0.0005093439,4496,0,0.9656487,-0.030950032,-9.585415,4496,0
370032014,-0.0065169013,-0.017310945,0.0060576773,4493,0,-0.1962016,0.7363975,-10.046368,4493,0
370036508,-0.010982852,0.028020116,-0.004095856,4494,0,-0.4670537,0.6328114,-9.919107,4494,0
370041011,-0.025721444,0.005157616,-0.0036195377,4503,0,0.6183859,0.14676505,-8.822523,4503,0
370045505,0.009516753,-0.008051419,-0.0031811509,4494,0,-0.2687111,0.4669125,-9.994939,4494,0
370049998,0.00591533,0.022644171,-0.013471277,4493,0,-0.5631564,-0.60817593,-10.459398,4493,0
370054495,-0.008997271,-0.0041526803,-0.004959904,4497,0,0.1513669,-0.1764685,-9.804009,4497,0
370058992,0.0030380778,-0.011846478,-0.0016257702,4497,0,-0.20676146,0.13978504,-10.200693,4497,0
370063495,0.0028834662,0.014229271,-0.006382173,4503,0,-0.2813509,-0.17291832,-10.206879,4503,0
370067986,-0.000101086545,-0.00013423194,0.005915814,4491,0,0.13866068,-0.45273864,-9.864041,4491,0
370072482,-0.00961857,0.0010086672,0.0038143736,4496,0,0.1710241,-0.18602009,-9.652785,4496,0
370076978,-0.015610428,-0.0064885262,0.0030608224,4496,0,0.393329,0.45848095,-9.346827,4496,0
370081482,-0.013212094,-0.006982586,0.00549858,4504,0,-0.04683768,0.3740027,-9.917483,4504,0
370085972,-0.020185642,0.014254106,0.0035310853,4490,0,-0.1934495,0.7298442,-9.680723,4490,0
370090468,-0.009839281,0.012927861,-0.005063379,4496,0,0.16889459,0.3677662,-8.988876,4496,0
370094965,-0.001366468,-0.005694828,-0.0031972895,4497,0,-0.10290878,0.018915312,-9.748257,4497,0
370099461,0.0009613107,0.0074916426,-0.0056078318,4496,0,-0.61553544,-0.21900515,-10.322769,4496,0
370103963,0.00015189777,0.009328713,-0.0060935714,4502,0,-0.24202676,-0.1489539,-10.128259,4502,0
370108455,-0.009498868,-0.008661707,0.0014457082,4492,0,0.17212883,-0.12611029,-10.197942,4492,0
370112978,0.0072956434,-0.00087813864,0.0010865068,4523,0,-0.2799998,0.16296728,-9.758502,4523,0
370117451,0.0038993917,0.010771901,0.0059114504,4473,0,-0.24904273,-0.639412,-10.056267,4473,0
370121952,-0.02073427,-0.00092142564,0.005252759,4501,0,0.5419946,-0.10645814,-10.270558,4501,0
370126445,-0.0022274083,-0.012378247,0.0068315426,4493,0,0.14270715,0.79629254,-9.576894,4493,0
370130938,-0.013112787,0.005098875,0.0028593217,4493,0,-0.13224337,-0.02339897,-10.021277,4493,0
370135435,-0.030004092,0.00947427,0.0027881565,4497,0,-0.04172679,0.5769349,-9.709441,4497,0
370139931,0.009259164,0.013264025,-0.005316293,4496,0,0.013888414,0.6003313,-9.0292015,4496,0
370144430,-0.0106809605,0.00469855,-0.011018844,4499,0,0.10563813,-0.4593269,-9.373142,4499,0
370148925,-0.009360389,0.00214687,-0.0067514526,4495,0,-0.34113756,0.11398022,-10.340688,4495,0
370153422,0.014943178,0.013262168,-0.0086846445,4497,0,-0.39219838,0.03644355,-10.412631,4497,0
370157918,-0.01710059,-0.008093729,-0.0036039494,4496,0,0.22667712,-0.74017614,-9.778665,4496,0
370162415,-0.0024677555,0.00058431696,-0.00093272794,4497,0,-0.38352832,0.3237922,-10.0422535,4497,0
370166912,0.012669626,0.009521126,0.0023459462,4497,0,-0.15081367,-0.38102934,-10.075718,4497,0
370171408,-0.025409535,-0.013798578,0.0037938256,4496,0,0.58696777,-0.3578376,-10.388565,4496,0
370175902,-0.0054617394,-0.0043064533,0.00016900717,4494,0,-0.19526643,0.86686885,-10.181769,4494,0
370180402,-0.002394494,0.0047967304,0.0012353368,4500,0,0.14269765,-0.026975222,-9.565913,4500,0
370184930,-0.031940512,0.00090260035,-0.0035589745,4528,0,0.26099774,0.48814574,-9.101376,4528,0
370189408,0.001515985,0.0034258016,-0.010073517,4478,0,0.04427849,0.77773374,-9.157611,4478,0
370193898,-0.0028693518,-0.0020171448,-0.011757403,4490,0,-0.058092657,-0.5237381,-9.608318,4490,0
370198403,-0.01663962,0.010732028,-0.0097868275,4505,0,-0.28420198,0.016136996,-10.360471,4505,0
370202894,0.0013104597,0.009575494,-0.012231133,4491,0,-0.08002456,-0.016631305,-10.132507,4491,0
370207392,-0.010976298,-0.007465362,-0.006495338,4498,0,0.02723423,-0.6227974,-9.410341,4498,0
370211878,-0.009042541,0.0052916887,-0.0031080376,4486,0,-0.2850658,0.31498575,-10.155367,4486,0
370216391,0.01075907,-0.0019990306,0.0015934267,4513,0,-0.031775758,-0.18141182,-10.097844,4513,0
370220872,-0.02241365,-0.0049935174,0.0010689994,4481,0,0.2398687,-0.20474803,-9.357139,4481,0
370225386,-0.015940052,-0.0049563046,-0.0009761615,4514,0,0.19473732,0.88006246,-9.939978,4514,0
370229867,-0.00010892379,-0.0025778916,0.00090944144,4481,0,0.054529484,0.2084092,-10.2492285,4481,0
370234362,-0.018011352,0.006916186,-0.0074915863,4495,0,-0.1092226,0.38811672,-9.181642,4495,0
370238858,-0.004510477,0.0050813556,-0.009820979,4496,0,0.34411412,0.41148102,-8.818317,4496,0
370243355,0.0002386043,-0.0092707295,-0.005687888,4497,0,-0.21479471,-0.04915688,-9.87071,4497,0
370247852,-0.00572409,0.021303073,-0.012417181,4497,0,-0.58349156,-0.07803799,-10.581998,4497,0
370252348,-0.006808253,0.0070261206,-0.004766958,4496,0,0.01244826,-0.25721914,-10.256327,4496,0
370256849,-0.004917312,-0.0013192467,0.0006468953,4501,0,-0.12307843,-0.256277,-9.683922,4501,0
370261345,-0.001792877,0.009546187,-0.0009533762,4496,0,-0.31923825,0.13470161,-10.211055,4496,0
370265838,0.0020838345,-0.013544927,0.009060548,4493,0,0.011282448,-0.42135423,-10.491124,4493,0
370270344,-0.017687634,0.0048588146,0.0064431354,4506,0,-0.20749724,0.25256816,-10.056235,4506,0
370274832,-0.0064120507,-0.0016620208,0.0060287653,4488,0,0.34557986,0.7637117,-10.071894,4488,0
370279328,-0.004272805,-0.012673935,0.0045539965,4496,0,0.19573371,-0.07462953,-9.537515,4496,0
370283839,-0.014695059,0.012029771,-0.002896526,4511,0,-0.25719747,0.41430897,-9.359679,4511,0
370288322,0.003300678,0.009238607,-0.0023557995,4483,0,0.3448823,0.22158419,-9.665159,4483,0
370292819,-0.0027738505,-0.0022782506,-0.0032329352,4497,0,-0.17796136,-0.1302397,-9.847255,4497,0
370297315,-0.012140805,0.021914568,-0.005590794,4496,0,-0.32478815,0.013799543,-10.255484,4496,0
370301812,-0.0013649379,0.00613352,0.0022778593,4497,0,-0.073281735,-0.45735928,-10.250265,4497,0
370306308,-0.012268921,0.011226706,0.0042087273,4496,0,-0.24552242,-0.051127817,-9.697771,4496,0
370310809,0.00036383496,0.00086133525,0.0048932927,4501,0,0.0045528854,0.16738673,-10.021503,4501,0
370315323,0.005181095,-0.008369676,0.01012799,4514,0,-0.32906625,-0.5541378,-10.346586,4514,0
370319802,-0.024839193,0.021792494,0.00199474,4479,0,-0.21602757,0.42748046,-9.982466,4479,0
370324299,-0.003096563,-0.014623736,0.009496521,4497,0,0.8822046,0.78651893,-9.667068,4497,0
370328792,0.0007061675,-0.015845887,0.004171298,4493,0,-0.03040862,0.16061258,-9.440596,4493,0
370333304,-0.010742795,0.01526733,-0.010529814,4512,0,-0.13904166,0.29996827,-9.658209,4512,0
370337785,0.0051612183,-0.0051805964,-0.0042071226,4481,0,0.48907197,-0.022397019,-9.847571,4481,0
370342288,-0.004599929,0.0104217045,-0.013297351,4503,0,-0.4242691,-0.07803458,-9.969021,4503,0
370346792,-0.007975034,0.020383628,-0.012321474,4504,0,-0.012794453,0.04555972,-9.5475235,4504,0
370351275,-0.00078667916,-0.012081839,0.0044582225,4483,0,0.11281307,-0.52079535,-9.818317,4483,0
370355778,-0.020461852,0.020968888,-0.0041220556,4503,0,-0.73901427,-0.16100776,-9.963629,4503,0
370360272,-0.0020102095,-0.0004759304,0.0044894833,4494,0,0.34918544,0.04817583,-9.563477,4494,0
370364765,0.004203562,-0.021468913,0.008898715,4493,0,-0.20430747,-0.43403777,-9.878639,4493,0
370369262,-0.02981279,0.023703046,-0.005145439,4497,0,-0.20339113,0.3842184,-10.34188,4497,0
370373758,-0.0010399993,-0.017476736,0.0048650443,4496,0,0.85854566,0.7613625,-9.917032,4496,0
370378260,-0.003618985,-0.015945114,-0.0026544873,4502,0,-0.15112944,0.2502271,-9.763195,4502,0
370382758,-0.023500573,0.015577144,-0.01889352,4498,0,-0.1189179,0.23018107,-9.43836,4498,0
370387248,0.0060915886,-0.011653237,-0.0054952484,4490,0,0.50110686,0.026367627,-9.261202,4490,0
370391762,-0.0039035354,0.0071572573,-0.017469551,4514,0,-0.45873934,-0.043364458,-10.221487,4514,0
370396242,-0.014850429,0.015736122,-0.01882541,4480,0,0.029313136,-0.139908,-9.770658,4480,0
370400739,0.0026624883,-0.010093911,0.0017555401,4497,0,-0.108060285,-0.3722676,-9.865059,4497,0
370405235,-0.017734945,0.017054133,-0.0038318818,4496,0,-0.6848955,-0.28406477,-10.42484,4496,0
370409732,-0.010548865,-0.007866969,0.0055516204,4497,0,0.2904162,0.038328316,-9.676986,4497,0
370414234,0.0121233305,-0.01233468,0.009933096,4502,0,-0.38188905,-0.031606745,-10.171025,4502,0
370418725,-0.025100917,0.014547207,-0.0040932065,4491,0,-0.07515462,0.2081974,-9.922609,4491,0
370423229,-0.00752395,-0.017993601,0.0043434184,4504,0,0.8014601,0.7807559,-9.498942,4504,0
370427735,0.0038930345,-0.0112053165,-0.0027814314,4506,0,-0.21996011,0.5801676,-9.828882,4506,0
370432215,-0.024957787,0.011387068,-0.014629451,4480,0,0.07867086,0.100542895,-9.774288,4480,0
370436712,0.0016371827,-0.0057093035,-0.0064860624,4497,0,0.25329626,0.16969132,-9.753111,4497,0
370441209,-0.0060582096,0.011209822,-0.015261518,4497,0,-0.5569583,-0.15655665,-10.066004,4497,0
370445705,-0.0146505395,0.016132282,-0.013600168,4496,0,0.0619631,-0.42764777,-9.82002,4496,0
370450202,0.006488517,-0.005688704,0.003912129,4497,0,-0.18729408,-0.038171094,-10.453464,4497,0
370454699,-0.0101545155,0.016315358,0.0005424558,4497,0,-0.7261949,-0.41056764,-10.759894,4497,0
370459195,-0.015450434,-0.0014163003,0.0100937225,4496,0,0.024681222,0.015323143,-9.696562,4496,0
370463692,0.008322263,-0.0051000062,0.013240644,4497,0,-0.29412413,0.39114776,-10.5325985,4497,0
370468189,-0.007562853,0.012472372,0.0023424022,4497,0,-0.06266392,0.081959926,-10.1684475,4497,0
370472682,-0.0025046389,-0.013673556,0.003741068,4493,0,0.61957425,0.51608497,-9.212855,4493,0
370477182,0.0038915926,-0.0052622934,-0.0018686665,4500,0,0.036405113,0.5437189,-9.715869,4500,0
370481679,-0.016435359,0.009743682,-0.010690235,4497,0,0.07383449,0.22324364,-9.890216,4497,0
370486208,0.0031379815,-0.0015905566,-0.004532443,4529,0,0.00082910893,0.20191818,-9.764744,4529,0
370490675,-0.0034410157,0.021978308,-0.011630775,4467,0,-0.51392263,-0.14978616,-10.265137,4467,0
370495169,-0.015188156,0.01926824,-0.010813241,4494,0,-0.023049202,-0.54832613,-9.978433,4494,0
370499665,0.003910465,-0.007213004,0.007791429,4496,0,-0.27711225,-0.3069319,-10.44266,4496,0
370504157,-0.015470082,0.017305758,0.002833216,4492,0,-0.73212373,-0.38817096,-11.249666,4492,0
370508659,-0.012916689,0.0021187118,0.010323502,4502,0,0.1492467,0.2111031,-9.624947,4502,0
370513165,0.007364035,-0.017560638,0.017370475,4506,0,-0.06946943,0.3015163,-9.658786,4506,0
370517671,-0.0051732785,0.019086232,0.00022504455,4506,0,-0.255848,-0.00034356554,-10.190018,4506,0
370522149,-0.0069243913,-0.010069821,0.0042245714,4478,0,0.85064185,0.41406915,-9.177737,4478,0
370526652,-0.0024600658,-0.01685138,-0.0010507347,4503,0,0.23026568,0.37357292,-9.669193,4503,0
370531142,-0.01616693,0.011047682,-0.014911489,4490,0,0.041302092,0.43089545,-9.796288,4490,0
370535655,0.006108941,-0.001852029,-0.009354161,4513,0,0.2899919,-0.00045129945,-9.631141,4513,0
370540141,-0.005762528,0.010053762,-0.011824547,4486,0,-0.3307452,-0.06928722,-10.671176,4486,0
370544638,-0.014929231,0.019926883,-0.017940601,4497,0,-0.17149934,-0.5881703,-9.797239,4497,0
370549138,-0.0036378303,-0.008548717,0.004687957,4500,0,-0.06183821,-0.30361673,-9.774213,4500,0
370553625,-0.013034042,0.010495898,0.0032702717,4487,0,-0.5792314,-0.40455347,-11.136755,4487,0
370558122,-0.011658725,0.009926161,0.008002799,4497,0,0.04334781,0.09037839,-9.642251,4497,0
370562625,0.0052014394,-0.017499262,0.017971348,4503,0,0.028527264,0.20955923,-9.668329,4503,0
370567122,-0.0032731113,0.0038696881,0.00047607665,4497,0,-0.14386295,0.22428948,-10.11019,4497,0
370571612,-0.016594991,-0.011878112,-0.0010392498,4490,0,0.5671617,0.37161672,-9.124485,4490,0
370576109,-0.0060989885,-0.009837227,-0.0057985093,4497,0,0.14027254,0.47697937,-9.719768,4497,0
370580628,-0.017003385,0.009470775,-0.017678296,4519,0,0.43383887,0.6678388,-9.859649,4519,0
370585109,-0.0049994923,-0.0141346855,-0.0104515385,4481,0,0.23020758,-0.13540648,-9.234549,4481,0
370589616,-0.0056394413,0.011599081,-0.012842751,4507,0,-0.6049184,-0.12437144,-10.021874,4507,0
370594099,-0.02161797,0.017235404,-0.017073961,4483,0,-0.057657115,-0.6471893,-9.455272,4483,0
370598617,-0.008437477,-0.01703228,0.0049606017,4518,0,-0.011142237,-0.07454709,-9.772136,4518,0
370603102,-0.0043664207,0.004183439,0.005615105,4485,0,-0.7680167,-0.3824085,-10.878411,4485,0
370607593,-0.021810964,0.0071387705,0.008412462,4491,0,0.08319717,-0.2293964,-9.659938,4491,0
370612083,0.0009403197,-0.015500937,0.016139394,4490,0,0.15084125,0.49028906,-9.934275,4490,0
370616579,0.0037345465,-0.00502747,3.6642105e-05,4496,0,-0.21759263,0.27181694,-10.071269,4496,0
370621076,-0.016556138,-0.007968192,-0.0017118112,4497,0,0.3061329,0.3649886,-9.544599,4497,0
370625579,-0.00016740701,-0.00810023,-0.010564396,4503,0,0.15833403,0.59534967,-9.825593,4503,0
370630077,-0.017849026,0.009858653,-0.021096556,4498,0,0.3447997,0.523027,-10.038318,4498,0
370634566,-0.005720483,-0.0013396405,-0.016445085,4489,0,-0.13067855,-0.08866376,-9.906545,4489,0
370639063,-0.0028665212,0.019293357,-0.017105876,4497,0,-0.39766973,-0.125583,-9.944782,4497,0
370643563,-0.01922009,0.0076004104,-0.012889013,4500,0,-0.18336584,-0.5802946,-9.622303,4500,0
370648056,-0.0044480376,-0.009135306,0.0028223817,4493,0,-0.4847316,-0.26693746,-10.18348,4493,0
370652559,-0.005724281,0.014579038,0.007728245,4503,0,-0.669432,-0.38860887,-10.704615,4503,0
370657056,-0.013789626,0.0071554966,0.011719397,4497,0,-0.0012734984,0.090386674,-9.638633,4497,0
370661563,0.0117086945,-0.0008819037,0.015179453,4507,0,-0.00061201124,0.4113319,-9.458222,4507,0
370666043,-0.006613875,-0.012097246,0.005025537,4480,0,0.22435886,0.3628701,-9.665002,4480,0
370670539,-0.0032257007,-0.012970822,0.0011312794,4496,0,-0.01992916,0.47270155,-9.72415,4496,0
370675036,0.0004201616,0.007695606,-0.011928487,4497,0,0.02657902,0.40474385,-9.643556,4497,0
370679532,-0.020152599,0.006512681,-0.015357578,4496,0,0.7224291,0.6000785,-9.425646,4496,0
370684035,0.006795578,-0.0013025744,-0.015732571,4503,0,-0.12817672,0.16687602,-9.67534,4503,0
370688553,-0.0040030973,0.026742471,-0.015223141,4518,0,-0.33713144,-0.35230774,-10.033008,4518,0
370693023,-0.02174165,0.0043739122,-0.004128634,4470,0,-0.105961025,-0.47663975,-9.879257,4470,0
370697519,0.0034885332,-0.0016378263,0.0072966022,4496,0,-0.61613154,-0.1754296,-10.125836,4496,0
370702016,-0.009169505,0.015526201,0.009272423,4497,0,-0.43192133,-0.79251975,-10.386398,4497,0
370706513,-0.008299851,-0.00046568946,0.01948381,4497,0,0.051154763,-0.016942598,-10.031223,4497,0
370711014,0.006744988,0.0027096975,0.015616578,4501,0,-0.102548935,0.36329263,-9.924701,4501,0
370715506,-0.009036102,-0.00315454,0.009377853,4492,0,0.39597052,0.4868138,-9.950461,4492,0
370720034,0.0024002253,-0.007141279,0.0010821314,4528,0,0.055105157,0.3709833,-10.2287655,4528,0
370724505,-0.0052948664,0.00951316,-0.012893391,4471,0,0.09043714,0.38712218,-9.972965,4471,0
370728996,-0.009607007,-0.00068313116,-0.015310455,4491,0,0.8132325,0.30106902,-9.467153,4491,0
370733493,0.00051301,-0.004460294,-0.015772099,4497,0,-0.1764428,0.15176237,-9.957635,4497,0
370737989,-0.011568584,0.0221351,-0.01267688,4496,0,-0.406518,-0.17735593,-10.211624,4496,0
370742486,-0.014858535,0.0065202205,-0.002849877,4497,0,-0.083959065,-0.36624122,-9.872088,4497,0
370746983,-0.0046460684,0.002728443,0.009353214,4497,0,-0.5827618,-0.26800436,-10.174168,4497,0
370751477,-0.007843335,0.0059890994,0.012369411,4494,0,-0.31958213,-0.64978534,-10.274319,4494,0
370755976,-0.008872446,-0.0024307105,0.016126605,4499,0,-0.0061020586,-0.17863472,-9.5521965,4499,0
370760474,-0.0041229837,-0.007854452,0.0110645965,4498,0,0.23857906,0.3706128,-9.344275,4498,0
370764969,-0.007100326,-0.007913454,0.004844012,4495,0,0.21805522,0.63652045,-9.625426,4495,0
370769466,-0.0053857653,0.0011744141,-0.003042676,4497,0,0.115169905,0.41653705,-9.665223,4497,0
370773962,-0.0060215034,0.0035671194,-0.014657191,4496,0,0.55252796,0.45625725,-9.624636,4496,0
370778459,-0.01523797,-0.009581302,-0.018617399,4497,0,0.5536797,0.07756091,-9.579159,4497,0
370782958,-0.010438013,0.0006039251,-0.01840792,4499,0,-0.3297245,0.21079323,-9.905396,4499,0
370787455,-0.0029546183,0.016543115,-0.014503269,4497,0,-0.3156723,-0.059315514,-10.361232,4497,0
370791951,-0.020056657,0.002191171,-0.0035957354,4496,0,-0.21782608,-0.41741115,-10.11362,4496,0
370796446,-0.005443129,0.00038771596,0.006192312,4495,0,-0.68926597,-0.09795606,-10.055492,4495,0
370800943,-0.0016460635,0.005168698,0.010837028,4497,0,-0.42339233,-0.6984509,-10.172317,4497,0
370805454,-0.019118365,-0.0035755252,0.011717539,4511,0,-0.073179826,-0.3834231,-9.869626,4511,0
370809942,0.0072471383,-0.007238495,0.007616449,4488,0,0.016330162,0.50221694,-10.112987,4488,0
370814433,0.0031667827,0.005833893,-0.005541058,4491,0,-0.08161236,0.37912044,-10.476807,4491,0
370818929,-0.00944358,-0.0055542,-0.007766583,4496,0,0.49520478,0.22758314,-10.120227,4496,0
370823437,0.0004991566,-0.008663346,-0.013490557,4508,0,0.23633401,0.6875655,-9.409979,4508,0
370827927,-0.0146415,0.0066145165,-0.022411687,4490,0,0.23379372,0.17223777,-9.748387,4490,0
370832430,-0.017135257,-0.0006135527,-0.014137677,4503,0,0.03379251,0.20058067,-9.764952,4503,0
370836924,0.0035665734,0.01164627,-0.0077753332,4494,0,-0.38849708,0.06685467,-9.861991,4494,0
370841413,-0.023265732,0.017653724,-0.007161927,4489,0,-0.40096182,-0.5934455,-10.066692,4489,0
370845910,-0.005156699,-0.006944642,0.01372686,4497,0,-0.3137849,-0.09764366,-10.013589,4497,0
370850406,0.00452883,0.0019147893,0.012729748,4496,0,-0.77112305,-0.44873035,-10.407909,4496,0
370854903,-0.021931056,0.006931206,0.008600902,4497,0,0.030457573,-0.20595527,-9.869179,4497,0
370859402,0.004233322,-0.014329666,0.014334525,4499,0,0.30326164,0.32895207,-9.6539955,4499,0
370863896,-0.0011051191,0.0145039065,-0.0068141716,4494,0,-0.19223492,0.3351534,-10.002583,4494,0
