timestamp,timestamp_sample,states[0],states[1],states[2],states[3],states[4],states[5],states[6],states[7],states[8],states[9],states[10],states[11],states[12],states[13],states[14],states[15],states[16],states[17],states[18],states[19],states[20],states[21],states[22],states[23],covariances[0],covariances[1],covariances[2],covariances[3],covariances[4],covariances[5],covariances[6],covariances[7],covariances[8],covariances[9],covariances[10],covariances[11],covariances[12],covariances[13],covariances[14],covariances[15],covariances[16],covariances[17],covariances[18],covariances[19],covariances[20],covariances[21],covariances[22],covariances[23],n_states
368082912,368080459,0.9995265,-0.002833915,-0.0013148905,-0.030610994,-0.0052910247,0.009440785,0.0021564076,13.6805105,-3.2969608,0.10304222,-6.856765e-05,1.8313525e-05,-2.1332846e-05,0.0,0.0,-0.0006032391,0.41939133,0.0019512419,-0.20107746,0.0,0.0,0.0,0.0,0.0,4.0656555e-08,3.73157e-06,3.7318964e-06,3.94567e-05,0.010287169,0.0102871545,0.011275356,0.07582011,0.0758201,0.15706663,1.971949e-11,1.9719495e-11,3.3980502e-11,4.0000004e-06,4.0000004e-06,5.000027e-08,0.0,0.0,0.0,0.0,0.0,0.0,0.0,0.0,24
369072038,369069723,0.99953216,-0.0028859156,-0.0011935089,-0.030424872,-0.02123065,0.0026440937,-0.10381176,13.642097,-3.3345044,0.127828,-6.826494e-05,1.833645e-05,-2.1386391e-05,0.0,0.0,-0.0006789,0.41939133,0.0019512419,-0.20107746,0.0,0.0,0.0,0.0,0.0,4.0280835e-08,3.726606e-06,3.7268792e-06,3.94683e-05,0.010350901,0.010350886,0.011267177,0.075444505,0.075444505,0.15640795,1.971446e-11,1.9714475e-11,3.398426e-11,4.0000004e-06,4.0000004e-06,5.000018e-08,0.0,0.0,0.0,0.0,0.0,0.0,0.0,0.0,24
370069764,370067986,0.99953395,-0.0029902624,-0.0013054287,-0.030353613,-0.023949519,-0.011246115,-0.07099039,13.605848,-3.3609633,0.14170825,-6.818104e-05,1.8435298e-05,-2.1452906e-05,0.0,0.0,-0.00073644856,0.41939133,0.0019512419,-0.20107746,0.0,0.0,0.0,0.0,0.0,4.0277353e-08,3.7377624e-06,3.73804e-06,3.9507628e-05,0.010440257,0.010440248,0.01131687,0.075494535,0.07549454,0.15642516,1.972653e-11,1.9726552e-11,3.3997714e-11,4.0000004e-06,4.0000004e-06,5.000009e-08,0.0,0.0,0.0,0.0,0.0,0.0,0.0,0.0,24
371073348,371070743,0.99953437,-0.0027793106,-0.001431313,-0.030354328,-0.024240892,0.0013053789,-0.06673785,13.574342,-3.357106,0.11052425,-6.834002e-05,1.858331e-05,-2.1350035e-05,0.0,0.0,-0.0007547226,0.41939133,0.0019512419,-0.20107746,0.0,0.0,0.0,0.0,0.0,3.9682664e-08,3.7201332e-06,3.720407e-06,3.9478193e-05,0.010315495,0.010315497,0.0112710865,0.075202316,0.07520232,0.15601704,1.9708466e-11,1.9708506e-11,3.3987195e-11,4.0000004e-06,4.0000004e-06,5e-08,0.0,0.0,0.0,0.0,0.0,0.0,0.0,0.0,24
372070763,372069005,0.99953246,-0.0026630086,-0.0015547554,-0.030421453,-0.01573963,0.004526167,-0.032025665,13.538924,-3.3677254,0.07615172,-6.831878e-05,1.8725199e-05,-2.1251344e-05,0.0,0.0,-0.000762348,0.41939133,0.0019512419,-0.20107746,0.0,0.0,0.0,0.0,0.0,3.9357342e-08,3.7162642e-06,3.7165078e-06,3.9518316e-05,0.010220209,0.010220209,0.0112824375,0.07483344,0.07483345,0.15753852,1.9705711e-11,1.9705756e-11,3.4000948e-11,4.0000004e-06,4.0000004e-06,5.0000452e-08,0.0,0.0,0.0,0.0,0.0,0.0,0.0,0.0,24
373073518,373071765,0.99953127,-0.0028232906,-0.0016021522,-0.030443294,-0.023419755,0.0021855412,-0.015539436,13.479503,-3.393401,0.11263477,-6.814062e-05,1.8702249e-05,-2.1299049e-05,0.0,0.0,-0.00080172863,0.41939133,0.0019512419,-0.20107746,0.0,0.0,0.0,0.0,0.0,3.9471903e-08,3.7214472e-06,3.7216787e-06,3.948868e-05,0.010243761,0.010243744,0.01127202,0.07460002,0.07460002,0.15722542,1.9711269e-11,1.9711323e-11,3.3990758e-11,4.0000004e-06,4.0000004e-06,5.0000452e-08,0.0,0.0,0.0,0.0,0.0,0.0,0.0,0.0,24
374071987,374070029,0.99953824,-0.0029634791,-0.0016308797,-0.030199835,-0.019414749,0.0013194893,0.021000551,13.433844,-3.417234,0.1609901,-6.804805e-05,1.8776713e-05,-2.1347634e-05,0.0,0.0,-0.00083007925,0.41939133,0.0019512419,-0.20107746,0.0,0.0,0.0,0.0,0.0,3.893844e-08,3.7235552e-06,3.723807e-06,3.9459774e-05,0.010234817,0.010234804,0.011246776,0.074249774,0.07424979,0.1567983,1.971348e-11,1.971354e-11,3.398062e-11,4.0000004e-06,4.0000004e-06,5.000036e-08,0.0,0.0,0.0,0.0,0.0,0.0,0.0,0.0,24
375070065,375068299,0.99953747,-0.0028013103,-0.0017032701,-0.030235974,-0.00919095,-0.0032667979,0.0022424718,13.406403,-3.4249406,0.15094917,-6.807911e-05,1.8967154e-05,-2.121003e-05,0.0,0.0,-0.0008248719,0.41939133,0.0019512419,-0.20107746,0.0,0.0,0.0,0.0,0.0,3.8393747e-08,3.7285752e-06,3.7288332e-06,3.9500523e-05,0.0102698365,0.010269842,0.011265094,0.07409195,0.07409197,0.15668675,1.9717481e-11,1.9717571e-11,3.3994616e-11,4.0000004e-06,4.0000004e-06,5.000027e-08,0.0,0.0,0.0,0.0,0.0,0.0,0.0,0.0,24
376068939,376066559,0.99953175,-0.0034236505,-0.0042467746,-0.030108452,0.0019386635,0.0012558214,0.015429076,13.365686,-3.4172952,0.13953143,-6.81254e-05,1.895453e-05,-2.1036298e-05,-1.1832429e-05,1.3978852e-05,-0.00079961953,0.41939133,0.0019512419,-0.20107746,0.0,0.0,0.0,0.0,0.0,3.7342545e-08,3.861705e-06,3.8615904e-06,3.9471426e-05,0.021871068,0.021870922,0.011235081,0.07373066,0.07373064,0.1562639,1.9850973e-11,1.9851102e-11,3.3984465e-11,3.1230547e-06,3.1230597e-06,5.000018e-08,0.0,0.0,0.0,0.0,0.0,0.0,0.0,0.0,24
377070995,377069323,0.99936205,0.0030999952,-0.013322898,-0.032993298,-0.045567416,-0.09948886,-0.39754516,13.278144,-3.4888883,-0.30634478,-6.807922e-05,1.8853245e-05,-2.0959584e-05,0.0001896018,0.00032132657,-0.00080493855,0.41939133,0.0019512419,-0.20107746,0.0,0.0,0.0,0.0,0.0,4.4980432e-08,4.7190533e-06,4.712679e-06,3.9499588e-05,0.02388364,0.02388631,0.0112210205,0.07360173,0.07360175,0.1558864,2.0672722e-11,2.0672733e-11,3.399856e-11,1.3436028e-06,1.3435513e-06,5.000018e-08,0.0,0.0,0.0,0.0,0.0,0.0,0.0,0.0,24
378069933,378067590,0.99943036,0.0041822796,-0.0125998175,-0.03103145,0.010426536,0.048554037,-0.28551888,13.226989,-3.458927,-0.7356018,-6.810831e-05,1.8830968e-05,-2.089396e-05,0.0002695545,0.0001991795,-0.00074250624,0.41939133,0.0019512419,-0.20107746,0.0,0.0,0.0,0.0,0.0,3.983276e-08,5.816959e-06,5.811751e-06,3.947453e-05,0.019118449,0.019120835,0.011264319,0.0738869,0.07388705,0.1558419,2.1659285e-11,2.1659048e-11,3.398822e-11,7.0153305e-07,7.015098e-07,5.000009e-08,0.0,0.0,0.0,0.0,0.0,0.0,0.0,0.0,24
379072712,379070357,0.99901825,-0.007047346,-0.00789958,-0.043018486,0.10796727,0.028648417,-0.37535933,13.298937,-3.3232338,-1.2782885,-6.814284e-05,1.8830944e-05,-2.0690179e-05,0.00013705702,5.493629e-05,-0.00066691515,0.4114811,0.0019144749,-0.19995943,0.0,0.0,0.0,0.0,0.0,3.3104e-06,7.0995366e-06,7.075293e-06,0.0018936916,0.015910747,0.015912803,0.011446359,0.07517156,0.0751719,0.1569707,2.2651629e-11,2.2651069e-11,3.4074143e-11,4.758425e-07,4.75856e-07,5e-08,0.0,0.0,0.0,0.0,0.0,0.0,0.0,0.0,24
380070568,380068639,0.99913365,-0.00949739,-0.0018825602,-0.040476497,0.02122295,-0.018292084,-0.42890134,13.346016,-3.2102416,-1.8592035,-6.7956906e-05,1.8866358e-05,-2.0688527e-05,0.0001468269,-0.00015888984,-0.0005888215,0.4114811,0.0019144749,-0.19995943,0.0,0.0,0.0,0.0,0.0,7.423118e-07,7.4040754e-06,7.4386385e-06,0.00041710853,0.015327373,0.015321674,0.01144226,0.07519136,0.07519178,0.15869044,2.3520763e-11,2.352007e-11,3.50732e-11,3.296216e-07,3.296335e-07,5.0000452e-08,0.0,0.0,0.0,0.0,0.0,0.0,0.0,0.0,24
381069333,381066900,0.9992364,-0.0029943413,-0.0036513049,-0.03878657,0.022395378,-0.15650745,-0.86810505,13.362361,-3.2940829,-2.6137195,-6.808707e-05,1.866336e-05,-2.0697193e-05,4.8245915e-05,-0.00010285374,-0.0005453305,0.4114811,0.0019144749,-0.19995943,0.0,0.0,0.0,0.0,0.0,4.0926602e-07,7.5595617e-06,7.5552816e-06,0.00023465368,0.014744648,0.014738543,0.011346894,0.075011306,0.07501155,0.15806776,2.424356e-11,2.4243066e-11,3.6068554e-11,2.3955795e-07,2.395002e-07,5.000036e-08,0.0,0.0,0.0,0.0,0.0,0.0,0.0,0.0,24
382071609,382069670,0.99923396,0.00080988416,-0.011119092,-0.037514783,0.008355949,-0.08291325,-0.5804746,13.306038,-3.3709674,-3.485842,-6.81712e-05,1.8672099e-05,-2.071093e-05,6.703252e-05,-7.931873e-05,-0.00043720627,0.4114811,0.0019144749,-0.19995943,0.0,0.0,0.0,0.0,0.0,2.8594457e-07,7.8570965e-06,7.833866e-06,0.0001648468,0.013235656,0.013233816,0.011276398,0.07474621,0.07474633,0.15741967,2.5085939e-11,2.5085297e-11,3.7057208e-11,1.9965063e-07,1.9962997e-07,5.000027e-08,0.0,0.0,0.0,0.0,0.0,0.0,0.0,0.0,24
383070210,383067945,0.99927294,0.0013568784,-0.006615253,-0.037524857,0.059941165,-0.058262326,-1.0867279,13.3242235,-3.4247413,-4.184974,-6.821559e-05,1.8625928e-05,-2.0706511e-05,4.7393114e-05,-4.9471266e-05,-0.00040773742,0.4114811,0.0019144749,-0.19995943,0.0,0.0,0.0,0.0,0.0,2.1781815e-07,8.272086e-06,8.265687e-06,0.00012669628,0.012173694,0.012170096,0.011235892,0.07453353,0.07453372,0.15683794,2.6056431e-11,2.6055618e-11,3.8035033e-11,1.842919e-07,1.8431714e-07,5.000027e-08,0.0,0.0,0.0,0.0,0.0,0.0,0.0,0.0,24
384072682,384070719,0.9992609,0.0014854579,-0.0014564559,-0.03838511,0.038397506,-0.025037726,-1.0343851,13.379559,-3.4278712,-5.2013936,-6.8188005e-05,1.8661887e-05,-2.0708154e-05,2.5676793e-05,-4.6320114e-05,-0.00040401018,0.4114811,0.0019144749,-0.19995943,0.0,0.0,0.0,0.0,0.0,1.8596138e-07,8.755689e-06,8.754088e-06,0.00010369386,0.011101613,0.011097442,0.011230345,0.074517466,0.074517675,0.15645908,2.7031478e-11,2.7030546e-11,3.899921e-11,1.7964464e-07,1.7969722e-07,5.000018e-08,0.0,0.0,0.0,0.0,0.0,0.0,0.0,0.0,24
385071367,385069005,0.9993056,-0.006297401,-0.005428933,-0.036320813,0.009098447,0.011560328,-0.8268475,13.392054,-3.3422413,-6.1146564,-6.820127e-05,1.8823985e-05,-2.0729123e-05,2.3810655e-05,-5.9102375e-05,-0.00036617252,0.4114811,0.0019144749,-0.19995943,0.0,0.0,0.0,0.0,0.0,1.4570327e-07,9.330978e-06,9.332282e-06,8.777313e-05,0.01046239,0.010460816,0.011295859,0.074711785,0.07471181,0.15655272,2.7879983e-11,2.7878993e-11,3.9943937e-11,1.7833456e-07,1.7840179e-07,5.000009e-08,0.0,0.0,0.0,0.0,0.0,0.0,0.0,0.0,24
386069108,386067277,0.99927634,-0.0062664575,-0.007881286,-0.036681227,-0.010419067,-0.03928095,-0.3006084,13.321106,-3.2854776,-6.662126,-6.82138e-05,1.880522e-05,-2.0762209e-05,3.371434e-05,-6.826704e-05,-0.00032948272,0.4114811,0.0019144749,-0.19995943,0.0,0.0,0.0,0.0,0.0,1.3269562e-07,9.89249e-06,9.890769e-06,7.6690274e-05,0.009855003,0.0098550115,0.011244567,0.07413091,0.07413083,0.15602954,2.8497362e-11,2.849617e-11,4.0867604e-11,1.7798772e-07,1.780623e-07,5.000009e-08,0.0,0.0,0.0,0.0,0.0,0.0,0.0,0.0,24
387072592,387070063,0.9991637,-0.009736479,-0.009055511,-0.038666476,0.06358033,-0.110431924,-0.9759456,13.273074,-3.1785333,-7.05649,-6.860513e-05,1.8792307e-05,-2.0734586e-05,4.098999e-05,-7.346444e-05,-0.00039656667,0.4114811,0.0019144749,-0.19995943,0.0,0.0,0.0,0.0,0.0,1.2945672e-07,1.0228024e-05,1.0230232e-05,6.820501e-05,0.010132576,0.010130861,0.011207815,0.073186964,0.0731869,0.15554649,2.8676518e-11,2.8675022e-11,4.176194e-11,1.7739558e-07,1.774748e-07,5e-08,0.0,0.0,0.0,0.0,0.0,0.0,0.0,0.0,24
388070013,388068338,0.9991099,-0.009252128,-0.007910755,-0.040389713,0.09381033,-0.17846297,-0.22780563,13.282026,-3.1727762,-7.8025084,-6.892988e-05,1.8933897e-05,-2.071574e-05,5.43045e-05,-7.433305e-05,-0.0003596286,0.4114811,0.0019144749,-0.19995943,0.0,0.0,0.0,0.0,0.0,1.262735e-07,1.0391148e-05,1.03924895e-05,6.189639e-05,0.0096841045,0.009680781,0.011242919,0.07212832,0.07212822,0.15709476,2.84771e-11,2.8475241e-11,4.262736e-11,1.7626162e-07,1.7634602e-07,5.000036e-08,0.0,0.0,0.0,0.0,0.0,0.0,0.0,0.0,24
389073432,389071119,0.9991938,-0.0060683168,-0.006394378,-0.03916886,0.08824639,-0.18288815,-0.0050982186,13.299402,-3.190428,-7.9193835,-6.941018e-05,1.9113666e-05,-2.0730022e-05,6.7455636e-05,-6.935828e-05,-0.00035171068,0.4114811,0.0019144749,-0.19995943,0.0,0.0,0.0,0.0,0.0,1.1000039e-07,1.0526018e-05,1.0524727e-05,5.6844005e-05,0.009758561,0.009756663,0.0112270815,0.07093976,0.07093947,0.15670551,2.8053481e-11,2.8051556e-11,4.3452318e-11,1.7504586e-07,1.7513399e-07,5.000036e-08,0.0,0.0,0.0,0.0,0.0,0.0,0.0,0.0,24
390071813,390069404,0.9992154,-0.006051059,-0.0060069975,-0.038677555,0.08684272,-0.16822293,0.073757224,13.294286,-3.2091522,-7.7630024,-6.966897e-05,1.9389172e-05,-2.075839e-05,8.328009e-05,-6.8937916e-05,-0.00038916085,0.4114811,0.0019144749,-0.19995943,0.0,0.0,0.0,0.0,0.0,1.0067505e-07,1.0482277e-05,1.0480889e-05,5.2860847e-05,0.009980921,0.009980489,0.01121584,0.06963865,0.06963835,0.15634596,2.7344686e-11,2.7342758e-11,4.4234696e-11,1.7340831e-07,1.734976e-07,5.000027e-08,0.0,0.0,0.0,0.0,0.0,0.0,0.0,0.0,24
391069606,391067692,0.9990992,-0.011978987,-0.007374204,-0.040038694,0.105682746,-0.12136385,0.28624895,13.298057,-3.2009346,-7.610028,-6.980171e-05,1.9728852e-05,-2.075796e-05,0.00010037092,-7.157483e-05,-0.00037598392,0.4114811,0.0019144749,-0.19995943,0.0,0.0,0.0,0.0,0.0,1.0177106e-07,1.03592665e-05,1.0361484e-05,4.979276e-05,0.0101976795,0.010197466,0.011329322,0.06901531,0.069015056,0.15684536,2.6531064e-11,2.652901e-11,4.4976536e-11,1.7164825e-07,1.7173578e-07,5.000027e-08,0.0,0.0,0.0,0.0,0.0,0.0,0.0,0.0,24
392072818,392070477,0.99938095,-0.014197437,-0.0059177754,-0.031640876,0.116659775,-0.17378396,0.32028693,13.299565,-3.176201,-7.3511095,-7.005376e-05,1.9981006e-05,-2.0692065e-05,0.00011303444,-6.8835376e-05,-0.0003655477,0.4114811,0.0019144749,-0.19995943,0.0,0.0,0.0,0.0,0.0,6.4555444e-08,1.0076432e-05,1.0081189e-05,4.7279023e-05,0.010177877,0.010177852,0.011265283,0.06777338,0.06777326,0.15637602,2.5583428e-11,2.558133e-11,4.5661048e-11,1.6976661e-07,1.6984879e-07,5.000018e-08,0.0,0.0,0.0,0.0,0.0,0.0,0.0,0.0,24
393070616,393068772,0.999359,-0.010236228,-0.001384764,-0.034276128,0.1324372,-0.2257961,0.6654487,13.3497095,-3.236028,-6.9281745,-7.0257614e-05,2.0431606e-05,-2.0670208e-05,0.00012923351,-6.488592e-05,-0.0003677542,0.4114811,0.0019144749,-0.19995943,0.0,0.0,0.0,0.0,0.0,6.886154e-08,9.855527e-06,9.856196e-06,4.532955e-05,0.010035963,0.0100357635,0.01127345,0.06687607,0.066875905,0.15621969,2.4765048e-11,2.4763082e-11,4.629956e-11,1.6820009e-07,1.6827764e-07,5.000009e-08,0.0,0.0,0.0,0.0,0.0,0.0,0.0,0.0,24
394069326,394067058,0.99863523,-0.006106151,0.0015832024,-0.051844146,0.10589635,-0.17673914,0.2650688,13.392709,-3.3124213,-6.3419085,-7.029582e-05,2.0791036e-05,-2.0691788e-05,0.00014297878,-6.329444e-05,-0.0005035937,0.4114811,0.0019144749,-0.19995943,0.0,0.0,0.0,0.0,0.0,1.3647968e-07,9.570792e-06,9.568735e-06,4.363175e-05,0.010464967,0.010464969,0.011334653,0.066529505,0.06652941,0.15639727,2.397383e-11,2.3971852e-11,4.6869474e-11,1.665869e-07,1.6666029e-07,5.0000093e-08,0.0,0.0,0.0,0.0,0.0,0.0,0.0,0.0,24
395072138,395069851,0.9993897,-0.00681223,0.00072494394,-0.034254022,0.05488279,-0.090975225,0.33496094,13.433843,-3.3062642,-5.916882,-7.065801e-05,2.1367956e-05,-2.07227e-05,0.00016343607,-5.242691e-05,-0.00062293984,0.4114811,0.0019144749,-0.19995943,0.0,0.0,0.0,0.0,0.0,6.3736294e-08,9.223729e-06,9.222758e-06,4.2491007e-05,0.010235446,0.0102351885,0.011294098,0.0661163,0.0661163,0.15609159,2.32149e-11,2.3212566e-11,4.738697e-11,1.6505538e-07,1.6512458e-07,5e-08,0.0,0.0,0.0,0.0,0.0,0.0,0.0,0.0,24
396069901,396068155,0.9992749,-0.011224477,0.00311289,-0.036249135,0.008446277,-0.11383723,0.32800522,13.454922,-3.2826571,-5.480243,-7.096279e-05,2.1919723e-05,-2.0639602e-05,0.00018118724,-4.2773732e-05,-0.0007290984,0.4114811,0.0019144749,-0.19995943,0.0,0.0,0.0,0.0,0.0,6.8495694e-08,8.958834e-06,8.960867e-06,4.14715e-05,0.010120713,0.010122046,0.011323144,0.065739445,0.065739416,0.15776388,2.2617857e-11,2.2615033e-11,4.7828422e-11,1.6385965e-07,1.6392794e-07,5.000045e-08,0.0,0.0,0.0,0.0,0.0,0.0,0.0,0.0,24
397073407,397070938,0.9990805,-0.005871574,-0.007697694,-0.0417673,-0.064933896,-0.1331682,0.17033353,13.381418,-3.304118,-5.1324863,-7.124282e-05,2.2129429e-05,-2.0588124e-05,0.00018765604,-3.5181136e-05,-0.0007852506,0.4114811,0.0019144749,-0.19995943,0.0,0.0,0.0,0.0,0.0,8.394688e-08,8.750292e-06,8.744343e-06,4.0678235e-05,0.0100164,0.010017774,0.011258779,0.06528392,0.065284,0.1571974,2.2124282e-11,2.2120463e-11,4.8202067e-11,1.6295829e-07,1.6302847e-07,5.000036e-08,0.0,0.0,0.0,0.0,0.0,0.0,0.0,0.0,24
398070929,398069232,0.9991109,-0.004338567,-0.005790087,-0.041534908,0.028566634,-0.07766294,0.3511629,13.305169,-3.3415682,-4.7861896,-7.131822e-05,2.2031307e-05,-2.0668898e-05,0.00018609238,-3.311878e-05,-0.0008170898,0.4114811,0.0019144749,-0.19995943,0.0,0.0,0.0,0.0,0.0,8.171041e-08,8.599911e-06,8.594356e-06,4.0179584e-05,0.009798386,0.009798445,0.011222122,0.0649817,0.06498172,0.1566818,2.1738309e-11,2.1734775e-11,4.8523262e-11,1.6228704e-07,1.6235825e-07,5.000027e-08,0.0,0.0,0.0,0.0,0.0,0.0,0.0,0.0,24
399069958,399067528,0.99899507,-0.008969964,-0.0065971618,-0.04341729,0.08047581,-0.055278063,0.5932906,13.305898,-3.3263326,-4.5045834,-7.150147e-05,2.1808568e-05,-2.0733476e-05,0.00018063367,-2.9891047e-05,-0.00075849524,0.4114811,0.0019144749,-0.19995943,0.0,0.0,0.0,0.0,0.0,8.804258e-08,8.528925e-06,8.526384e-06,3.9758565e-05,0.009637618,0.009638986,0.01119838,0.06473732,0.06473722,0.15621543,2.1448412e-11,2.1446562e-11,4.875681e-11,1.6187214e-07,1.6194412e-07,5.000018e-08,0.0,0.0,0.0,0.0,0.0,0.0,0.0,0.0,24
400072092,400070324,0.9991997,-0.012692735,-0.007818213,-0.037119307,0.092875406,-0.06529109,0.5674574,13.337885,-3.224287,-4.2429204,-7.2495495e-05,2.1618087e-05,-2.068e-05,0.00017601172,-1.49766665e-05,-0.00063746184,0.4114811,0.0019144749,-0.19995943,0.0,0.0,0.0,0.0,0.0,6.659383e-08,8.49418e-06,8.495621e-06,3.9573177e-05,0.009650201,0.009651059,0.011188953,0.06456646,0.06456639,0.15581225,2.1213984e-11,2.1213194e-11,4.894094e-11,1.6158592e-07,1.6165855e-07,5.0000178e-08,0.0,0.0,0.0,0.0,0.0,0.0,0.0,0.0,24
401070914,401068624,0.9995083,-0.010485799,0.0012711078,-0.029524887,0.08163242,-0.15563704,0.7782893,13.429892,-3.2354834,-3.805957,-7.307743e-05,2.1732823e-05,-2.0586669e-05,0.00017527986,-7.5132357e-06,-0.0005327292,0.4114811,0.0019144749,-0.19995943,0.0,0.0,0.0,0.0,0.0,4.377461e-08,8.51029e-06,8.511629e-06,3.9438313e-05,0.00971334,0.009711314,0.011266932,0.064988,0.06498797,0.15602246,2.1044352e-11,2.104378e-11,4.9035897e-11,1.614018e-07,1.6147531e-07,5.0000093e-08,0.0,0.0,0.0,0.0,0.0,0.0,0.0,0.0,24
402068876,402066926,0.9995297,-0.0048629413,0.0010120061,-0.030262219,-0.007894512,-0.15187179,0.50714415,13.473065,-3.3580873,-3.532431,-7.3038995e-05,2.1956253e-05,-2.062468e-05,0.0001784005,-7.4357e-06,-0.0005069033,0.4114811,0.0019144749,-0.19995943,0.0,0.0,0.0,0.0,0.0,4.4271644e-08,8.42325e-06,8.420466e-06,3.9441617e-05,0.009905474,0.009905599,0.011316876,0.06553111,0.065531015,0.15624976,2.0823128e-11,2.0822214e-11,4.908615e-11,1.611092e-07,1.6118351e-07,5e-08,0.0,0.0,0.0,0.0,0.0,0.0,0.0,0.0,24
403071584,403069729,0.999472,-0.0043982016,-0.0016576054,-0.03214929,-0.021775546,-0.03250044,0.3790522,13.430911,-3.3954604,-3.2202125,-7.315787e-05,2.1910491e-05,-2.0684894e-05,0.0001767233,-6.3213897e-06,-0.00043958783,0.4114811,0.0019144749,-0.19995943,0.0,0.0,0.0,0.0,0.0,4.8790273e-08,8.372231e-06,8.368564e-06,3.9446193e-05,0.009924443,0.009923654,0.011276612,0.065612935,0.06561282,0.15589856,2.0651593e-11,2.065056e-11,4.90465e-11,1.6090867e-07,1.6098348e-07,5e-08,0.0,0.0,0.0,0.0,0.0,0.0,0.0,0.0,24
404070260,404068036,0.9993996,-0.010765556,-0.0098409895,-0.03142968,-0.042056695,-0.012907442,0.5132313,13.335057,-3.2914443,-3.0217083,-7.393362e-05,2.1572965e-05,-2.0580885e-05,0.00016944337,6.0614724e-07,-0.00030101894,0.4114811,0.0019144749,-0.19995943,0.0,0.0,0.0,0.0,0.0,4.789264e-08,8.332135e-06,8.326819e-06,3.951025e-05,0.009731312,0.009731264,0.011272261,0.06564025,0.06564016,0.15736741,2.050557e-11,2.0504834e-11,4.8943634e-11,1.607395e-07,1.6081393e-07,5.000045e-08,0.0,0.0,0.0,0.0,0.0,0.0,0.0,0.0,24
405068118,405066334,0.999102,-0.012013752,-0.011727848,-0.03890187,0.022165397,-0.12863496,0.551134,13.315976,-3.2719285,-2.6188538,-7.4475e-05,2.154878e-05,-2.0473388e-05,0.00016768846,5.363012e-06,-0.00020731686,0.4114811,0.0019144749,-0.19995943,0.0,0.0,0.0,0.0,0.0,6.918373e-08,8.359445e-06,8.353482e-06,3.9673843e-05,0.00990219,0.009901049,0.011354016,0.066212066,0.06621198,0.15757248,2.0436066e-11,2.043571e-11,4.8810577e-11,1.6062518e-07,1.6069933e-07,5.000027e-08,0.0,0.0,0.0,0.0,0.0,0.0,0.0,0.0,24
406071083,406069136,0.9990032,-0.0054365667,-0.0060034883,-0.043897524,0.07114239,-0.11284517,0.35961232,13.36441,-3.300229,-2.2519271,-7.5210955e-05,2.1537027e-05,-2.0543264e-05,0.00016728127,1.4266658e-05,-0.0001878737,0.4114811,0.0019144749,-0.19995943,0.0,0.0,0.0,0.0,0.0,8.404575e-08,8.296823e-06,8.292097e-06,3.9812432e-05,0.010074614,0.010074521,0.011425373,0.06702198,0.067021824,0.15801653,2.0313435e-11,2.0313622e-11,4.8594587e-11,1.6045689e-07,1.6053124e-07,5.000027e-08,0.0,0.0,0.0,0.0,0.0,0.0,0.0,0.0,24
407073712,407071941,0.9991264,-0.0021928414,-0.006233474,-0.04126589,0.008041954,-0.07004589,0.3710249,13.4298525,-3.3337913,-2.0213513,-7.555862e-05,2.1792623e-05,-2.059362e-05,0.00017097898,1.7991113e-05,-0.0001636476,0.4114811,0.0019144749,-0.19995943,0.0,0.0,0.0,0.0,0.0,7.484549e-08,8.261829e-06,8.256524e-06,4.0067884e-05,0.010241238,0.0102412,0.011553089,0.067960165,0.06795997,0.15880068,2.0237895e-11,2.0238262e-11,4.8358272e-11,1.6028959e-07,1.6036452e-07,5.0000178e-08,0.0,0.0,0.0,0.0,0.0,0.0,0.0,0.0,24
408067507,408065762,0.9993047,-0.0070194113,-0.010357058,-0.035123397,-0.05361809,-0.033259645,0.4735696,13.450103,-3.3134048,-1.7493532,-7.613792e-05,2.2080108e-05,-2.0458183e-05,0.00017551047,2.3436429e-05,-8.5757456e-05,0.4114811,0.0019144749,-0.19995943,0.0,0.0,0.0,0.0,0.0,5.6270462e-08,8.241961e-06,8.234674e-06,4.027385e-05,0.010245601,0.010246556,0.011641407,0.06901212,0.06901193,0.15972956,2.0164675e-11,2.0164691e-11,4.8044613e-11,1.601875e-07,1.6026412e-07,5.0000093e-08,0.0,0.0,0.0,0.0,0.0,0.0,0.0,0.0,24
409070483,409068567,0.9992941,-0.0075297654,-0.007489846,-0.03603795,-0.050548635,-0.10961052,0.10066597,13.485405,-3.3596056,-1.4762505,-7.636072e-05,2.2652877e-05,-2.0269435e-05,0.00018135316,2.5164225e-05,-0.0001258652,0.4114811,0.0019144749,-0.19995943,0.0,0.0,0.0,0.0,0.0,5.781925e-08,8.192994e-06,8.18769e-06,4.0470408e-05,0.010564882,0.010565601,0.01170282,0.06998711,0.0699869,0.16027007,2.0102243e-11,2.0101682e-11,4.769058e-11,1.6004148e-07,1.6012153e-07,5.0000093e-08,0.0,0.0,0.0,0.0,0.0,0.0,0.0,0.0,24
410073667,410071366,0.99918973,-0.00467307,-0.007951217,-0.03917866,-0.04198622,-0.09280997,0.09522696,13.483884,-3.4309616,-1.2454573,-7.662264e-05,2.3108798e-05,-2.0225369e-05,0.00018492513,2.8251236e-05,-0.00019422037,0.4114811,0.0019144749,-0.19995943,0.0,0.0,0.0,0.0,0.0,6.683271e-08,8.045907e-06,8.038533e-06,4.0731593e-05,0.010104734,0.010105116,0.011458277,0.069642305,0.0696422,0.1589405,1.9957659e-11,1.9956314e-11,4.7333765e-11,1.5988113e-07,1.599658e-07,5e-08,0.0,0.0,0.0,0.0,0.0,0.0,0.0,0.0,24
411071995,411069680,0.999301,-0.0006092509,-0.0051128482,-0.03702732,-0.07215969,-0.01649945,0.08240599,13.473292,-3.505876,-1.1066234,-7.660681e-05,2.3466811e-05,-2.0248595e-05,0.00018718292,2.7700635e-05,-0.00024134955,0.4114811,0.0019144749,-0.19995943,0.0,0.0,0.0,0.0,0.0,5.966857e-08,7.980301e-06,7.974012e-06,4.093208e-05,0.0099525405,0.009951987,0.011411255,0.06964863,0.069648616,0.16011433,1.9895946e-11,1.989417e-11,4.691309e-11,1.5976501e-07,1.598536e-07,5.000045e-08,0.0,0.0,0.0,0.0,0.0,0.0,0.0,0.0,24
412069729,412067989,0.9992264,-0.0062706554,-0.007746168,-0.03804431,-0.07830417,0.037829034,0.075548165,13.383614,-3.4805179,-1.1015145,-7.662309e-05,2.3200852e-05,-2.0189154e-05,0.00018591102,2.8137449e-05,-0.00020071493,0.4114811,0.0019144749,-0.19995943,0.0,0.0,0.0,0.0,0.0,6.344916e-08,7.948633e-06,7.941724e-06,4.1182713e-05,0.009831694,0.009830436,0.011305309,0.06943851,0.0694385,0.15899907,1.9853622e-11,1.9852233e-11,4.6500834e-11,1.596953e-07,1.5978593e-07,5.0000363e-08,0.0,0.0,0.0,0.0,0.0,0.0,0.0,0.0,24
413072730,413070803,0.99916345,-0.01132278,-0.015859475,-0.035955694,0.0021400899,0.04965533,0.4012502,13.303139,-3.3656406,-1.0145088,-7.729845e-05,2.298814e-05,-2.001263e-05,0.00018732526,3.0500487e-05,-8.8688226e-05,0.4114811,0.0019144749,-0.19995943,0.0,0.0,0.0,0.0,0.0,5.87776e-08,7.999901e-06,7.989605e-06,4.1348743e-05,0.009751563,0.009752398,0.011324608,0.06963869,0.06963865,0.15857543,1.9861165e-11,1.9860636e-11,4.603593e-11,1.5967258e-07,1.5976553e-07,5.000027e-08,0.0,0.0,0.0,0.0,0.0,0.0,0.0,0.0,24
414070885,414069115,0.9993486,-0.010106596,-0.009604275,-0.033288047,0.049742166,-0.006842965,0.40469334,13.32552,-3.3136563,-0.87235606,-7.79104e-05,2.2855076e-05,-1.994264e-05,0.00018674305,3.4160534e-05,-6.536238e-05,0.4114811,0.0019144749,-0.19995943,0.0,0.0,0.0,0.0,0.0,5.00416e-08,7.97338e-06,7.9710735e-06,4.1596282e-05,0.009719004,0.009719262,0.011285106,0.06965592,0.069655865,0.15788104,1.9816381e-11,1.9816579e-11,4.5591645e-11,1.5964025e-07,1.597357e-07,5.000027e-08,0.0,0.0,0.0,0.0,0.0,0.0,0.0,0.0,24
415069109,415067433,0.99943405,-0.0061432673,-0.0068441867,-0.032358803,0.062838756,-0.08287965,0.17594342,13.405851,-3.3593988,-0.5429816,-7.824854e-05,2.3085653e-05,-1.9929084e-05,0.00018697468,3.633337e-05,-0.00010712347,0.4114811,0.0019144749,-0.19995943,0.0,0.0,0.0,0.0,0.0,4.6570335e-08,8.0179925e-06,8.014421e-06,4.173986e-05,0.010218672,0.010216971,0.011455545,0.07065054,0.070650496,0.15840343,1.9837718e-11,1.98376e-11,4.5099778e-11,1.5961572e-07,1.5971284e-07,5.0000178e-08,0.0,0.0,0.0,0.0,0.0,0.0,0.0,0.0,24
416072530,416070244,0.9994213,-0.0044965474,-0.0039861235,-0.033480722,0.03202154,-0.055289567,0.08997084,13.463269,-3.362088,-0.37371072,-7.892297e-05,2.317609e-05,-1.9952964e-05,0.00018651971,4.0549472e-05,-0.00011797369,0.4114811,0.0019144749,-0.19995943,0.0,0.0,0.0,0.0,0.0,4.945935e-08,7.93971e-06,7.9364245e-06,4.1857682e-05,0.010036565,0.010035964,0.01135005,0.07085252,0.07085244,0.157627,1.975259e-11,1.9751709e-11,4.4600434e-11,1.5957444e-07,1.5967257e-07,5.0000093e-08,0.0,0.0,0.0,0.0,0.0,0.0,0.0,0.0,24
417070380,417068562,0.99915344,-0.0043066554,-0.0046415143,-0.040651347,-0.020791428,-0.057778966,0.22841148,13.505042,-3.3514023,-0.31807566,-7.9755766e-05,2.3483413e-05,-1.9766096e-05,0.00018806387,4.624801e-05,-8.239194e-05,0.4114811,0.0019144749,-0.19995943,0.0,0.0,0.0,0.0,0.0,7.0628644e-08,7.893123e-06,7.8894045e-06,4.2014377e-05,0.0097747985,0.009774999,0.011250187,0.07080511,0.07080494,0.15672512,1.970625e-11,1.9704132e-11,4.4132e-11,1.5954114e-07,1.5963946e-07,5e-08,0.0,0.0,0.0,0.0,0.0,0.0,0.0,0.0,24
418069567,418066880,0.99885345,-0.0014338297,-0.0085157575,-0.047086906,-0.077182084,-0.084728554,0.09688208,13.509079,-3.38274,-0.12812284,-8.032636e-05,2.3867664e-05,-1.9616069e-05,0.00019040564,4.931843e-05,-8.701412e-05,0.4114811,0.0019144749,-0.19995943,0.0,0.0,0.0,0.0,0.0,9.2928076e-08,7.906306e-06,7.899147e-06,4.206817e-05,0.0099746315,0.009975702,0.011299245,0.07136494,0.07136482,0.15665926,1.9711323e-11,1.9707796e-11,4.3627345e-11,1.5951989e-07,1.596174e-07,5e-08,0.0,0.0,0.0,0.0,0.0,0.0,0.0,0.0,24
419071475,419069697,0.9990383,0.0009831528,-0.013221469,-0.041795507,-0.093773544,-0.049845397,0.08745887,13.448291,-3.466761,0.15619417,-8.0320955e-05,2.4073486e-05,-1.9645307e-05,0.00019097452,4.716839e-05,-0.0001830467,0.4114811,0.0019144749,-0.19995943,0.0,0.0,0.0,0.0,0.0,7.440991e-08,7.883466e-06,7.870518e-06,4.2221855e-05,0.010066629,0.010067306,0.011417535,0.07216905,0.07216895,0.15885654,1.9694753e-11,1.9690099e-11,4.3162515e-11,1.5948156e-07,1.5957764e-07,5.0000452e-08,0.0,0.0,0.0,0.0,0.0,0.0,0.0,0.0,24
420069778,420068017,0.99873734,-0.0059446874,-0.010310016,-0.048808478,0.05763367,-0.1756409,-0.17815337,13.392088,-3.5085359,0.39727223,-8.066683e-05,2.410965e-05,-1.9807205e-05,0.00019142064,4.684546e-05,-0.00024344122,0.4114811,0.0019144749,-0.19995943,0.0,0.0,0.0,0.0,0.0,1.02185744e-07,7.662065e-06,7.653447e-06,4.2243202e-05,0.010801167,0.010802225,0.010250269,0.0736921,0.07369233,0.15956286,1.9672788e-11,1.9668333e-11,4.26654e-11,1.5946806e-07,1.5956351e-07,5.0000722e-08,0.0,0.0,0.0,0.0,0.0,0.0,0.0,0.0,24
421068048,421066339,0.99851537,-0.0011355254,-0.004365495,-0.054284796,-0.03771367,-0.087216005,-0.11117954,13.433556,-3.531466,0.30389178,-8.114804e-05,2.4862624e-05,-1.9853896e-05,0.00016648106,2.3934976e-05,-0.00025618038,0.4114811,0.0019144749,-0.19995943,0.0,0.0,0.0,0.0,0.0,1.2502518e-07,6.6002813e-06,6.596663e-06,4.2328957e-05,0.012324702,0.012326127,0.008867254,0.07394456,0.07394452,0.1575982,1.964566e-11,1.9640588e-11,4.2215318e-11,1.5606835e-07,1.5615976e-07,5.00005e-08,0.0,0.0,0.0,0.0,0.0,0.0,0.0,0.0,24
422070934,422069172,0.9985294,-0.0006254772,-0.0045383316,-0.05401922,-0.017535098,-0.032797247,-0.11684934,13.434106,-3.4893339,0.15081573,-8.165291e-05,2.5053401e-05,-1.9890202e-05,0.0001448811,-2.819e-05,-0.00026915452,0.4114811,0.0019144749,-0.19995943,0.0,0.0,0.0,0.0,0.0,1.2400068e-07,5.6479894e-06,5.645076e-06,4.233791e-05,0.012899396,0.01290069,0.008681044,0.07381681,0.07381681,0.1548881,1.9901773e-11,1.989698e-11,4.1741964e-11,1.4594974e-07,1.4603062e-07,5.000027e-08,0.0,0.0,0.0,0.0,0.0,0.0,0.0,0.0,24
423069706,423067482,0.998526,-0.0006583935,-0.004557413,-0.054081347,-0.011837798,-0.0016337171,-0.10953948,13.423758,-3.4554877,0.04275061,-8.1835446e-05,2.5120664e-05,-1.993968e-05,0.00013306671,-5.2185133e-05,-0.00029368955,0.4114811,0.0019144749,-0.19995943,0.0,0.0,0.0,0.0,0.0,1.2451831e-07,5.2932323e-06,5.2905325e-06,4.2328804e-05,0.012412341,0.012413139,0.009105451,0.07362878,0.073628835,0.15236726,2.041271e-11,2.0408224e-11,4.1280816e-11,1.3573084e-07,1.3580278e-07,5.0000178e-08,0.0,0.0,0.0,0.0,0.0,0.0,0.0,0.0,24
424072152,424070303,0.99855053,-0.0012008348,-0.0043142955,-0.053636532,-0.025089465,-0.01982032,-0.07411046,13.384258,-3.462254,0.016461492,-8.171174e-05,2.5100946e-05,-2.004986e-05,0.00013258724,-3.069556e-05,-0.0003492926,0.4114811,0.0019144749,-0.19995943,0.0,0.0,0.0,0.0,0.0,1.233536e-07,5.374488e-06,5.37185e-06,4.2386353e-05,0.011587658,0.011588073,0.00974246,0.07339109,0.07339118,0.15051979,2.1025591e-11,2.1021344e-11,4.0867525e-11,1.2842145e-07,1.2848835e-07,5.0000093e-08,0.0,0.0,0.0,0.0,0.0,0.0,0.0,0.0,24
425071362,425068633,0.9985698,-0.0013811213,-0.004278318,-0.053275444,-0.021079773,-0.021088751,-0.054279566,13.364904,-3.4388344,-0.0311979,-8.177555e-05,2.518986e-05,-2.021336e-05,0.00012757102,-3.339797e-05,-0.00037940437,0.4114811,0.0019144749,-0.19995943,0.0,0.0,0.0,0.0,0.0,1.226611e-07,5.628403e-06,5.6257886e-06,4.234775e-05,0.010421072,0.01042105,0.010343781,0.073091626,0.07309167,0.14952987,2.1603734e-11,2.1599743e-11,4.0433386e-11,1.254258e-07,1.254912e-07,5e-08,0.0,0.0,0.0,0.0,0.0,0.0,0.0,0.0,24
